% program   : RTKPOST ver.2.4.3 b33
% inp file  : C:\Users\Francesco Conforte\Documents\UNIVERSITA'\Magistrale\ICT for geomatics\Geomatics\LAB\Lab3\GNSS data\GNSS Static\Rover\1000790.18o
% inp file  : C:\Users\Francesco Conforte\Documents\UNIVERSITA'\Magistrale\ICT for geomatics\Geomatics\LAB\Lab3\GNSS data\GNSS Static\TORI\tori079j00.18o
% inp file  : C:\Users\Francesco Conforte\Documents\UNIVERSITA'\Magistrale\ICT for geomatics\Geomatics\LAB\Lab3\GNSS data\GNSS Static\Rover\*
% obs start : 2018/03/20 09:47:24.0 GPST (week1993 208044.0s)
% obs end   : 2018/03/20 11:49:18.0 GPST (week1993 215358.0s)
% pos mode  : static
% freqs     : L1+L2
% solution  : combined
% elev mask : 15.0 deg
% dynamics  : off
% tidecorr  : off
% ionos opt : broadcast
% tropo opt : saastamoinen
% ephemeris : broadcast
% amb res   : continuous
% val thres : 3.0
% antenna1  :                       ( 0.0000  0.0000  0.0000)
% antenna2  :                       ( 0.0000  0.0000  0.0000)
% ref pos   : 45.063364605    7.661277650   310.8177
%
% (lat/lon/height=WGS84/ellipsoidal,Q=1:fix,2:float,3:sbas,4:dgps,5:single,6:ppp,ns=# of satellites)
%  GPST                  latitude(deg) longitude(deg)  height(m)   Q  ns   sdn(m)   sde(m)   sdu(m)  sdne(m)  sdeu(m)  sdun(m) age(s)  ratio
2018/03/20 09:47:24.000   45.062369342    7.663903035   296.0386   1   6   0.0003   0.0002   0.0008   0.0001  -0.0002   0.0001   0.00   12.5
2018/03/20 09:47:25.000   45.062369342    7.663903035   296.0386   1   6   0.0003   0.0002   0.0008   0.0001  -0.0002   0.0001   0.00   12.5
2018/03/20 09:47:26.000   45.062369342    7.663903035   296.0387   1   6   0.0003   0.0002   0.0008   0.0001  -0.0002   0.0001   0.00   12.5
2018/03/20 09:47:27.000   45.062369342    7.663903034   296.0387   1   6   0.0003   0.0002   0.0008   0.0001  -0.0002   0.0001   0.00   12.5
2018/03/20 09:47:28.000   45.062369341    7.663903034   296.0388   1   6   0.0003   0.0002   0.0008   0.0001  -0.0002   0.0001   0.00   12.5
2018/03/20 09:47:29.000   45.062369341    7.663903034   296.0388   1   6   0.0003   0.0002   0.0008   0.0001  -0.0002   0.0001   0.00   12.5
2018/03/20 09:47:30.000   45.062369341    7.663903034   296.0389   1   6   0.0003   0.0002   0.0008   0.0001  -0.0002   0.0001   0.00   12.5
2018/03/20 09:47:31.000   45.062369341    7.663903034   296.0389   1   6   0.0003   0.0002   0.0008   0.0001  -0.0002   0.0001   0.00   12.5
2018/03/20 09:47:32.000   45.062369340    7.663903033   296.0389   1   6   0.0003   0.0002   0.0008   0.0001  -0.0002   0.0001   0.00   12.5
2018/03/20 09:47:33.000   45.062369340    7.663903033   296.0390   1   6   0.0003   0.0002   0.0008   0.0001  -0.0002   0.0001   0.00   12.5
2018/03/20 09:47:34.000   45.062369340    7.663903033   296.0390   1   6   0.0003   0.0002   0.0008   0.0001  -0.0002   0.0001   0.00   12.5
2018/03/20 09:47:35.000   45.062369340    7.663903033   296.0391   1   6   0.0003   0.0002   0.0008   0.0001  -0.0002   0.0001   0.00   12.5
2018/03/20 09:47:36.000   45.062369340    7.663903033   296.0391   1   6   0.0003   0.0002   0.0008   0.0001  -0.0002   0.0001   0.00   12.5
2018/03/20 09:47:37.000   45.062369339    7.663903032   296.0392   1   6   0.0003   0.0002   0.0008   0.0001  -0.0002   0.0001   0.00   12.5
2018/03/20 09:47:38.000   45.062369339    7.663903032   296.0392   1   6   0.0003   0.0002   0.0008   0.0001  -0.0002   0.0001   0.00   12.5
2018/03/20 09:47:39.000   45.062369339    7.663903032   296.0393   1   6   0.0003   0.0002   0.0008   0.0001  -0.0002   0.0001   0.00   12.5
2018/03/20 09:47:40.000   45.062369339    7.663903032   296.0393   1   6   0.0003   0.0002   0.0008   0.0001  -0.0002   0.0001   0.00   12.5
2018/03/20 09:47:41.000   45.062369338    7.663903032   296.0393   1   6   0.0003   0.0002   0.0008   0.0001  -0.0002   0.0001   0.00   12.5
2018/03/20 09:47:42.000   45.062369338    7.663903031   296.0393   1   6   0.0003   0.0002   0.0008   0.0001  -0.0002   0.0001   0.00   12.5
2018/03/20 09:47:43.000   45.062369344    7.663903036   296.0381   1   6   0.0003   0.0002   0.0008   0.0001  -0.0002   0.0001   0.00    3.0
2018/03/20 09:47:44.000   45.062369344    7.663903036   296.0380   1   6   0.0003   0.0002   0.0007   0.0001  -0.0002   0.0001   0.00    3.1
2018/03/20 09:47:45.000   45.062369344    7.663903036   296.0380   1   6   0.0003   0.0002   0.0007   0.0001  -0.0002   0.0001   0.00    3.1
2018/03/20 09:47:46.000   45.062369344    7.663903036   296.0380   1   6   0.0003   0.0002   0.0007   0.0001  -0.0002   0.0001   0.00    3.1
2018/03/20 09:47:47.000   45.062369344    7.663903036   296.0380   1   6   0.0003   0.0002   0.0007   0.0001  -0.0002   0.0001   0.00    3.2
2018/03/20 09:47:48.000   45.062369345    7.663903036   296.0379   1   6   0.0003   0.0002   0.0007   0.0001  -0.0002   0.0001   0.00    3.2
2018/03/20 09:47:49.000   45.062369345    7.663903036   296.0379   1   6   0.0003   0.0002   0.0007   0.0001  -0.0002   0.0001   0.00    3.3
2018/03/20 09:47:50.000   45.062369345    7.663903036   296.0379   1   6   0.0003   0.0002   0.0007   0.0001  -0.0002   0.0001   0.00    3.3
2018/03/20 09:47:51.000   45.062369345    7.663903036   296.0379   1   6   0.0003   0.0002   0.0007   0.0001  -0.0002   0.0001   0.00    3.4
2018/03/20 09:47:52.000   45.062369345    7.663903036   296.0379   1   6   0.0003   0.0002   0.0007   0.0001  -0.0002   0.0001   0.00    3.4
2018/03/20 09:47:53.000   45.062369345    7.663903036   296.0378   1   6   0.0003   0.0002   0.0007   0.0001  -0.0002   0.0001   0.00    3.5
2018/03/20 09:47:54.000   45.062369345    7.663903036   296.0378   1   6   0.0003   0.0002   0.0007   0.0001  -0.0002   0.0001   0.00    3.5
2018/03/20 09:47:55.000   45.062369345    7.663903036   296.0378   1   6   0.0003   0.0002   0.0007   0.0001  -0.0002   0.0001   0.00    3.6
2018/03/20 09:47:56.000   45.062369345    7.663903036   296.0378   1   6   0.0003   0.0002   0.0007   0.0001  -0.0002   0.0001   0.00    3.6
2018/03/20 09:47:57.000   45.062369345    7.663903036   296.0377   1   6   0.0003   0.0002   0.0007   0.0001  -0.0002   0.0001   0.00    3.7
2018/03/20 09:47:58.000   45.062369345    7.663903036   296.0377   1   6   0.0003   0.0002   0.0007   0.0001  -0.0002   0.0001   0.00    3.7
2018/03/20 09:47:59.000   45.062369345    7.663903036   296.0377   1   6   0.0003   0.0002   0.0007   0.0001  -0.0002   0.0001   0.00    3.8
2018/03/20 09:48:00.000   45.062369345    7.663903036   296.0377   1   6   0.0003   0.0002   0.0007   0.0001  -0.0002   0.0001   0.00    3.8
2018/03/20 09:48:01.000   45.062369345    7.663903036   296.0377   1   6   0.0003   0.0002   0.0007   0.0001  -0.0002   0.0001   0.00    3.9
2018/03/20 09:48:02.000   45.062369345    7.663903036   296.0376   1   6   0.0003   0.0002   0.0007   0.0001  -0.0002   0.0001   0.00    3.9
2018/03/20 09:48:03.000   45.062369345    7.663903036   296.0376   1   6   0.0003   0.0002   0.0007   0.0001  -0.0002   0.0001   0.00    4.0
2018/03/20 09:48:04.000   45.062369345    7.663903036   296.0376   1   6   0.0003   0.0002   0.0007   0.0001  -0.0002   0.0001   0.00    4.1
2018/03/20 09:48:05.000   45.062369346    7.663903036   296.0376   1   6   0.0003   0.0002   0.0007   0.0001  -0.0002   0.0001   0.00    4.1
2018/03/20 09:48:06.000   45.062369346    7.663903036   296.0376   1   6   0.0003   0.0002   0.0007   0.0001  -0.0002   0.0001   0.00    4.2
2018/03/20 09:48:07.000   45.062369346    7.663903036   296.0375   1   6   0.0003   0.0002   0.0007   0.0001  -0.0002   0.0001   0.00    4.2
2018/03/20 09:48:08.000   45.062369346    7.663903036   296.0375   1   6   0.0003   0.0002   0.0007   0.0001  -0.0002   0.0001   0.00    4.3
2018/03/20 09:48:09.000   45.062369346    7.663903036   296.0375   1   6   0.0003   0.0002   0.0007   0.0001  -0.0002   0.0001   0.00    4.4
2018/03/20 09:48:10.000   45.062369346    7.663903036   296.0375   1   6   0.0003   0.0002   0.0007   0.0001  -0.0002   0.0001   0.00    4.5
2018/03/20 09:48:11.000   45.062369346    7.663903036   296.0375   1   6   0.0003   0.0002   0.0007   0.0001  -0.0002   0.0001   0.00    4.6
2018/03/20 09:48:12.000   45.062369346    7.663903036   296.0374   1   6   0.0003   0.0002   0.0007   0.0001  -0.0002   0.0001   0.00    4.6
2018/03/20 09:48:13.000   45.062369346    7.663903036   296.0374   1   6   0.0003   0.0002   0.0007   0.0001  -0.0002   0.0001   0.00    4.7
2018/03/20 09:48:14.000   45.062369346    7.663903036   296.0374   1   6   0.0003   0.0002   0.0007   0.0001  -0.0002   0.0001   0.00    4.8
2018/03/20 09:48:15.000   45.062369346    7.663903036   296.0374   1   6   0.0003   0.0002   0.0007   0.0001  -0.0002   0.0001   0.00    4.9
2018/03/20 09:48:16.000   45.062369346    7.663903036   296.0374   1   6   0.0003   0.0002   0.0007   0.0001  -0.0002   0.0001   0.00    5.0
2018/03/20 09:48:17.000   45.062369346    7.663903036   296.0374   1   6   0.0003   0.0002   0.0007   0.0001  -0.0002   0.0001   0.00    5.1
2018/03/20 09:48:18.000   45.062369346    7.663903036   296.0373   1   6   0.0003   0.0002   0.0007   0.0001  -0.0002   0.0001   0.00    5.2
2018/03/20 09:48:19.000   45.062369346    7.663903036   296.0373   1   6   0.0003   0.0002   0.0007   0.0001  -0.0002   0.0001   0.00    5.3
2018/03/20 09:48:20.000   45.062369346    7.663903036   296.0373   1   6   0.0003   0.0002   0.0007   0.0001  -0.0002   0.0001   0.00    5.4
2018/03/20 09:48:21.000   45.062369346    7.663903036   296.0373   1   6   0.0003   0.0002   0.0007   0.0001  -0.0002   0.0001   0.00    5.4
2018/03/20 09:48:22.000   45.062369346    7.663903036   296.0373   1   6   0.0003   0.0002   0.0007   0.0001  -0.0002   0.0001   0.00    5.5
2018/03/20 09:48:23.000   45.062369346    7.663903036   296.0373   1   6   0.0003   0.0002   0.0007   0.0001  -0.0002   0.0001   0.00    5.6
2018/03/20 09:48:24.000   45.062369346    7.663903036   296.0373   1   6   0.0003   0.0002   0.0007   0.0001  -0.0002   0.0001   0.00    5.7
2018/03/20 09:48:25.000   45.062369346    7.663903036   296.0372   1   6   0.0003   0.0002   0.0007   0.0001  -0.0002   0.0001   0.00    5.7
2018/03/20 09:48:26.000   45.062369346    7.663903036   296.0372   1   6   0.0003   0.0002   0.0007   0.0001  -0.0002   0.0001   0.00    5.8
2018/03/20 09:48:27.000   45.062369347    7.663903036   296.0372   1   6   0.0003   0.0002   0.0007   0.0001  -0.0002   0.0001   0.00    5.9
2018/03/20 09:48:28.000   45.062369347    7.663903036   296.0372   1   6   0.0003   0.0002   0.0007   0.0001  -0.0002   0.0001   0.00    6.0
2018/03/20 09:48:29.000   45.062369347    7.663903036   296.0372   1   6   0.0003   0.0002   0.0007   0.0001  -0.0002   0.0001   0.00    6.1
2018/03/20 09:48:30.000   45.062369347    7.663903036   296.0372   1   6   0.0003   0.0002   0.0007   0.0001  -0.0002   0.0001   0.00    6.2
2018/03/20 09:48:31.000   45.062369347    7.663903036   296.0372   1   6   0.0003   0.0002   0.0007   0.0001  -0.0002   0.0001   0.00    6.3
2018/03/20 09:48:32.000   45.062369347    7.663903036   296.0371   1   6   0.0003   0.0002   0.0007   0.0001  -0.0002   0.0001   0.00    6.4
2018/03/20 09:48:33.000   45.062369347    7.663903036   296.0371   1   6   0.0003   0.0002   0.0007   0.0001  -0.0002   0.0001   0.00    6.5
2018/03/20 09:48:34.000   45.062369347    7.663903036   296.0371   1   6   0.0003   0.0002   0.0007   0.0001  -0.0002   0.0001   0.00    6.6
2018/03/20 09:48:35.000   45.062369347    7.663903036   296.0371   1   6   0.0003   0.0002   0.0007   0.0001  -0.0002   0.0001   0.00    6.7
2018/03/20 09:48:36.000   45.062369347    7.663903036   296.0371   1   6   0.0003   0.0002   0.0007   0.0001  -0.0002   0.0001   0.00    6.8
2018/03/20 09:48:37.000   45.062369347    7.663903036   296.0371   1   6   0.0003   0.0002   0.0007   0.0001  -0.0002   0.0001   0.00    6.8
2018/03/20 09:48:38.000   45.062369347    7.663903036   296.0371   1   6   0.0003   0.0002   0.0007   0.0001  -0.0002   0.0001   0.00    6.9
2018/03/20 09:48:39.000   45.062369347    7.663903036   296.0371   1   6   0.0003   0.0002   0.0007   0.0001  -0.0002   0.0001   0.00    6.9
2018/03/20 09:48:40.000   45.062369347    7.663903036   296.0370   1   6   0.0003   0.0002   0.0007   0.0001  -0.0002   0.0001   0.00    7.0
2018/03/20 09:48:41.000   45.062369347    7.663903036   296.0370   1   6   0.0003   0.0002   0.0007   0.0001  -0.0002   0.0001   0.00    7.1
2018/03/20 09:48:42.000   45.062369347    7.663903036   296.0370   1   6   0.0003   0.0002   0.0007   0.0001  -0.0002   0.0001   0.00    7.1
2018/03/20 09:48:43.000   45.062369347    7.663903036   296.0370   1   6   0.0003   0.0002   0.0007   0.0001  -0.0002   0.0001   0.00    7.2
2018/03/20 09:48:44.000   45.062369347    7.663903036   296.0370   1   6   0.0003   0.0002   0.0007   0.0001  -0.0002   0.0001   0.00    7.3
2018/03/20 09:48:45.000   45.062369347    7.663903036   296.0370   1   6   0.0003   0.0002   0.0007   0.0001  -0.0002   0.0001   0.00    7.3
2018/03/20 09:48:46.000   45.062369347    7.663903036   296.0370   1   6   0.0003   0.0002   0.0007   0.0001  -0.0002   0.0001   0.00    7.4
2018/03/20 09:48:47.000   45.062369347    7.663903036   296.0370   1   6   0.0003   0.0002   0.0007   0.0001  -0.0002   0.0001   0.00    7.4
2018/03/20 09:48:48.000   45.062369347    7.663903036   296.0370   1   6   0.0003   0.0002   0.0007   0.0001  -0.0002   0.0001   0.00    7.5
2018/03/20 09:48:49.000   45.062369347    7.663903036   296.0370   1   6   0.0003   0.0002   0.0007   0.0001  -0.0002   0.0001   0.00    7.6
2018/03/20 09:48:50.000   45.062369347    7.663903036   296.0369   1   6   0.0003   0.0002   0.0007   0.0001  -0.0002   0.0001   0.00    7.6
2018/03/20 09:48:51.000   45.062369347    7.663903036   296.0369   1   6   0.0003   0.0002   0.0007   0.0001  -0.0002   0.0001   0.00    7.7
2018/03/20 09:48:52.000   45.062369347    7.663903036   296.0369   1   6   0.0003   0.0002   0.0007   0.0001  -0.0002   0.0001   0.00    7.7
2018/03/20 09:48:53.000   45.062369347    7.663903036   296.0369   1   6   0.0003   0.0002   0.0007   0.0001  -0.0002   0.0001   0.00    7.7
2018/03/20 09:48:54.000   45.062369347    7.663903036   296.0369   1   6   0.0003   0.0002   0.0007   0.0001  -0.0002   0.0001   0.00    7.7
2018/03/20 09:48:55.000   45.062369347    7.663903036   296.0369   1   6   0.0003   0.0002   0.0007   0.0001  -0.0002   0.0001   0.00    7.7
2018/03/20 09:48:56.000   45.062369347    7.663903036   296.0369   1   6   0.0003   0.0002   0.0007   0.0001  -0.0002   0.0001   0.00    7.7
2018/03/20 09:48:57.000   45.062369347    7.663903036   296.0369   1   6   0.0003   0.0002   0.0007   0.0001  -0.0002   0.0001   0.00    7.7
2018/03/20 09:48:58.000   45.062369347    7.663903036   296.0369   1   6   0.0003   0.0002   0.0007   0.0001  -0.0002   0.0001   0.00    7.7
2018/03/20 09:48:59.000   45.062369347    7.663903035   296.0369   1   6   0.0003   0.0002   0.0007   0.0001  -0.0002   0.0001   0.00    7.7
2018/03/20 09:49:00.000   45.062369347    7.663903035   296.0369   1   6   0.0003   0.0002   0.0007   0.0001  -0.0002   0.0001   0.00    7.7
2018/03/20 09:49:01.000   45.062369347    7.663903035   296.0368   1   6   0.0003   0.0002   0.0007   0.0001  -0.0002   0.0001   0.00    7.7
2018/03/20 09:49:02.000   45.062369347    7.663903035   296.0368   1   6   0.0003   0.0002   0.0007   0.0001  -0.0002   0.0001   0.00    7.8
2018/03/20 09:49:03.000   45.062369347    7.663903035   296.0368   1   6   0.0003   0.0002   0.0007   0.0001  -0.0002   0.0001   0.00    7.8
2018/03/20 09:49:04.000   45.062369347    7.663903035   296.0368   1   6   0.0003   0.0002   0.0007   0.0001  -0.0002   0.0001   0.00    7.8
2018/03/20 09:49:05.000   45.062369347    7.663903035   296.0368   1   6   0.0003   0.0002   0.0007   0.0001  -0.0002   0.0001   0.00    7.8
2018/03/20 09:49:06.000   45.062369347    7.663903035   296.0368   1   6   0.0003   0.0002   0.0007   0.0001  -0.0002   0.0001   0.00    7.7
2018/03/20 09:49:07.000   45.062369347    7.663903035   296.0368   1   6   0.0003   0.0002   0.0007   0.0001  -0.0002   0.0001   0.00    7.7
2018/03/20 09:49:08.000   45.062369347    7.663903035   296.0368   1   6   0.0003   0.0002   0.0007   0.0001  -0.0002   0.0001   0.00    7.7
2018/03/20 09:49:09.000   45.062369347    7.663903035   296.0368   1   6   0.0003   0.0002   0.0007   0.0001  -0.0002   0.0001   0.00    7.7
2018/03/20 09:49:10.000   45.062369347    7.663903035   296.0368   1   6   0.0003   0.0002   0.0007   0.0001  -0.0002   0.0001   0.00    7.7
2018/03/20 09:49:11.000   45.062369347    7.663903035   296.0368   1   6   0.0003   0.0002   0.0007   0.0001  -0.0002   0.0001   0.00    7.6
2018/03/20 09:49:12.000   45.062369347    7.663903035   296.0368   1   6   0.0003   0.0002   0.0007   0.0001  -0.0002   0.0001   0.00    7.6
2018/03/20 09:49:13.000   45.062369347    7.663903035   296.0368   1   6   0.0003   0.0002   0.0007   0.0001  -0.0002   0.0001   0.00    7.6
2018/03/20 09:49:14.000   45.062369347    7.663903035   296.0368   1   6   0.0003   0.0002   0.0007   0.0001  -0.0002   0.0001   0.00    7.5
2018/03/20 09:49:15.000   45.062369347    7.663903035   296.0368   1   6   0.0003   0.0002   0.0007   0.0001  -0.0002   0.0001   0.00    7.5
2018/03/20 09:49:16.000   45.062369347    7.663903035   296.0368   1   6   0.0003   0.0002   0.0007   0.0001  -0.0002   0.0001   0.00    7.5
2018/03/20 09:49:17.000   45.062369347    7.663903035   296.0367   1   6   0.0003   0.0002   0.0007   0.0001  -0.0002   0.0001   0.00    7.5
2018/03/20 09:49:18.000   45.062369347    7.663903035   296.0367   1   6   0.0003   0.0002   0.0007   0.0001  -0.0002   0.0001   0.00    7.5
2018/03/20 09:49:19.000   45.062369347    7.663903035   296.0367   1   6   0.0003   0.0002   0.0007   0.0001  -0.0002   0.0001   0.00    7.4
2018/03/20 09:49:20.000   45.062369347    7.663903035   296.0367   1   6   0.0003   0.0002   0.0007   0.0001  -0.0002   0.0001   0.00    7.4
2018/03/20 09:49:21.000   45.062369347    7.663903035   296.0367   1   6   0.0003   0.0002   0.0007   0.0001  -0.0002   0.0001   0.00    7.4
2018/03/20 09:49:22.000   45.062369347    7.663903035   296.0367   1   6   0.0003   0.0002   0.0007   0.0001  -0.0002   0.0001   0.00    7.3
2018/03/20 09:49:23.000   45.062369347    7.663903035   296.0367   1   6   0.0003   0.0002   0.0007   0.0001  -0.0002   0.0001   0.00    7.3
2018/03/20 09:49:24.000   45.062369347    7.663903035   296.0367   1   6   0.0003   0.0002   0.0007   0.0001  -0.0002   0.0001   0.00    7.3
2018/03/20 09:49:25.000   45.062369347    7.663903035   296.0367   1   6   0.0003   0.0002   0.0007   0.0001  -0.0002   0.0001   0.00    7.3
2018/03/20 09:49:26.000   45.062369347    7.663903035   296.0367   1   6   0.0003   0.0002   0.0007   0.0001  -0.0002   0.0001   0.00    7.3
2018/03/20 09:49:27.000   45.062369347    7.663903035   296.0367   1   6   0.0003   0.0002   0.0007   0.0001  -0.0002   0.0001   0.00    7.3
2018/03/20 09:49:28.000   45.062369347    7.663903035   296.0367   1   6   0.0003   0.0002   0.0007   0.0001  -0.0002   0.0001   0.00    7.3
2018/03/20 09:49:29.000   45.062369347    7.663903034   296.0367   1   6   0.0003   0.0002   0.0007   0.0001  -0.0002   0.0001   0.00    7.3
2018/03/20 09:49:30.000   45.062369347    7.663903034   296.0367   1   6   0.0003   0.0002   0.0007   0.0001  -0.0002   0.0001   0.00    7.3
2018/03/20 09:49:31.000   45.062369347    7.663903034   296.0367   1   6   0.0003   0.0002   0.0007   0.0001  -0.0002   0.0001   0.00    7.3
2018/03/20 09:49:32.000   45.062369347    7.663903034   296.0367   1   6   0.0003   0.0002   0.0007   0.0001  -0.0002   0.0001   0.00    7.3
2018/03/20 09:49:33.000   45.062369347    7.663903034   296.0367   1   6   0.0003   0.0002   0.0007   0.0001  -0.0002   0.0001   0.00    7.3
2018/03/20 09:49:34.000   45.062369347    7.663903034   296.0367   1   6   0.0003   0.0002   0.0007   0.0001  -0.0002   0.0001   0.00    7.3
2018/03/20 09:49:35.000   45.062369347    7.663903034   296.0367   1   6   0.0003   0.0002   0.0007   0.0001  -0.0002   0.0001   0.00    7.3
2018/03/20 09:49:36.000   45.062369347    7.663903034   296.0367   1   6   0.0003   0.0002   0.0007   0.0001  -0.0002   0.0001   0.00    7.3
2018/03/20 09:49:37.000   45.062369347    7.663903034   296.0367   1   6   0.0003   0.0002   0.0007   0.0001  -0.0002   0.0001   0.00    7.2
2018/03/20 09:49:38.000   45.062369347    7.663903034   296.0367   1   6   0.0003   0.0002   0.0007   0.0001  -0.0002   0.0001   0.00    7.2
2018/03/20 09:49:39.000   45.062369347    7.663903034   296.0367   1   6   0.0003   0.0002   0.0007   0.0001  -0.0002   0.0001   0.00    7.2
2018/03/20 09:49:40.000   45.062369347    7.663903034   296.0367   1   6   0.0003   0.0002   0.0007   0.0001  -0.0002   0.0001   0.00    7.1
2018/03/20 09:49:41.000   45.062369347    7.663903034   296.0367   1   6   0.0003   0.0002   0.0007   0.0001  -0.0002   0.0001   0.00    7.1
2018/03/20 09:49:42.000   45.062369347    7.663903034   296.0367   1   6   0.0003   0.0002   0.0007   0.0001  -0.0002   0.0001   0.00    7.1
2018/03/20 09:49:43.000   45.062369347    7.663903034   296.0366   1   6   0.0003   0.0002   0.0007   0.0001  -0.0002   0.0001   0.00    7.1
2018/03/20 09:49:44.000   45.062369347    7.663903034   296.0366   1   6   0.0003   0.0002   0.0007   0.0001  -0.0002   0.0001   0.00    7.1
2018/03/20 09:49:45.000   45.062369347    7.663903034   296.0367   1   6   0.0003   0.0002   0.0007   0.0001  -0.0002   0.0001   0.00    7.1
2018/03/20 09:49:46.000   45.062369347    7.663903034   296.0366   1   6   0.0003   0.0002   0.0007   0.0001  -0.0002   0.0001   0.00    7.1
2018/03/20 09:49:47.000   45.062369347    7.663903034   296.0366   1   6   0.0003   0.0002   0.0007   0.0001  -0.0002   0.0001   0.00    7.1
2018/03/20 09:49:48.000   45.062369347    7.663903034   296.0366   1   6   0.0003   0.0002   0.0007   0.0001  -0.0002   0.0001   0.00    7.1
2018/03/20 09:49:49.000   45.062369347    7.663903034   296.0366   1   6   0.0003   0.0002   0.0007   0.0001  -0.0002   0.0001   0.00    7.1
2018/03/20 09:49:50.000   45.062369347    7.663903034   296.0366   1   6   0.0003   0.0002   0.0007   0.0001  -0.0002   0.0001   0.00    7.1
2018/03/20 09:49:51.000   45.062369347    7.663903034   296.0366   1   6   0.0003   0.0002   0.0007   0.0001  -0.0002   0.0001   0.00    7.1
2018/03/20 09:49:52.000   45.062369347    7.663903034   296.0366   1   6   0.0003   0.0002   0.0007   0.0001  -0.0002   0.0001   0.00    7.1
2018/03/20 09:49:53.000   45.062369347    7.663903034   296.0366   1   6   0.0003   0.0002   0.0007   0.0001  -0.0002   0.0001   0.00    7.1
2018/03/20 09:49:54.000   45.062369347    7.663903033   296.0366   1   6   0.0003   0.0002   0.0007   0.0001  -0.0002   0.0001   0.00    7.2
2018/03/20 09:49:55.000   45.062369347    7.663903033   296.0366   1   6   0.0003   0.0002   0.0007   0.0001  -0.0002   0.0001   0.00    7.2
2018/03/20 09:49:56.000   45.062369347    7.663903033   296.0366   1   6   0.0002   0.0002   0.0007   0.0001  -0.0002   0.0001   0.00    7.2
2018/03/20 09:49:57.000   45.062369347    7.663903033   296.0366   1   6   0.0002   0.0002   0.0007   0.0001  -0.0002   0.0001   0.00    7.2
2018/03/20 09:49:58.000   45.062369347    7.663903033   296.0366   1   6   0.0002   0.0002   0.0007   0.0001  -0.0002   0.0001   0.00    7.2
2018/03/20 09:49:59.000   45.062369347    7.663903033   296.0366   1   6   0.0002   0.0002   0.0007   0.0001  -0.0002   0.0001   0.00    7.3
2018/03/20 09:50:00.000   45.062369347    7.663903033   296.0366   1   6   0.0002   0.0002   0.0007   0.0001  -0.0002   0.0001   0.00    7.3
2018/03/20 09:50:01.000   45.062369347    7.663903033   296.0366   1   6   0.0002   0.0002   0.0007   0.0001  -0.0002   0.0001   0.00    7.3
2018/03/20 09:50:02.000   45.062369347    7.663903033   296.0366   1   6   0.0002   0.0002   0.0007   0.0001  -0.0002   0.0001   0.00    7.3
2018/03/20 09:50:03.000   45.062369347    7.663903033   296.0366   1   6   0.0002   0.0002   0.0007   0.0001  -0.0002   0.0001   0.00    7.4
2018/03/20 09:50:04.000   45.062369347    7.663903033   296.0366   1   6   0.0002   0.0002   0.0007   0.0001  -0.0002   0.0001   0.00    7.4
2018/03/20 09:50:05.000   45.062369347    7.663903033   296.0366   1   6   0.0002   0.0002   0.0007   0.0001  -0.0002   0.0001   0.00    7.3
2018/03/20 09:50:06.000   45.062369347    7.663903033   296.0366   1   6   0.0002   0.0002   0.0007   0.0001  -0.0002   0.0001   0.00    7.3
2018/03/20 09:50:07.000   45.062369347    7.663903033   296.0366   1   6   0.0002   0.0002   0.0007   0.0001  -0.0002   0.0001   0.00    7.4
2018/03/20 09:50:08.000   45.062369347    7.663903033   296.0366   1   6   0.0002   0.0002   0.0007   0.0001  -0.0002   0.0001   0.00    7.4
2018/03/20 09:50:09.000   45.062369347    7.663903033   296.0366   1   6   0.0002   0.0002   0.0007   0.0001  -0.0002   0.0001   0.00    7.4
2018/03/20 09:50:10.000   45.062369347    7.663903033   296.0366   1   6   0.0002   0.0002   0.0007   0.0001  -0.0002   0.0001   0.00    7.4
2018/03/20 09:50:11.000   45.062369347    7.663903033   296.0366   1   6   0.0002   0.0002   0.0007   0.0001  -0.0002   0.0001   0.00    7.4
2018/03/20 09:50:12.000   45.062369347    7.663903033   296.0366   1   6   0.0002   0.0002   0.0007   0.0001  -0.0002   0.0001   0.00    7.4
2018/03/20 09:50:13.000   45.062369347    7.663903033   296.0366   1   6   0.0002   0.0002   0.0007   0.0001  -0.0002   0.0001   0.00    7.4
2018/03/20 09:50:14.000   45.062369347    7.663903033   296.0366   1   6   0.0002   0.0002   0.0007   0.0001  -0.0002   0.0001   0.00    7.4
2018/03/20 09:50:15.000   45.062369347    7.663903033   296.0366   1   6   0.0002   0.0002   0.0007   0.0001  -0.0002   0.0001   0.00    7.4
2018/03/20 09:50:16.000   45.062369347    7.663903033   296.0366   1   6   0.0002   0.0002   0.0007   0.0001  -0.0002   0.0001   0.00    7.4
2018/03/20 09:50:17.000   45.062369347    7.663903032   296.0366   1   6   0.0002   0.0002   0.0007   0.0001  -0.0002   0.0001   0.00    7.4
2018/03/20 09:50:18.000   45.062369347    7.663903032   296.0366   1   6   0.0002   0.0002   0.0007   0.0001  -0.0002   0.0001   0.00    7.4
2018/03/20 09:50:19.000   45.062369347    7.663903032   296.0366   1   6   0.0002   0.0002   0.0007   0.0001  -0.0002   0.0001   0.00    7.3
2018/03/20 09:50:20.000   45.062369347    7.663903032   296.0366   1   6   0.0002   0.0002   0.0007   0.0001  -0.0002   0.0001   0.00    7.3
2018/03/20 09:50:21.000   45.062369347    7.663903032   296.0366   1   6   0.0002   0.0002   0.0007   0.0001  -0.0002   0.0001   0.00    7.3
2018/03/20 09:50:22.000   45.062369347    7.663903032   296.0366   1   6   0.0002   0.0002   0.0007   0.0001  -0.0002   0.0001   0.00    7.3
2018/03/20 09:50:23.000   45.062369347    7.663903032   296.0366   1   6   0.0002   0.0002   0.0007   0.0001  -0.0002   0.0001   0.00    7.3
2018/03/20 09:50:24.000   45.062369347    7.663903032   296.0366   1   6   0.0002   0.0002   0.0007   0.0001  -0.0002   0.0001   0.00    7.3
2018/03/20 09:50:25.000   45.062369347    7.663903032   296.0366   1   6   0.0002   0.0002   0.0007   0.0001  -0.0002   0.0001   0.00    7.3
2018/03/20 09:50:26.000   45.062369347    7.663903032   296.0366   1   6   0.0002   0.0002   0.0007   0.0001  -0.0002   0.0001   0.00    7.3
2018/03/20 09:50:27.000   45.062369347    7.663903032   296.0366   1   6   0.0002   0.0002   0.0007   0.0001  -0.0002   0.0001   0.00    7.3
2018/03/20 09:50:28.000   45.062369347    7.663903032   296.0366   1   6   0.0002   0.0002   0.0007   0.0001  -0.0002   0.0001   0.00    7.3
2018/03/20 09:50:29.000   45.062369347    7.663903032   296.0366   1   6   0.0002   0.0002   0.0007   0.0001  -0.0002   0.0001   0.00    7.3
2018/03/20 09:50:30.000   45.062369347    7.663903032   296.0366   1   6   0.0002   0.0002   0.0007   0.0001  -0.0002   0.0001   0.00    7.3
2018/03/20 09:50:31.000   45.062369347    7.663903032   296.0366   1   6   0.0002   0.0002   0.0007   0.0001  -0.0002   0.0001   0.00    7.2
2018/03/20 09:50:32.000   45.062369346    7.663903032   296.0366   1   6   0.0002   0.0002   0.0007   0.0001  -0.0002   0.0001   0.00    7.2
2018/03/20 09:50:33.000   45.062369346    7.663903032   296.0366   1   6   0.0002   0.0002   0.0007   0.0001  -0.0002   0.0001   0.00    7.2
2018/03/20 09:50:34.000   45.062369346    7.663903032   296.0366   1   6   0.0002   0.0002   0.0007   0.0001  -0.0002   0.0001   0.00    7.2
2018/03/20 09:50:35.000   45.062369346    7.663903032   296.0366   1   6   0.0002   0.0002   0.0007   0.0001  -0.0002   0.0001   0.00    7.2
2018/03/20 09:50:36.000   45.062369346    7.663903032   296.0366   1   6   0.0002   0.0002   0.0007   0.0001  -0.0002   0.0001   0.00    7.2
2018/03/20 09:50:37.000   45.062369346    7.663903032   296.0366   1   6   0.0002   0.0002   0.0007   0.0001  -0.0002   0.0001   0.00    7.2
2018/03/20 09:50:38.000   45.062369346    7.663903032   296.0366   1   6   0.0002   0.0002   0.0007   0.0001  -0.0002   0.0001   0.00    7.3
2018/03/20 09:50:39.000   45.062369346    7.663903032   296.0366   1   6   0.0002   0.0002   0.0007   0.0001  -0.0002   0.0001   0.00    7.3
2018/03/20 09:50:40.000   45.062369346    7.663903031   296.0366   1   6   0.0002   0.0002   0.0007   0.0001  -0.0002   0.0001   0.00    7.3
2018/03/20 09:50:41.000   45.062369346    7.663903031   296.0366   1   6   0.0002   0.0002   0.0007   0.0001  -0.0002   0.0001   0.00    7.3
2018/03/20 09:50:42.000   45.062369346    7.663903031   296.0366   1   6   0.0002   0.0002   0.0007   0.0001  -0.0002   0.0001   0.00    7.3
2018/03/20 09:50:43.000   45.062369346    7.663903031   296.0366   1   6   0.0002   0.0002   0.0007   0.0001  -0.0002   0.0001   0.00    7.3
2018/03/20 09:50:44.000   45.062369346    7.663903031   296.0366   1   6   0.0002   0.0002   0.0006   0.0001  -0.0002   0.0001   0.00    7.3
2018/03/20 09:50:45.000   45.062369346    7.663903031   296.0366   1   6   0.0002   0.0002   0.0006   0.0001  -0.0002   0.0001   0.00    7.3
2018/03/20 09:50:46.000   45.062369346    7.663903031   296.0366   1   6   0.0002   0.0002   0.0006   0.0001  -0.0002   0.0001   0.00    7.3
2018/03/20 09:50:47.000   45.062369346    7.663903031   296.0366   1   6   0.0002   0.0002   0.0006   0.0001  -0.0002   0.0001   0.00    7.3
2018/03/20 09:50:48.000   45.062369346    7.663903031   296.0366   1   6   0.0002   0.0002   0.0006   0.0001  -0.0002   0.0001   0.00    7.3
2018/03/20 09:50:49.000   45.062369346    7.663903031   296.0366   1   6   0.0002   0.0002   0.0006   0.0001  -0.0002   0.0001   0.00    7.3
2018/03/20 09:50:50.000   45.062369346    7.663903031   296.0366   1   6   0.0002   0.0002   0.0006   0.0001  -0.0002   0.0001   0.00    7.3
2018/03/20 09:50:51.000   45.062369346    7.663903031   296.0366   1   6   0.0002   0.0002   0.0006   0.0001  -0.0002   0.0001   0.00    7.3
2018/03/20 09:50:52.000   45.062369346    7.663903031   296.0366   1   6   0.0002   0.0002   0.0006   0.0001  -0.0002   0.0001   0.00    7.3
2018/03/20 09:50:53.000   45.062369346    7.663903031   296.0366   1   6   0.0002   0.0002   0.0006   0.0001  -0.0002   0.0001   0.00    7.3
2018/03/20 09:50:54.000   45.062369346    7.663903031   296.0366   1   6   0.0002   0.0002   0.0006   0.0001  -0.0002   0.0001   0.00    7.3
2018/03/20 09:50:55.000   45.062369346    7.663903031   296.0366   1   6   0.0002   0.0002   0.0006   0.0001  -0.0002   0.0000   0.00    7.3
2018/03/20 09:50:56.000   45.062369346    7.663903031   296.0366   1   6   0.0002   0.0002   0.0006   0.0001  -0.0002   0.0000   0.00    7.3
2018/03/20 09:50:57.000   45.062369346    7.663903031   296.0366   1   6   0.0002   0.0002   0.0006   0.0001  -0.0002   0.0000   0.00    7.4
2018/03/20 09:50:58.000   45.062369346    7.663903031   296.0366   1   6   0.0002   0.0002   0.0006   0.0001  -0.0002   0.0000   0.00    7.4
2018/03/20 09:50:59.000   45.062369346    7.663903031   296.0366   1   6   0.0002   0.0002   0.0006   0.0001  -0.0002   0.0000   0.00    7.4
2018/03/20 09:51:00.000   45.062369346    7.663903031   296.0366   1   6   0.0002   0.0002   0.0006   0.0001  -0.0002   0.0000   0.00    7.5
2018/03/20 09:51:01.000   45.062369346    7.663903031   296.0366   1   6   0.0002   0.0002   0.0006   0.0001  -0.0002   0.0000   0.00    7.5
2018/03/20 09:51:02.000   45.062369346    7.663903031   296.0366   1   6   0.0002   0.0002   0.0006   0.0001  -0.0002   0.0000   0.00    7.5
2018/03/20 09:51:03.000   45.062369346    7.663903030   296.0366   1   6   0.0002   0.0002   0.0006   0.0001  -0.0002   0.0000   0.00    7.6
2018/03/20 09:51:04.000   45.062369346    7.663903030   296.0366   1   6   0.0002   0.0002   0.0006   0.0001  -0.0002   0.0000   0.00    7.6
2018/03/20 09:51:05.000   45.062369346    7.663903030   296.0366   1   6   0.0002   0.0002   0.0006   0.0001  -0.0002   0.0000   0.00    7.6
2018/03/20 09:51:06.000   45.062369346    7.663903030   296.0366   1   6   0.0002   0.0002   0.0006   0.0001  -0.0002   0.0000   0.00    7.7
2018/03/20 09:51:07.000   45.062369346    7.663903030   296.0366   1   6   0.0002   0.0002   0.0006   0.0001  -0.0002   0.0000   0.00    7.7
2018/03/20 09:51:08.000   45.062369346    7.663903030   296.0366   1   6   0.0002   0.0002   0.0006   0.0001  -0.0002   0.0000   0.00    7.7
2018/03/20 09:51:09.000   45.062369346    7.663903030   296.0366   1   6   0.0002   0.0002   0.0006   0.0001  -0.0002   0.0000   0.00    7.8
2018/03/20 09:51:10.000   45.062369346    7.663903030   296.0366   1   6   0.0002   0.0002   0.0006   0.0001  -0.0002   0.0000   0.00    7.8
2018/03/20 09:51:11.000   45.062369346    7.663903030   296.0366   1   6   0.0002   0.0002   0.0006   0.0001  -0.0002   0.0000   0.00    7.8
2018/03/20 09:51:12.000   45.062369346    7.663903030   296.0366   1   6   0.0002   0.0002   0.0006   0.0001  -0.0002   0.0000   0.00    7.9
2018/03/20 09:51:13.000   45.062369346    7.663903030   296.0366   1   6   0.0002   0.0002   0.0006   0.0001  -0.0002   0.0000   0.00    7.9
2018/03/20 09:51:14.000   45.062369346    7.663903030   296.0366   1   6   0.0002   0.0002   0.0006   0.0001  -0.0002   0.0000   0.00    8.0
2018/03/20 09:51:15.000   45.062369346    7.663903030   296.0366   1   6   0.0002   0.0002   0.0006   0.0001  -0.0002   0.0000   0.00    8.0
2018/03/20 09:51:16.000   45.062369346    7.663903030   296.0366   1   6   0.0002   0.0002   0.0006   0.0001  -0.0002   0.0000   0.00    8.0
2018/03/20 09:51:17.000   45.062369346    7.663903030   296.0366   1   6   0.0002   0.0002   0.0006   0.0001  -0.0002   0.0000   0.00    8.1
2018/03/20 09:51:18.000   45.062369346    7.663903030   296.0366   1   6   0.0002   0.0002   0.0006   0.0001  -0.0002   0.0000   0.00    8.1
2018/03/20 09:51:19.000   45.062369345    7.663903030   296.0366   1   6   0.0002   0.0002   0.0006   0.0001  -0.0002   0.0000   0.00    8.1
2018/03/20 09:51:20.000   45.062369345    7.663903030   296.0366   1   6   0.0002   0.0002   0.0006   0.0001  -0.0002   0.0000   0.00    8.2
2018/03/20 09:51:21.000   45.062369345    7.663903030   296.0366   1   6   0.0002   0.0002   0.0006   0.0001  -0.0002   0.0000   0.00    8.2
2018/03/20 09:51:22.000   45.062369345    7.663903030   296.0366   1   6   0.0002   0.0002   0.0006   0.0001  -0.0002   0.0000   0.00    8.3
2018/03/20 09:51:23.000   45.062369345    7.663903030   296.0366   1   6   0.0002   0.0002   0.0006   0.0001  -0.0002   0.0000   0.00    8.3
2018/03/20 09:51:24.000   45.062369345    7.663903030   296.0366   1   6   0.0002   0.0002   0.0006   0.0001  -0.0002   0.0000   0.00    8.3
2018/03/20 09:51:25.000   45.062369345    7.663903030   296.0366   1   6   0.0002   0.0002   0.0006   0.0001  -0.0002   0.0000   0.00    8.4
2018/03/20 09:51:26.000   45.062369345    7.663903030   296.0366   1   6   0.0002   0.0002   0.0006   0.0001  -0.0002   0.0000   0.00    8.4
2018/03/20 09:51:27.000   45.062369345    7.663903029   296.0366   1   6   0.0002   0.0002   0.0006   0.0001  -0.0002   0.0000   0.00    8.5
2018/03/20 09:51:28.000   45.062369345    7.663903029   296.0366   1   6   0.0002   0.0002   0.0006   0.0001  -0.0002   0.0000   0.00    8.5
2018/03/20 09:51:29.000   45.062369345    7.663903029   296.0366   1   6   0.0002   0.0002   0.0006   0.0001  -0.0002   0.0000   0.00    8.5
2018/03/20 09:51:30.000   45.062369345    7.663903029   296.0366   1   6   0.0002   0.0002   0.0006   0.0001  -0.0002   0.0000   0.00    8.6
2018/03/20 09:51:31.000   45.062369345    7.663903029   296.0366   1   6   0.0002   0.0002   0.0006   0.0001  -0.0002   0.0000   0.00    8.6
2018/03/20 09:51:32.000   45.062369345    7.663903029   296.0367   1   6   0.0002   0.0002   0.0006   0.0001  -0.0002   0.0000   0.00    8.7
2018/03/20 09:51:33.000   45.062369345    7.663903029   296.0367   1   6   0.0002   0.0002   0.0006   0.0001  -0.0002   0.0000   0.00    8.7
2018/03/20 09:51:34.000   45.062369345    7.663903029   296.0367   1   6   0.0002   0.0002   0.0006   0.0001  -0.0002   0.0000   0.00    8.8
2018/03/20 09:51:35.000   45.062369345    7.663903029   296.0367   1   6   0.0002   0.0002   0.0006   0.0001  -0.0002   0.0000   0.00    8.8
2018/03/20 09:51:36.000   45.062369345    7.663903029   296.0367   1   6   0.0002   0.0002   0.0006   0.0001  -0.0002   0.0000   0.00    8.9
2018/03/20 09:51:37.000   45.062369345    7.663903029   296.0367   1   6   0.0002   0.0002   0.0006   0.0001  -0.0002   0.0000   0.00    8.9
2018/03/20 09:51:38.000   45.062369345    7.663903029   296.0367   1   6   0.0002   0.0002   0.0006   0.0001  -0.0002   0.0000   0.00    9.0
2018/03/20 09:51:39.000   45.062369345    7.663903029   296.0367   1   6   0.0002   0.0002   0.0006   0.0001  -0.0002   0.0000   0.00    9.0
2018/03/20 09:51:40.000   45.062369345    7.663903029   296.0367   1   6   0.0002   0.0002   0.0006   0.0001  -0.0002   0.0000   0.00    9.1
2018/03/20 09:51:41.000   45.062369345    7.663903029   296.0367   1   6   0.0002   0.0002   0.0006   0.0001  -0.0002   0.0000   0.00    9.2
2018/03/20 09:51:42.000   45.062369345    7.663903029   296.0367   1   6   0.0002   0.0002   0.0006   0.0001  -0.0002   0.0000   0.00    9.3
2018/03/20 09:51:43.000   45.062369345    7.663903029   296.0367   1   6   0.0002   0.0002   0.0006   0.0001  -0.0002   0.0000   0.00    9.3
2018/03/20 09:51:44.000   45.062369345    7.663903029   296.0367   1   6   0.0002   0.0002   0.0006   0.0001  -0.0002   0.0000   0.00    9.4
2018/03/20 09:51:45.000   45.062369345    7.663903029   296.0367   1   6   0.0002   0.0002   0.0006   0.0001  -0.0002   0.0000   0.00    9.5
2018/03/20 09:51:46.000   45.062369345    7.663903029   296.0368   1   6   0.0002   0.0002   0.0006   0.0001  -0.0002   0.0000   0.00    9.6
2018/03/20 09:51:47.000   45.062369345    7.663903029   296.0367   1   6   0.0002   0.0002   0.0006   0.0001  -0.0002   0.0000   0.00    9.6
2018/03/20 09:51:48.000   45.062369345    7.663903029   296.0367   1   6   0.0002   0.0002   0.0006   0.0001  -0.0002   0.0000   0.00    9.7
2018/03/20 09:51:49.000   45.062369345    7.663903029   296.0368   1   6   0.0002   0.0002   0.0006   0.0001  -0.0002   0.0000   0.00    9.7
2018/03/20 09:51:50.000   45.062369345    7.663903029   296.0368   1   6   0.0002   0.0002   0.0006   0.0001  -0.0002   0.0000   0.00    9.8
2018/03/20 09:51:51.000   45.062369345    7.663903028   296.0368   1   6   0.0002   0.0002   0.0006   0.0001  -0.0002   0.0000   0.00    9.9
2018/03/20 09:51:52.000   45.062369345    7.663903029   296.0368   1   6   0.0002   0.0002   0.0006   0.0001  -0.0002   0.0000   0.00   10.0
2018/03/20 09:51:53.000   45.062369345    7.663903028   296.0368   1   6   0.0002   0.0002   0.0006   0.0001  -0.0002   0.0000   0.00   10.0
2018/03/20 09:51:54.000   45.062369345    7.663903029   296.0368   1   6   0.0002   0.0002   0.0006   0.0001  -0.0002   0.0000   0.00   10.1
2018/03/20 09:51:55.000   45.062369345    7.663903028   296.0368   1   6   0.0002   0.0002   0.0006   0.0001  -0.0002   0.0000   0.00   10.2
2018/03/20 09:51:56.000   45.062369345    7.663903028   296.0368   1   6   0.0002   0.0002   0.0006   0.0001  -0.0002   0.0000   0.00   10.2
2018/03/20 09:51:57.000   45.062369345    7.663903028   296.0368   1   6   0.0002   0.0002   0.0006   0.0001  -0.0002   0.0000   0.00   10.3
2018/03/20 09:51:58.000   45.062369345    7.663903028   296.0368   1   6   0.0002   0.0002   0.0006   0.0001  -0.0002   0.0000   0.00   10.4
2018/03/20 09:51:59.000   45.062369345    7.663903028   296.0368   1   6   0.0002   0.0002   0.0006   0.0001  -0.0002   0.0000   0.00   10.5
2018/03/20 09:52:00.000   45.062369344    7.663903028   296.0368   1   6   0.0002   0.0002   0.0006   0.0001  -0.0002   0.0000   0.00   10.6
2018/03/20 09:52:01.000   45.062369344    7.663903028   296.0369   1   6   0.0002   0.0002   0.0006   0.0001  -0.0002   0.0000   0.00   10.6
2018/03/20 09:52:02.000   45.062369344    7.663903028   296.0369   1   6   0.0002   0.0002   0.0006   0.0001  -0.0002   0.0000   0.00   10.7
2018/03/20 09:52:03.000   45.062369344    7.663903028   296.0369   1   6   0.0002   0.0002   0.0006   0.0001  -0.0002   0.0000   0.00   10.8
2018/03/20 09:52:04.000   45.062369344    7.663903028   296.0369   1   6   0.0002   0.0002   0.0006   0.0001  -0.0002   0.0000   0.00   10.9
2018/03/20 09:52:05.000   45.062369344    7.663903028   296.0369   1   6   0.0002   0.0002   0.0006   0.0001  -0.0002   0.0000   0.00   11.0
2018/03/20 09:52:06.000   45.062369344    7.663903028   296.0369   1   6   0.0002   0.0002   0.0006   0.0001  -0.0002   0.0000   0.00   11.0
2018/03/20 09:52:07.000   45.062369344    7.663903028   296.0369   1   6   0.0002   0.0002   0.0006   0.0001  -0.0002   0.0000   0.00   11.1
2018/03/20 09:52:08.000   45.062369344    7.663903028   296.0369   1   6   0.0002   0.0002   0.0006   0.0001  -0.0002   0.0000   0.00   11.2
2018/03/20 09:52:09.000   45.062369344    7.663903028   296.0369   1   6   0.0002   0.0002   0.0006   0.0001  -0.0002   0.0000   0.00   11.3
2018/03/20 09:52:10.000   45.062369344    7.663903028   296.0369   1   6   0.0002   0.0002   0.0006   0.0001  -0.0002   0.0000   0.00   11.4
2018/03/20 09:52:11.000   45.062369344    7.663903028   296.0369   1   6   0.0002   0.0002   0.0006   0.0001  -0.0002   0.0000   0.00   11.5
2018/03/20 09:52:12.000   45.062369344    7.663903028   296.0369   1   6   0.0002   0.0002   0.0006   0.0001  -0.0002   0.0000   0.00   11.6
2018/03/20 09:52:13.000   45.062369344    7.663903028   296.0370   1   6   0.0002   0.0002   0.0006   0.0001  -0.0002   0.0000   0.00   11.7
2018/03/20 09:52:14.000   45.062369344    7.663903028   296.0370   1   6   0.0002   0.0002   0.0006   0.0001  -0.0002   0.0000   0.00   11.8
2018/03/20 09:52:15.000   45.062369344    7.663903028   296.0370   1   6   0.0002   0.0002   0.0006   0.0001  -0.0002   0.0000   0.00   11.9
2018/03/20 09:52:16.000   45.062369344    7.663903028   296.0370   1   6   0.0002   0.0002   0.0006   0.0001  -0.0002  -0.0000   0.00   12.1
2018/03/20 09:52:17.000   45.062369344    7.663903028   296.0370   1   6   0.0002   0.0002   0.0006   0.0001  -0.0002  -0.0000   0.00   12.2
2018/03/20 09:52:18.000   45.062369344    7.663903028   296.0370   1   6   0.0002   0.0002   0.0006   0.0001  -0.0002  -0.0000   0.00   12.3
2018/03/20 09:52:19.000   45.062369344    7.663903028   296.0370   1   6   0.0002   0.0002   0.0006   0.0001  -0.0002  -0.0000   0.00   12.4
2018/03/20 09:52:20.000   45.062369344    7.663903028   296.0370   1   6   0.0002   0.0002   0.0006   0.0001  -0.0002  -0.0000   0.00   12.4
2018/03/20 09:52:21.000   45.062369344    7.663903027   296.0370   1   6   0.0002   0.0002   0.0006   0.0001  -0.0002  -0.0000   0.00   12.5
2018/03/20 09:52:22.000   45.062369344    7.663903027   296.0370   1   6   0.0002   0.0002   0.0006   0.0001  -0.0002  -0.0000   0.00   12.5
2018/03/20 09:52:23.000   45.062369344    7.663903027   296.0370   1   6   0.0002   0.0002   0.0006   0.0001  -0.0002  -0.0000   0.00   12.5
2018/03/20 09:52:24.000   45.062369344    7.663903027   296.0371   1   6   0.0002   0.0002   0.0006   0.0001  -0.0002  -0.0000   0.00   12.5
2018/03/20 09:52:25.000   45.062369344    7.663903027   296.0371   1   6   0.0002   0.0002   0.0006   0.0001  -0.0002  -0.0000   0.00   12.6
2018/03/20 09:52:26.000   45.062369343    7.663903027   296.0371   1   6   0.0002   0.0002   0.0006   0.0001  -0.0002  -0.0000   0.00   12.6
2018/03/20 09:52:27.000   45.062369343    7.663903027   296.0371   1   6   0.0002   0.0002   0.0006   0.0001  -0.0002  -0.0000   0.00   12.6
2018/03/20 09:52:28.000   45.062369343    7.663903027   296.0371   1   6   0.0002   0.0002   0.0006   0.0001  -0.0002  -0.0000   0.00   12.7
2018/03/20 09:52:29.000   45.062369343    7.663903027   296.0371   1   6   0.0002   0.0002   0.0006   0.0001  -0.0002  -0.0000   0.00   12.7
2018/03/20 09:52:30.000   45.062369343    7.663903027   296.0371   1   6   0.0002   0.0002   0.0006   0.0001  -0.0002  -0.0000   0.00   12.8
2018/03/20 09:52:31.000   45.062369343    7.663903027   296.0371   1   6   0.0002   0.0002   0.0006   0.0001  -0.0002  -0.0000   0.00   12.8
2018/03/20 09:52:32.000   45.062369343    7.663903027   296.0372   1   6   0.0002   0.0002   0.0006   0.0001  -0.0002  -0.0000   0.00   12.8
2018/03/20 09:52:33.000   45.062369343    7.663903027   296.0372   1   6   0.0002   0.0002   0.0006   0.0001  -0.0002  -0.0000   0.00   12.8
2018/03/20 09:52:34.000   45.062369343    7.663903027   296.0372   1   6   0.0002   0.0002   0.0006   0.0001  -0.0002  -0.0000   0.00   12.9
2018/03/20 09:52:35.000   45.062369343    7.663903027   296.0372   1   6   0.0002   0.0002   0.0006   0.0001  -0.0002  -0.0000   0.00   12.9
2018/03/20 09:52:36.000   45.062369343    7.663903027   296.0372   1   6   0.0002   0.0002   0.0006   0.0001  -0.0002  -0.0000   0.00   13.0
2018/03/20 09:52:37.000   45.062369343    7.663903027   296.0372   1   6   0.0002   0.0002   0.0006   0.0001  -0.0002  -0.0000   0.00   13.0
2018/03/20 09:52:38.000   45.062369343    7.663903027   296.0372   1   6   0.0002   0.0002   0.0006   0.0001  -0.0002  -0.0000   0.00   13.0
2018/03/20 09:52:39.000   45.062369343    7.663903027   296.0372   1   6   0.0002   0.0002   0.0006   0.0001  -0.0002  -0.0000   0.00   13.0
2018/03/20 09:52:40.000   45.062369343    7.663903027   296.0372   1   6   0.0002   0.0002   0.0006   0.0001  -0.0002  -0.0000   0.00   13.0
2018/03/20 09:52:41.000   45.062369343    7.663903027   296.0372   1   6   0.0002   0.0002   0.0006   0.0001  -0.0002  -0.0000   0.00   13.0
2018/03/20 09:52:42.000   45.062369343    7.663903027   296.0373   1   6   0.0002   0.0002   0.0006   0.0001  -0.0002  -0.0000   0.00   13.1
2018/03/20 09:52:43.000   45.062369343    7.663903027   296.0373   1   6   0.0002   0.0002   0.0006   0.0001  -0.0002  -0.0000   0.00   13.1
2018/03/20 09:52:44.000   45.062369343    7.663903027   296.0373   1   6   0.0002   0.0002   0.0006   0.0001  -0.0002  -0.0000   0.00   13.1
2018/03/20 09:52:45.000   45.062369343    7.663903027   296.0373   1   6   0.0002   0.0002   0.0006   0.0001  -0.0002  -0.0000   0.00   13.1
2018/03/20 09:52:46.000   45.062369343    7.663903027   296.0373   1   6   0.0002   0.0002   0.0006   0.0001  -0.0002  -0.0000   0.00   13.1
2018/03/20 09:52:47.000   45.062369343    7.663903027   296.0373   1   6   0.0002   0.0002   0.0006   0.0001  -0.0002  -0.0000   0.00   13.1
2018/03/20 09:52:48.000   45.062369343    7.663903026   296.0373   1   6   0.0002   0.0002   0.0006   0.0001  -0.0002  -0.0000   0.00   13.1
2018/03/20 09:52:49.000   45.062369343    7.663903026   296.0373   1   6   0.0002   0.0002   0.0006   0.0001  -0.0002  -0.0000   0.00   13.1
2018/03/20 09:52:50.000   45.062369343    7.663903026   296.0373   1   6   0.0002   0.0002   0.0006   0.0001  -0.0002  -0.0000   0.00   13.1
2018/03/20 09:52:51.000   45.062369343    7.663903026   296.0374   1   6   0.0002   0.0002   0.0006   0.0001  -0.0002  -0.0000   0.00   13.1
2018/03/20 09:52:52.000   45.062369343    7.663903026   296.0374   1   6   0.0002   0.0002   0.0006   0.0001  -0.0002  -0.0000   0.00   13.1
2018/03/20 09:52:53.000   45.062369343    7.663903026   296.0374   1   6   0.0002   0.0002   0.0006   0.0001  -0.0002  -0.0000   0.00   13.1
2018/03/20 09:52:54.000   45.062369342    7.663903026   296.0374   1   6   0.0002   0.0002   0.0006   0.0001  -0.0002  -0.0000   0.00   13.1
2018/03/20 09:52:55.000   45.062369342    7.663903026   296.0374   1   6   0.0002   0.0002   0.0006   0.0001  -0.0002  -0.0000   0.00   13.1
2018/03/20 09:52:56.000   45.062369342    7.663903026   296.0374   1   6   0.0002   0.0002   0.0006   0.0001  -0.0002  -0.0000   0.00   13.0
2018/03/20 09:52:57.000   45.062369342    7.663903026   296.0374   1   6   0.0002   0.0002   0.0006   0.0001  -0.0002  -0.0000   0.00   13.0
2018/03/20 09:52:58.000   45.062369342    7.663903026   296.0374   1   6   0.0002   0.0002   0.0006   0.0001  -0.0002  -0.0000   0.00   13.0
2018/03/20 09:52:59.000   45.062369342    7.663903026   296.0375   1   6   0.0002   0.0002   0.0006   0.0001  -0.0002  -0.0000   0.00   12.9
2018/03/20 09:53:00.000   45.062369342    7.663903026   296.0375   1   6   0.0002   0.0002   0.0006   0.0001  -0.0002  -0.0000   0.00   12.9
2018/03/20 09:53:01.000   45.062369342    7.663903026   296.0375   1   6   0.0002   0.0002   0.0006   0.0001  -0.0002  -0.0000   0.00   12.9
2018/03/20 09:53:02.000   45.062369342    7.663903026   296.0375   1   6   0.0002   0.0002   0.0006   0.0001  -0.0002  -0.0000   0.00   12.9
2018/03/20 09:53:03.000   45.062369342    7.663903026   296.0375   1   6   0.0002   0.0002   0.0006   0.0001  -0.0002  -0.0000   0.00   12.9
2018/03/20 09:53:04.000   45.062369342    7.663903026   296.0375   1   6   0.0002   0.0002   0.0006   0.0001  -0.0002  -0.0000   0.00   12.9
2018/03/20 09:53:05.000   45.062369342    7.663903026   296.0376   1   6   0.0002   0.0002   0.0006   0.0001  -0.0002  -0.0000   0.00   12.9
2018/03/20 09:53:06.000   45.062369342    7.663903026   296.0376   1   6   0.0002   0.0002   0.0006   0.0001  -0.0002  -0.0000   0.00   12.8
2018/03/20 09:53:07.000   45.062369342    7.663903026   296.0376   1   6   0.0002   0.0002   0.0006   0.0001  -0.0002  -0.0000   0.00   12.8
2018/03/20 09:53:08.000   45.062369342    7.663903026   296.0376   1   6   0.0002   0.0002   0.0006   0.0001  -0.0002  -0.0000   0.00   12.8
2018/03/20 09:53:09.000   45.062369342    7.663903026   296.0376   1   6   0.0002   0.0002   0.0006   0.0001  -0.0002  -0.0000   0.00   12.8
2018/03/20 09:53:10.000   45.062369342    7.663903026   296.0376   1   6   0.0002   0.0002   0.0006   0.0001  -0.0002  -0.0000   0.00   12.7
2018/03/20 09:53:11.000   45.062369342    7.663903026   296.0376   1   6   0.0002   0.0002   0.0006   0.0001  -0.0002  -0.0000   0.00   12.7
2018/03/20 09:53:12.000   45.062369342    7.663903026   296.0376   1   6   0.0002   0.0002   0.0006   0.0001  -0.0002  -0.0000   0.00   12.7
2018/03/20 09:53:13.000   45.062369342    7.663903026   296.0377   1   6   0.0002   0.0002   0.0006   0.0001  -0.0002  -0.0000   0.00   12.6
2018/03/20 09:53:14.000   45.062369342    7.663903026   296.0377   1   6   0.0002   0.0002   0.0006   0.0001  -0.0002  -0.0000   0.00   12.6
2018/03/20 09:53:15.000   45.062369342    7.663903026   296.0377   1   6   0.0002   0.0002   0.0006   0.0001  -0.0002  -0.0000   0.00   12.5
2018/03/20 09:53:16.000   45.062369342    7.663903025   296.0377   1   6   0.0002   0.0002   0.0006   0.0001  -0.0002  -0.0000   0.00   12.5
2018/03/20 09:53:17.000   45.062369342    7.663903025   296.0377   1   6   0.0002   0.0002   0.0006   0.0001  -0.0002  -0.0000   0.00   12.4
2018/03/20 09:53:18.000   45.062369342    7.663903025   296.0377   1   6   0.0002   0.0002   0.0006   0.0001  -0.0002  -0.0000   0.00   12.3
2018/03/20 09:53:19.000   45.062369342    7.663903025   296.0378   1   6   0.0002   0.0002   0.0006   0.0001  -0.0002  -0.0000   0.00   12.3
2018/03/20 09:53:20.000   45.062369342    7.663903025   296.0378   1   6   0.0002   0.0002   0.0006   0.0001  -0.0002  -0.0000   0.00   12.3
2018/03/20 09:53:21.000   45.062369342    7.663903025   296.0378   1   6   0.0002   0.0002   0.0006   0.0001  -0.0002  -0.0001   0.00   12.2
2018/03/20 09:53:22.000   45.062369342    7.663903025   296.0378   1   6   0.0002   0.0002   0.0006   0.0001  -0.0002  -0.0001   0.00   12.1
2018/03/20 09:53:23.000   45.062369342    7.663903025   296.0378   1   6   0.0002   0.0002   0.0006   0.0001  -0.0002  -0.0001   0.00   12.1
2018/03/20 09:53:24.000   45.062369342    7.663903025   296.0378   1   6   0.0002   0.0002   0.0006   0.0001  -0.0002  -0.0001   0.00   12.0
2018/03/20 09:53:25.000   45.062369342    7.663903025   296.0378   1   6   0.0002   0.0002   0.0006   0.0001  -0.0002  -0.0001   0.00   11.9
2018/03/20 09:53:26.000   45.062369342    7.663903025   296.0378   1   6   0.0002   0.0002   0.0006   0.0001  -0.0002  -0.0001   0.00   11.9
2018/03/20 09:53:27.000   45.062369342    7.663903025   296.0379   1   6   0.0002   0.0002   0.0006   0.0001  -0.0002  -0.0001   0.00   11.8
2018/03/20 09:53:28.000   45.062369342    7.663903025   296.0379   1   6   0.0002   0.0002   0.0006   0.0001  -0.0002  -0.0001   0.00   11.7
2018/03/20 09:53:29.000   45.062369342    7.663903025   296.0379   1   6   0.0002   0.0002   0.0006   0.0001  -0.0002  -0.0001   0.00   11.7
2018/03/20 09:53:30.000   45.062369342    7.663903025   296.0379   1   6   0.0002   0.0002   0.0006   0.0001  -0.0002  -0.0001   0.00   11.6
2018/03/20 09:53:31.000   45.062369342    7.663903025   296.0379   1   6   0.0002   0.0002   0.0006   0.0001  -0.0002  -0.0001   0.00   11.5
2018/03/20 09:53:32.000   45.062369342    7.663903025   296.0380   1   6   0.0002   0.0002   0.0006   0.0001  -0.0002  -0.0001   0.00   11.5
2018/03/20 09:53:33.000   45.062369342    7.663903025   296.0380   1   6   0.0002   0.0002   0.0006   0.0001  -0.0002  -0.0001   0.00   11.4
2018/03/20 09:53:34.000   45.062369342    7.663903025   296.0380   1   6   0.0002   0.0002   0.0006   0.0001  -0.0002  -0.0001   0.00   11.3
2018/03/20 09:53:35.000   45.062369342    7.663903025   296.0380   1   6   0.0002   0.0002   0.0006   0.0001  -0.0002  -0.0001   0.00   11.3
2018/03/20 09:53:36.000   45.062369342    7.663903025   296.0380   1   6   0.0002   0.0002   0.0006   0.0001  -0.0002  -0.0001   0.00   11.2
2018/03/20 09:53:37.000   45.062369342    7.663903025   296.0380   1   6   0.0002   0.0002   0.0006   0.0001  -0.0002  -0.0001   0.00   11.2
2018/03/20 09:53:38.000   45.062369342    7.663903025   296.0381   1   6   0.0002   0.0002   0.0006   0.0001  -0.0002  -0.0001   0.00   11.1
2018/03/20 09:53:39.000   45.062369342    7.663903025   296.0381   1   6   0.0002   0.0002   0.0006   0.0001  -0.0002  -0.0001   0.00   11.1
2018/03/20 09:53:40.000   45.062369341    7.663903025   296.0381   1   6   0.0002   0.0002   0.0006   0.0001  -0.0002  -0.0001   0.00   11.1
2018/03/20 09:53:41.000   45.062369341    7.663903025   296.0381   1   6   0.0002   0.0002   0.0006   0.0001  -0.0002  -0.0001   0.00   11.0
2018/03/20 09:53:42.000   45.062369341    7.663903025   296.0381   1   6   0.0002   0.0002   0.0006   0.0001  -0.0002  -0.0001   0.00   11.0
2018/03/20 09:53:43.000   45.062369341    7.663903025   296.0381   1   6   0.0002   0.0002   0.0006   0.0001  -0.0002  -0.0001   0.00   10.9
2018/03/20 09:53:44.000   45.062369342    7.663903025   296.0381   1   6   0.0002   0.0002   0.0006   0.0001  -0.0002  -0.0001   0.00   10.9
2018/03/20 09:53:45.000   45.062369341    7.663903025   296.0382   1   6   0.0002   0.0002   0.0006   0.0001  -0.0002  -0.0001   0.00   10.8
2018/03/20 09:53:46.000   45.062369341    7.663903025   296.0382   1   6   0.0002   0.0002   0.0006   0.0001  -0.0002  -0.0001   0.00   10.8
2018/03/20 09:53:47.000   45.062369341    7.663903025   296.0382   1   6   0.0002   0.0002   0.0006   0.0001  -0.0002  -0.0001   0.00   10.7
2018/03/20 09:53:48.000   45.062369341    7.663903025   296.0382   1   6   0.0002   0.0002   0.0006   0.0001  -0.0002  -0.0001   0.00   10.7
2018/03/20 09:53:49.000   45.062369341    7.663903025   296.0382   1   6   0.0002   0.0002   0.0006   0.0001  -0.0002  -0.0001   0.00   10.7
2018/03/20 09:53:50.000   45.062369341    7.663903025   296.0383   1   6   0.0002   0.0002   0.0006   0.0001  -0.0002  -0.0001   0.00   10.6
2018/03/20 09:53:51.000   45.062369341    7.663903025   296.0383   1   6   0.0002   0.0002   0.0006   0.0001  -0.0002  -0.0001   0.00   10.6
2018/03/20 09:53:52.000   45.062369341    7.663903025   296.0383   1   6   0.0002   0.0002   0.0006   0.0001  -0.0002  -0.0001   0.00   10.6
2018/03/20 09:53:53.000   45.062369341    7.663903025   296.0383   1   6   0.0002   0.0002   0.0006   0.0001  -0.0002  -0.0001   0.00   10.5
2018/03/20 09:53:54.000   45.062369341    7.663903025   296.0383   1   6   0.0002   0.0002   0.0006   0.0001  -0.0002  -0.0001   0.00   10.4
2018/03/20 09:53:55.000   45.062369341    7.663903025   296.0383   1   6   0.0002   0.0002   0.0006   0.0001  -0.0002  -0.0001   0.00   10.4
2018/03/20 09:53:56.000   45.062369341    7.663903025   296.0384   1   6   0.0002   0.0002   0.0006   0.0001  -0.0002  -0.0001   0.00   10.4
2018/03/20 09:53:57.000   45.062369341    7.663903025   296.0384   1   6   0.0002   0.0002   0.0006   0.0001  -0.0002  -0.0001   0.00   10.3
2018/03/20 09:53:58.000   45.062369341    7.663903025   296.0384   1   6   0.0002   0.0002   0.0006   0.0001  -0.0002  -0.0001   0.00   10.3
2018/03/20 09:53:59.000   45.062369341    7.663903025   296.0384   1   6   0.0002   0.0002   0.0006   0.0001  -0.0002  -0.0001   0.00   10.2
2018/03/20 09:54:00.000   45.062369341    7.663903025   296.0384   1   6   0.0002   0.0002   0.0006   0.0001  -0.0002  -0.0001   0.00   10.2
2018/03/20 09:54:01.000   45.062369341    7.663903025   296.0384   1   6   0.0002   0.0002   0.0006   0.0001  -0.0002  -0.0001   0.00   10.1
2018/03/20 09:54:02.000   45.062369341    7.663903025   296.0385   1   6   0.0002   0.0002   0.0006   0.0001  -0.0002  -0.0001   0.00   10.1
2018/03/20 09:54:03.000   45.062369341    7.663903025   296.0385   1   6   0.0002   0.0002   0.0006   0.0001  -0.0002  -0.0001   0.00   10.0
2018/03/20 09:54:04.000   45.062369341    7.663903025   296.0385   1   6   0.0002   0.0002   0.0006   0.0001  -0.0002  -0.0001   0.00    9.9
2018/03/20 09:54:05.000   45.062369341    7.663903025   296.0385   1   6   0.0002   0.0002   0.0006   0.0001  -0.0002  -0.0001   0.00    9.9
2018/03/20 09:54:06.000   45.062369341    7.663903025   296.0385   1   6   0.0002   0.0002   0.0006   0.0001  -0.0002  -0.0001   0.00    9.8
2018/03/20 09:54:07.000   45.062369341    7.663903025   296.0385   1   6   0.0002   0.0002   0.0006   0.0001  -0.0002  -0.0001   0.00    9.8
2018/03/20 09:54:08.000   45.062369341    7.663903025   296.0385   1   6   0.0002   0.0002   0.0006   0.0001  -0.0002  -0.0001   0.00    9.7
2018/03/20 09:54:09.000   45.062369341    7.663903025   296.0386   1   6   0.0002   0.0002   0.0006   0.0001  -0.0002  -0.0001   0.00    9.7
2018/03/20 09:54:10.000   45.062369341    7.663903025   296.0386   1   6   0.0002   0.0002   0.0006   0.0001  -0.0002  -0.0001   0.00    9.6
2018/03/20 09:54:11.000   45.062369341    7.663903025   296.0386   1   6   0.0002   0.0002   0.0006   0.0001  -0.0002  -0.0001   0.00    9.6
2018/03/20 09:54:12.000   45.062369341    7.663903025   296.0386   1   6   0.0002   0.0002   0.0006   0.0001  -0.0002  -0.0001   0.00    9.5
2018/03/20 09:54:13.000   45.062369341    7.663903025   296.0386   1   6   0.0002   0.0002   0.0006   0.0001  -0.0002  -0.0001   0.00    9.5
2018/03/20 09:54:14.000   45.062369341    7.663903025   296.0386   1   6   0.0002   0.0002   0.0006   0.0001  -0.0002  -0.0001   0.00    9.4
2018/03/20 09:54:15.000   45.062369341    7.663903025   296.0387   1   6   0.0002   0.0002   0.0006   0.0001  -0.0002  -0.0001   0.00    9.4
2018/03/20 09:54:16.000   45.062369341    7.663903025   296.0387   1   6   0.0002   0.0002   0.0006   0.0001  -0.0002  -0.0001   0.00    9.3
2018/03/20 09:54:17.000   45.062369341    7.663903025   296.0387   1   6   0.0002   0.0002   0.0006   0.0001  -0.0002  -0.0001   0.00    9.3
2018/03/20 09:54:18.000   45.062369341    7.663903025   296.0387   1   6   0.0002   0.0002   0.0006   0.0001  -0.0002  -0.0001   0.00    9.3
2018/03/20 09:54:19.000   45.062369341    7.663903025   296.0388   1   6   0.0002   0.0002   0.0006   0.0001  -0.0002  -0.0001   0.00    9.2
