% program   : RTKPOST ver.2.4.3 b33
% inp file  : C:\Users\Francesco Conforte\Documents\UNIVERSITA'\Magistrale\ICT for geomatics\Geomatics\LAB\Lab3\GNSS data\GNSS Static\Rover\1000790.18o
% inp file  : C:\Users\Francesco Conforte\Documents\UNIVERSITA'\Magistrale\ICT for geomatics\Geomatics\LAB\Lab3\GNSS data\GNSS Static\TORI\tori079j00.18o
% inp file  : C:\Users\Francesco Conforte\Documents\UNIVERSITA'\Magistrale\ICT for geomatics\Geomatics\LAB\Lab3\GNSS data\GNSS Static\Rover\*
% obs start : 2018/03/20 09:47:24.0 GPST (week1993 208044.0s)
% obs end   : 2018/03/20 11:49:18.0 GPST (week1993 215358.0s)
% pos mode  : static
% freqs     : L1+L2
% solution  : forward
% elev mask : 15.0 deg
% dynamics  : off
% tidecorr  : off
% ionos opt : broadcast
% tropo opt : saastamoinen
% ephemeris : broadcast
% navi sys  : gps glonass
% amb res   : continuous
% amb glo   : on
% val thres : 3.0
% antenna1  :                       ( 0.0000  0.0000  0.0000)
% antenna2  :                       ( 0.0000  0.0000  0.0000)
% ref pos   : 45.063364605    7.661277650   310.8177
%
% (lat/lon/height=WGS84/ellipsoidal,Q=1:fix,2:float,3:sbas,4:dgps,5:single,6:ppp,ns=# of satellites)
%  GPST                  latitude(deg) longitude(deg)  height(m)   Q  ns   sdn(m)   sde(m)   sdu(m)  sdne(m)  sdeu(m)  sdun(m) age(s)  ratio
2018/03/20 09:47:24.000   45.062369469    7.663903132   296.0130   1   9   0.0052   0.0041   0.0160   0.0019  -0.0040   0.0024   0.00    3.9
2018/03/20 09:47:25.000   45.062369467    7.663903130   296.0120   1   9   0.0037   0.0029   0.0113   0.0013  -0.0028   0.0017   0.00    3.5
2018/03/20 09:47:26.000   45.062369463    7.663903128   296.0107   1   9   0.0030   0.0024   0.0092   0.0011  -0.0023   0.0014   0.00    3.2
2018/03/20 09:47:27.000   45.062369461    7.663903128   296.0106   1   9   0.0026   0.0021   0.0080   0.0009  -0.0020   0.0012   0.00    3.1
2018/03/20 09:47:28.000   45.062369460    7.663903126   296.0113   1   9   0.0023   0.0019   0.0072   0.0009  -0.0018   0.0010   0.00    3.0
2018/03/20 09:47:29.000   45.062380396    7.663906682   294.9828   2   9   0.2129   0.1664   0.6439   0.0737  -0.1555   0.1024   0.00    3.0
2018/03/20 09:47:30.000   45.062380329    7.663906703   295.0135   2   9   0.1970   0.1541   0.5951   0.0683  -0.1438   0.0943   0.00    2.9
2018/03/20 09:47:31.000   45.062380246    7.663906685   295.0430   2   9   0.1842   0.1442   0.5555   0.0639  -0.1342   0.0876   0.00    3.0
2018/03/20 09:47:32.000   45.062380175    7.663906669   295.0740   2   9   0.1736   0.1359   0.5225   0.0602  -0.1263   0.0820   0.00    3.0
2018/03/20 09:47:33.000   45.062380090    7.663906628   295.0794   2   9   0.1646   0.1289   0.4944   0.0571  -0.1196   0.0772   0.00    2.8
2018/03/20 09:47:34.000   45.062379985    7.663906618   295.0864   2   9   0.1568   0.1229   0.4700   0.0545  -0.1137   0.0729   0.00    2.7
2018/03/20 09:47:35.000   45.062379868    7.663906607   295.1000   2   9   0.1500   0.1176   0.4485   0.0521  -0.1086   0.0691   0.00    2.6
2018/03/20 09:47:36.000   45.062379874    7.663906618   295.2258   2  10   0.1438   0.1130   0.4267   0.0499  -0.1045   0.0627   0.00    1.9
2018/03/20 09:47:37.000   45.062379851    7.663906619   295.3304   2  10   0.1382   0.1088   0.4076   0.0480  -0.1007   0.0574   0.00    2.5
2018/03/20 09:47:38.000   45.062379791    7.663906612   295.4220   2  10   0.1333   0.1051   0.3906   0.0463  -0.0972   0.0527   0.00    2.4
2018/03/20 09:47:39.000   45.062379593    7.663906574   295.4079   2  10   0.1287   0.1017   0.3735   0.0446  -0.0943   0.0463   0.00    2.0
2018/03/20 09:47:40.000   45.062379412    7.663906548   295.3951   2  10   0.1245   0.0987   0.3583   0.0432  -0.0915   0.0406   0.00    2.9
2018/03/20 09:47:41.000   45.062379253    7.663906517   295.4017   2  10   0.1207   0.0958   0.3447   0.0418  -0.0889   0.0355   0.00    2.9
2018/03/20 09:47:42.000   45.062379097    7.663906495   295.4173   2  10   0.1172   0.0933   0.3322   0.0406  -0.0865   0.0307   0.00    2.9
2018/03/20 09:47:43.000   45.062378963    7.663906477   295.4556   2  10   0.1139   0.0909   0.3208   0.0395  -0.0842   0.0261   0.00    2.9
2018/03/20 09:47:44.000   45.062378854    7.663906468   295.4868   2  10   0.1109   0.0886   0.3104   0.0384  -0.0821   0.0216   0.00    2.8
2018/03/20 09:47:45.000   45.062378753    7.663906446   295.5404   2  10   0.1081   0.0865   0.3006   0.0375  -0.0800   0.0170   0.00    2.8
2018/03/20 09:47:46.000   45.062378665    7.663906458   295.5900   2  10   0.1055   0.0846   0.2916   0.0366  -0.0781   0.0118   0.00    2.8
2018/03/20 09:47:47.000   45.062378566    7.663906476   295.6349   2  10   0.1031   0.0828   0.2832   0.0357  -0.0762   0.0037   0.00    2.8
2018/03/20 09:47:48.000   45.062378455    7.663906483   295.6832   2  10   0.1008   0.0811   0.2753   0.0349  -0.0745  -0.0097   0.00    2.7
2018/03/20 09:47:49.000   45.062378350    7.663906502   295.7239   2  10   0.0986   0.0795   0.2678   0.0342  -0.0728  -0.0136   0.00    2.7
2018/03/20 09:47:50.000   45.062378268    7.663906516   295.7720   2  10   0.0966   0.0779   0.2608   0.0335  -0.0712  -0.0162   0.00    2.7
2018/03/20 09:47:51.000   45.062378203    7.663906529   295.8193   2  10   0.0946   0.0765   0.2541   0.0328  -0.0697  -0.0181   0.00    2.7
2018/03/20 09:47:52.000   45.062378113    7.663906531   295.8724   2  10   0.0928   0.0751   0.2478   0.0322  -0.0682  -0.0197   0.00    2.7
2018/03/20 09:47:53.000   45.062378038    7.663906554   295.9130   2  10   0.0910   0.0738   0.2418   0.0316  -0.0668  -0.0209   0.00    2.7
2018/03/20 09:47:54.000   45.062377951    7.663906570   295.9576   2  10   0.0893   0.0726   0.2361   0.0310  -0.0655  -0.0219   0.00    2.6
2018/03/20 09:47:55.000   45.062377847    7.663906584   295.9981   2  10   0.0877   0.0714   0.2307   0.0305  -0.0642  -0.0227   0.00    2.6
2018/03/20 09:47:56.000   45.062377741    7.663906591   296.0407   2  10   0.0862   0.0703   0.2254   0.0300  -0.0629  -0.0234   0.00    2.6
2018/03/20 09:47:57.000   45.062377638    7.663906593   296.0849   2  10   0.0847   0.0692   0.2204   0.0295  -0.0617  -0.0240   0.00    2.6
2018/03/20 09:47:58.000   45.062377524    7.663906596   296.1209   2  10   0.0833   0.0681   0.2156   0.0290  -0.0606  -0.0245   0.00    2.6
2018/03/20 09:47:59.000   45.062377408    7.663906592   296.1555   2  10   0.0819   0.0671   0.2110   0.0285  -0.0594  -0.0249   0.00    2.5
2018/03/20 09:48:00.000   45.062377306    7.663906596   296.1872   2  10   0.0806   0.0662   0.2066   0.0281  -0.0584  -0.0252   0.00    2.5
2018/03/20 09:48:01.000   45.062377193    7.663906595   296.2205   2  10   0.0793   0.0653   0.2023   0.0276  -0.0573  -0.0255   0.00    2.5
2018/03/20 09:48:02.000   45.062377102    7.663906600   296.2487   2  10   0.0781   0.0644   0.1982   0.0272  -0.0563  -0.0258   0.00    2.5
2018/03/20 09:48:03.000   45.062377010    7.663906603   296.2794   2  10   0.0769   0.0635   0.1943   0.0268  -0.0553  -0.0260   0.00    2.5
2018/03/20 09:48:04.000   45.062376918    7.663906603   296.3081   2  10   0.0758   0.0627   0.1904   0.0265  -0.0543  -0.0262   0.00    2.5
2018/03/20 09:48:05.000   45.062376751    7.663906565   296.3013   2   9   0.0747   0.0619   0.1871   0.0261  -0.0533  -0.0257   0.00    1.7
2018/03/20 09:48:06.000   45.062376606    7.663906536   296.2848   2   9   0.0737   0.0612   0.1839   0.0258  -0.0524  -0.0253   0.00    1.7
2018/03/20 09:48:07.000   45.062376440    7.663906487   296.2777   2   9   0.0727   0.0604   0.1808   0.0255  -0.0514  -0.0250   0.00    1.7
2018/03/20 09:48:08.000   45.062376280    7.663906441   296.2723   2   9   0.0717   0.0597   0.1778   0.0251  -0.0505  -0.0246   0.00    1.7
2018/03/20 09:48:09.000   45.062376116    7.663906385   296.2679   2   9   0.0708   0.0591   0.1748   0.0248  -0.0496  -0.0243   0.00    1.7
2018/03/20 09:48:10.000   45.062375956    7.663906334   296.2679   2   9   0.0698   0.0584   0.1719   0.0245  -0.0488  -0.0240   0.00    1.7
2018/03/20 09:48:11.000   45.062375807    7.663906290   296.2632   2   9   0.0689   0.0577   0.1690   0.0243  -0.0480  -0.0238   0.00    1.7
2018/03/20 09:48:12.000   45.062375667    7.663906245   296.2603   2   9   0.0681   0.0571   0.1662   0.0240  -0.0472  -0.0235   0.00    1.7
2018/03/20 09:48:13.000   45.062375528    7.663906205   296.2547   2   9   0.0672   0.0565   0.1635   0.0237  -0.0464  -0.0233   0.00    1.7
2018/03/20 09:48:14.000   45.062375396    7.663906142   296.2635   2   9   0.0664   0.0559   0.1609   0.0234  -0.0456  -0.0231   0.00    1.7
2018/03/20 09:48:15.000   45.062375259    7.663906080   296.2663   2   9   0.0656   0.0553   0.1583   0.0232  -0.0449  -0.0229   0.00    1.7
2018/03/20 09:48:16.000   45.062375119    7.663906020   296.2749   2   9   0.0648   0.0548   0.1557   0.0229  -0.0442  -0.0227   0.00    1.7
2018/03/20 09:48:17.000   45.062374974    7.663905950   296.2793   2   9   0.0640   0.0542   0.1532   0.0226  -0.0435  -0.0226   0.00    1.7
2018/03/20 09:48:18.000   45.062374874    7.663905896   296.2802   2   9   0.0632   0.0537   0.1508   0.0224  -0.0428  -0.0224   0.00    1.7
2018/03/20 09:48:19.000   45.062374760    7.663905842   296.2837   2   9   0.0625   0.0532   0.1484   0.0222  -0.0421  -0.0223   0.00    1.7
2018/03/20 09:48:20.000   45.062374633    7.663905789   296.2870   2   9   0.0617   0.0527   0.1461   0.0219  -0.0415  -0.0221   0.00    1.7
2018/03/20 09:48:21.000   45.062374511    7.663905741   296.2863   2   9   0.0610   0.0522   0.1439   0.0217  -0.0409  -0.0220   0.00    1.7
2018/03/20 09:48:22.000   45.062374383    7.663905684   296.2840   2   9   0.0603   0.0517   0.1416   0.0214  -0.0403  -0.0219   0.00    1.7
2018/03/20 09:48:23.000   45.062374268    7.663905637   296.2808   2   9   0.0596   0.0513   0.1395   0.0212  -0.0397  -0.0217   0.00    1.7
2018/03/20 09:48:24.000   45.062374161    7.663905585   296.2836   2   9   0.0590   0.0508   0.1373   0.0210  -0.0391  -0.0216   0.00    1.7
2018/03/20 09:48:25.000   45.062374057    7.663905535   296.2826   2   9   0.0583   0.0504   0.1352   0.0208  -0.0385  -0.0215   0.00    1.7
2018/03/20 09:48:26.000   45.062373979    7.663905505   296.2903   2  10   0.0576   0.0499   0.1331   0.0205  -0.0380  -0.0216   0.00    1.4
2018/03/20 09:48:27.000   45.062373895    7.663905475   296.2948   2  10   0.0570   0.0495   0.1310   0.0203  -0.0376  -0.0216   0.00    1.8
2018/03/20 09:48:28.000   45.062373818    7.663905448   296.3022   2  10   0.0564   0.0491   0.1289   0.0201  -0.0371  -0.0217   0.00    2.1
2018/03/20 09:48:29.000   45.062373738    7.663905423   296.3034   2  10   0.0557   0.0487   0.1269   0.0199  -0.0366  -0.0217   0.00    2.2
2018/03/20 09:48:30.000   45.062373651    7.663905391   296.3111   2  10   0.0551   0.0483   0.1249   0.0196  -0.0362  -0.0217   0.00    2.3
2018/03/20 09:48:31.000   45.062373578    7.663905369   296.3130   2  10   0.0545   0.0479   0.1230   0.0194  -0.0357  -0.0217   0.00    2.4
2018/03/20 09:48:32.000   45.062373504    7.663905347   296.3131   2  10   0.0539   0.0475   0.1212   0.0192  -0.0353  -0.0217   0.00    2.5
2018/03/20 09:48:33.000   45.062373427    7.663905315   296.3164   2  10   0.0534   0.0471   0.1193   0.0190  -0.0349  -0.0217   0.00    2.6
2018/03/20 09:48:34.000   45.062373353    7.663905287   296.3176   2  10   0.0528   0.0468   0.1176   0.0188  -0.0344  -0.0217   0.00    2.7
2018/03/20 09:48:35.000   45.062373282    7.663905269   296.3154   2  10   0.0523   0.0464   0.1158   0.0186  -0.0340  -0.0216   0.00    2.7
2018/03/20 09:48:36.000   45.062373205    7.663905242   296.3213   2  10   0.0517   0.0460   0.1141   0.0184  -0.0336  -0.0216   0.00    2.8
2018/03/20 09:48:37.000   45.062373144    7.663905213   296.3218   2  10   0.0512   0.0457   0.1125   0.0182  -0.0332  -0.0215   0.00    2.9
2018/03/20 09:48:38.000   45.062373083    7.663905182   296.3217   2  10   0.0506   0.0453   0.1109   0.0180  -0.0328  -0.0215   0.00    3.0
2018/03/20 09:48:39.000   45.062369438    7.663903109   296.0156   1  10   0.0006   0.0005   0.0018   0.0002  -0.0005   0.0002   0.00    3.1
2018/03/20 09:48:40.000   45.062369438    7.663903109   296.0157   1  10   0.0006   0.0005   0.0018   0.0002  -0.0005   0.0002   0.00    3.1
2018/03/20 09:48:41.000   45.062369438    7.663903109   296.0158   1  10   0.0006   0.0005   0.0018   0.0002  -0.0005   0.0001   0.00    3.2
2018/03/20 09:48:42.000   45.062369437    7.663903109   296.0158   1  10   0.0006   0.0005   0.0017   0.0002  -0.0005   0.0001   0.00    3.3
2018/03/20 09:48:43.000   45.062369437    7.663903109   296.0158   1  10   0.0006   0.0005   0.0017   0.0002  -0.0005   0.0001   0.00    3.4
2018/03/20 09:48:44.000   45.062369437    7.663903108   296.0158   1  10   0.0006   0.0005   0.0017   0.0002  -0.0005   0.0001   0.00    3.4
2018/03/20 09:48:45.000   45.062369436    7.663903108   296.0158   1  10   0.0006   0.0005   0.0017   0.0002  -0.0005   0.0001   0.00    3.5
2018/03/20 09:48:46.000   45.062369436    7.663903108   296.0158   1  10   0.0006   0.0005   0.0017   0.0002  -0.0004   0.0001   0.00    3.6
2018/03/20 09:48:47.000   45.062369435    7.663903108   296.0158   1  10   0.0006   0.0005   0.0017   0.0002  -0.0004   0.0001   0.00    3.6
2018/03/20 09:48:48.000   45.062369435    7.663903108   296.0157   1  10   0.0006   0.0005   0.0017   0.0002  -0.0004   0.0001   0.00    3.7
2018/03/20 09:48:49.000   45.062369434    7.663903107   296.0157   1  10   0.0006   0.0005   0.0017   0.0002  -0.0004   0.0001   0.00    3.7
2018/03/20 09:48:50.000   45.062369434    7.663903107   296.0157   1  10   0.0006   0.0004   0.0016   0.0002  -0.0004   0.0001   0.00    3.8
2018/03/20 09:48:51.000   45.062369434    7.663903107   296.0156   1  10   0.0006   0.0004   0.0016   0.0002  -0.0004   0.0001   0.00    3.8
2018/03/20 09:48:52.000   45.062369433    7.663903107   296.0156   1  10   0.0006   0.0004   0.0016   0.0002  -0.0004   0.0001   0.00    3.8
2018/03/20 09:48:53.000   45.062369433    7.663903107   296.0156   1  10   0.0006   0.0004   0.0016   0.0002  -0.0004   0.0001   0.00    3.9
2018/03/20 09:48:54.000   45.062369433    7.663903107   296.0155   1  10   0.0006   0.0004   0.0016   0.0002  -0.0004   0.0001   0.00    3.9
2018/03/20 09:48:55.000   45.062369432    7.663903107   296.0154   1  10   0.0005   0.0004   0.0016   0.0002  -0.0004   0.0001   0.00    3.9
2018/03/20 09:48:56.000   45.062369431    7.663903107   296.0153   1  10   0.0005   0.0004   0.0016   0.0002  -0.0004   0.0000   0.00    3.9
2018/03/20 09:48:57.000   45.062369431    7.663903107   296.0153   1  10   0.0005   0.0004   0.0016   0.0002  -0.0004   0.0000   0.00    3.9
2018/03/20 09:48:58.000   45.062369431    7.663903107   296.0153   1  10   0.0005   0.0004   0.0016   0.0002  -0.0004  -0.0000   0.00    3.9
2018/03/20 09:48:59.000   45.062369431    7.663903107   296.0153   1  10   0.0005   0.0004   0.0016   0.0002  -0.0004  -0.0000   0.00    4.0
2018/03/20 09:49:00.000   45.062369430    7.663903107   296.0153   1  10   0.0005   0.0004   0.0015   0.0002  -0.0004  -0.0000   0.00    4.0
2018/03/20 09:49:01.000   45.062369430    7.663903107   296.0153   1  10   0.0005   0.0004   0.0015   0.0002  -0.0004  -0.0001   0.00    4.0
2018/03/20 09:49:02.000   45.062369429    7.663903107   296.0153   1  10   0.0005   0.0004   0.0015   0.0002  -0.0004  -0.0001   0.00    4.0
2018/03/20 09:49:03.000   45.062369429    7.663903107   296.0153   1  10   0.0005   0.0004   0.0015   0.0002  -0.0004  -0.0001   0.00    4.0
2018/03/20 09:49:04.000   45.062369429    7.663903107   296.0153   1  10   0.0005   0.0004   0.0015   0.0002  -0.0004  -0.0001   0.00    4.0
2018/03/20 09:49:05.000   45.062369429    7.663903107   296.0153   1  10   0.0005   0.0004   0.0015   0.0002  -0.0004  -0.0001   0.00    4.0
2018/03/20 09:49:06.000   45.062369428    7.663903106   296.0154   1  10   0.0005   0.0004   0.0015   0.0002  -0.0004  -0.0001   0.00    4.0
2018/03/20 09:49:07.000   45.062369428    7.663903106   296.0154   1  10   0.0005   0.0004   0.0015   0.0002  -0.0004  -0.0001   0.00    4.0
2018/03/20 09:49:08.000   45.062369428    7.663903106   296.0155   1  10   0.0005   0.0004   0.0015   0.0002  -0.0004  -0.0001   0.00    4.0
2018/03/20 09:49:09.000   45.062369428    7.663903106   296.0156   1  10   0.0005   0.0004   0.0015   0.0002  -0.0004  -0.0001   0.00    4.1
2018/03/20 09:49:10.000   45.062369427    7.663903106   296.0156   1  10   0.0005   0.0004   0.0015   0.0002  -0.0004  -0.0001   0.00    4.0
2018/03/20 09:49:11.000   45.062369427    7.663903106   296.0156   1  10   0.0005   0.0004   0.0015   0.0002  -0.0004  -0.0001   0.00    4.0
2018/03/20 09:49:12.000   45.062369427    7.663903105   296.0158   1  10   0.0005   0.0004   0.0014   0.0002  -0.0004  -0.0001   0.00    4.0
2018/03/20 09:49:13.000   45.062369426    7.663903105   296.0158   1  10   0.0005   0.0004   0.0014   0.0002  -0.0004  -0.0001   0.00    4.0
2018/03/20 09:49:14.000   45.062369426    7.663903105   296.0158   1  10   0.0005   0.0004   0.0014   0.0002  -0.0004  -0.0001   0.00    4.0
2018/03/20 09:49:15.000   45.062369426    7.663903105   296.0158   1  10   0.0005   0.0004   0.0014   0.0002  -0.0004  -0.0001   0.00    4.0
2018/03/20 09:49:16.000   45.062369425    7.663903104   296.0160   1  10   0.0005   0.0004   0.0014   0.0002  -0.0004  -0.0001   0.00    4.0
2018/03/20 09:49:17.000   45.062369425    7.663903104   296.0160   1  10   0.0005   0.0004   0.0014   0.0002  -0.0004  -0.0001   0.00    3.9
2018/03/20 09:49:18.000   45.062369425    7.663903104   296.0161   1  10   0.0005   0.0004   0.0014   0.0002  -0.0004  -0.0001   0.00    3.9
2018/03/20 09:49:19.000   45.062369425    7.663903104   296.0162   1  10   0.0005   0.0004   0.0014   0.0002  -0.0004  -0.0001   0.00    3.9
2018/03/20 09:49:20.000   45.062369424    7.663903104   296.0162   1  10   0.0005   0.0004   0.0014   0.0002  -0.0004  -0.0001   0.00    3.8
2018/03/20 09:49:21.000   45.062369424    7.663903103   296.0163   1  10   0.0005   0.0004   0.0014   0.0002  -0.0004  -0.0001   0.00    3.8
2018/03/20 09:49:22.000   45.062369423    7.663903103   296.0164   1  10   0.0005   0.0004   0.0014   0.0002  -0.0004  -0.0001   0.00    3.8
2018/03/20 09:49:23.000   45.062369423    7.663903103   296.0165   1  10   0.0005   0.0004   0.0014   0.0002  -0.0004  -0.0001   0.00    3.8
2018/03/20 09:49:24.000   45.062369423    7.663903103   296.0166   1  10   0.0005   0.0004   0.0014   0.0002  -0.0004  -0.0001   0.00    3.8
2018/03/20 09:49:25.000   45.062369422    7.663903102   296.0168   1  10   0.0005   0.0004   0.0014   0.0002  -0.0004  -0.0001   0.00    3.7
2018/03/20 09:49:26.000   45.062369422    7.663903102   296.0169   1  10   0.0005   0.0004   0.0014   0.0002  -0.0004  -0.0001   0.00    3.7
2018/03/20 09:49:27.000   45.062369422    7.663903102   296.0170   1  10   0.0005   0.0004   0.0013   0.0002  -0.0004  -0.0001   0.00    3.7
2018/03/20 09:49:28.000   45.062369422    7.663903102   296.0172   1  10   0.0005   0.0004   0.0013   0.0002  -0.0004  -0.0001   0.00    3.7
2018/03/20 09:49:29.000   45.062369422    7.663903101   296.0174   1  10   0.0005   0.0004   0.0013   0.0002  -0.0004  -0.0001   0.00    3.7
2018/03/20 09:49:30.000   45.062369421    7.663903100   296.0175   1  10   0.0005   0.0004   0.0013   0.0002  -0.0004  -0.0001   0.00    3.7
2018/03/20 09:49:31.000   45.062369421    7.663903100   296.0177   1  10   0.0005   0.0004   0.0013   0.0002  -0.0004  -0.0001   0.00    3.6
2018/03/20 09:49:32.000   45.062369421    7.663903100   296.0179   1  10   0.0005   0.0004   0.0013   0.0002  -0.0004  -0.0001   0.00    3.6
2018/03/20 09:49:33.000   45.062369420    7.663903099   296.0180   1  10   0.0005   0.0004   0.0013   0.0002  -0.0004  -0.0001   0.00    3.6
2018/03/20 09:49:34.000   45.062369420    7.663903099   296.0182   1  10   0.0005   0.0004   0.0013   0.0002  -0.0004  -0.0001   0.00    3.6
2018/03/20 09:49:35.000   45.062369420    7.663903099   296.0183   1  10   0.0005   0.0004   0.0013   0.0002  -0.0004  -0.0001   0.00    3.6
2018/03/20 09:49:36.000   45.062369420    7.663903098   296.0185   1  10   0.0005   0.0004   0.0013   0.0002  -0.0004  -0.0001   0.00    3.6
2018/03/20 09:49:37.000   45.062369420    7.663903098   296.0186   1  10   0.0005   0.0004   0.0013   0.0002  -0.0004  -0.0001   0.00    3.6
2018/03/20 09:49:38.000   45.062369419    7.663903098   296.0188   1  10   0.0005   0.0004   0.0013   0.0002  -0.0004  -0.0001   0.00    3.6
2018/03/20 09:49:39.000   45.062369419    7.663903098   296.0189   1  10   0.0005   0.0004   0.0013   0.0002  -0.0004  -0.0001   0.00    3.6
2018/03/20 09:49:40.000   45.062369419    7.663903097   296.0190   1  10   0.0005   0.0004   0.0013   0.0002  -0.0004  -0.0001   0.00    3.6
2018/03/20 09:49:41.000   45.062369419    7.663903097   296.0192   1  10   0.0005   0.0004   0.0013   0.0002  -0.0004  -0.0001   0.00    3.6
2018/03/20 09:49:42.000   45.062369419    7.663903096   296.0193   1  10   0.0004   0.0004   0.0013   0.0002  -0.0004  -0.0001   0.00    3.6
2018/03/20 09:49:43.000   45.062369419    7.663903096   296.0194   1  10   0.0004   0.0004   0.0013   0.0002  -0.0004  -0.0001   0.00    3.6
2018/03/20 09:49:44.000   45.062369419    7.663903095   296.0195   1  10   0.0004   0.0004   0.0013   0.0002  -0.0004  -0.0001   0.00    3.7
2018/03/20 09:49:45.000   45.062369418    7.663903095   296.0197   1  10   0.0004   0.0004   0.0013   0.0002  -0.0004  -0.0001   0.00    3.7
2018/03/20 09:49:46.000   45.062369418    7.663903095   296.0198   1  10   0.0004   0.0004   0.0013   0.0002  -0.0004  -0.0001   0.00    3.7
2018/03/20 09:49:47.000   45.062369419    7.663903095   296.0199   1  10   0.0004   0.0004   0.0012   0.0002  -0.0004  -0.0001   0.00    3.7
2018/03/20 09:49:48.000   45.062369418    7.663903094   296.0200   1  10   0.0004   0.0004   0.0012   0.0002  -0.0003  -0.0001   0.00    3.7
2018/03/20 09:49:49.000   45.062369418    7.663903094   296.0202   1  10   0.0004   0.0004   0.0012   0.0002  -0.0003  -0.0001   0.00    3.7
2018/03/20 09:49:50.000   45.062369418    7.663903094   296.0203   1  10   0.0004   0.0004   0.0012   0.0002  -0.0003  -0.0001   0.00    3.7
2018/03/20 09:49:51.000   45.062369418    7.663903094   296.0204   1  10   0.0004   0.0003   0.0012   0.0002  -0.0003  -0.0001   0.00    3.8
2018/03/20 09:49:52.000   45.062369418    7.663903094   296.0205   1  10   0.0004   0.0003   0.0012   0.0002  -0.0003  -0.0001   0.00    3.8
2018/03/20 09:49:53.000   45.062369418    7.663903093   296.0206   1  10   0.0004   0.0003   0.0012   0.0002  -0.0003  -0.0001   0.00    3.8
2018/03/20 09:49:54.000   45.062369418    7.663903093   296.0208   1  10   0.0004   0.0003   0.0012   0.0002  -0.0003  -0.0001   0.00    3.7
2018/03/20 09:49:55.000   45.062369418    7.663903093   296.0208   1  10   0.0004   0.0003   0.0012   0.0002  -0.0003  -0.0001   0.00    3.7
2018/03/20 09:49:56.000   45.062369418    7.663903093   296.0209   1  10   0.0004   0.0003   0.0012   0.0002  -0.0003  -0.0001   0.00    3.7
2018/03/20 09:49:57.000   45.062369418    7.663903092   296.0210   1  10   0.0004   0.0003   0.0012   0.0002  -0.0003  -0.0001   0.00    3.7
2018/03/20 09:49:58.000   45.062369418    7.663903092   296.0211   1  10   0.0004   0.0003   0.0012   0.0002  -0.0003  -0.0001   0.00    3.7
2018/03/20 09:49:59.000   45.062369417    7.663903092   296.0212   1  10   0.0004   0.0003   0.0012   0.0002  -0.0003  -0.0001   0.00    3.7
2018/03/20 09:50:00.000   45.062369417    7.663903091   296.0213   1  10   0.0004   0.0003   0.0012   0.0002  -0.0003  -0.0001   0.00    3.7
2018/03/20 09:50:01.000   45.062369417    7.663903091   296.0214   1  10   0.0004   0.0003   0.0012   0.0002  -0.0003  -0.0001   0.00    3.7
2018/03/20 09:50:02.000   45.062369417    7.663903091   296.0216   1  10   0.0004   0.0003   0.0012   0.0002  -0.0003  -0.0001   0.00    3.7
2018/03/20 09:50:03.000   45.062369417    7.663903091   296.0216   1  10   0.0004   0.0003   0.0012   0.0002  -0.0003  -0.0001   0.00    3.6
2018/03/20 09:50:04.000   45.062369416    7.663903091   296.0217   1  10   0.0004   0.0003   0.0012   0.0002  -0.0003  -0.0001   0.00    3.6
2018/03/20 09:50:05.000   45.062369416    7.663903090   296.0217   1  10   0.0004   0.0003   0.0012   0.0002  -0.0003  -0.0001   0.00    3.6
2018/03/20 09:50:06.000   45.062369416    7.663903090   296.0218   1  10   0.0004   0.0003   0.0012   0.0002  -0.0003  -0.0001   0.00    3.6
2018/03/20 09:50:07.000   45.062369416    7.663903090   296.0219   1  10   0.0004   0.0003   0.0012   0.0002  -0.0003  -0.0001   0.00    3.6
2018/03/20 09:50:08.000   45.062369416    7.663903090   296.0219   1  10   0.0004   0.0003   0.0012   0.0002  -0.0003  -0.0001   0.00    3.6
2018/03/20 09:50:09.000   45.062369415    7.663903089   296.0220   1  10   0.0004   0.0003   0.0012   0.0002  -0.0003  -0.0001   0.00    3.6
2018/03/20 09:50:10.000   45.062369415    7.663903089   296.0220   1  10   0.0004   0.0003   0.0012   0.0001  -0.0003  -0.0001   0.00    3.6
2018/03/20 09:50:11.000   45.062369415    7.663903089   296.0222   1  10   0.0004   0.0003   0.0012   0.0001  -0.0003  -0.0002   0.00    3.5
2018/03/20 09:50:12.000   45.062369415    7.663903088   296.0222   1  10   0.0004   0.0003   0.0011   0.0001  -0.0003  -0.0002   0.00    3.5
2018/03/20 09:50:13.000   45.062369414    7.663903088   296.0223   1  10   0.0004   0.0003   0.0011   0.0001  -0.0003  -0.0002   0.00    3.5
2018/03/20 09:50:14.000   45.062369414    7.663903088   296.0224   1  10   0.0004   0.0003   0.0011   0.0001  -0.0003  -0.0002   0.00    3.5
2018/03/20 09:50:15.000   45.062369414    7.663903087   296.0225   1  10   0.0004   0.0003   0.0011   0.0001  -0.0003  -0.0002   0.00    3.5
2018/03/20 09:50:16.000   45.062369414    7.663903087   296.0226   1  10   0.0004   0.0003   0.0011   0.0001  -0.0003  -0.0002   0.00    3.5
2018/03/20 09:50:17.000   45.062369413    7.663903087   296.0226   1  10   0.0004   0.0003   0.0011   0.0001  -0.0003  -0.0002   0.00    3.4
2018/03/20 09:50:18.000   45.062369413    7.663903087   296.0227   1  10   0.0004   0.0003   0.0011   0.0001  -0.0003  -0.0002   0.00    3.4
2018/03/20 09:50:19.000   45.062369413    7.663903086   296.0228   1  10   0.0004   0.0003   0.0011   0.0001  -0.0003  -0.0002   0.00    3.4
2018/03/20 09:50:20.000   45.062369413    7.663903086   296.0228   1  10   0.0004   0.0003   0.0011   0.0001  -0.0003  -0.0002   0.00    3.4
2018/03/20 09:50:21.000   45.062369412    7.663903086   296.0230   1  10   0.0004   0.0003   0.0011   0.0001  -0.0003  -0.0002   0.00    3.4
2018/03/20 09:50:22.000   45.062369412    7.663903085   296.0231   1  10   0.0004   0.0003   0.0011   0.0001  -0.0003  -0.0002   0.00    3.4
2018/03/20 09:50:23.000   45.062369411    7.663903085   296.0231   1  10   0.0004   0.0003   0.0011   0.0001  -0.0003  -0.0002   0.00    3.4
2018/03/20 09:50:24.000   45.062369411    7.663903085   296.0232   1  10   0.0004   0.0003   0.0011   0.0001  -0.0003  -0.0002   0.00    3.3
2018/03/20 09:50:25.000   45.062369411    7.663903084   296.0232   1  10   0.0004   0.0003   0.0011   0.0001  -0.0003  -0.0002   0.00    3.3
2018/03/20 09:50:26.000   45.062369410    7.663903084   296.0233   1  10   0.0004   0.0003   0.0011   0.0001  -0.0003  -0.0002   0.00    3.3
2018/03/20 09:50:27.000   45.062369410    7.663903084   296.0233   1  10   0.0004   0.0003   0.0011   0.0001  -0.0003  -0.0002   0.00    3.3
2018/03/20 09:50:28.000   45.062369410    7.663903083   296.0234   1  10   0.0004   0.0003   0.0011   0.0001  -0.0003  -0.0002   0.00    3.3
2018/03/20 09:50:29.000   45.062369409    7.663903083   296.0234   1  10   0.0004   0.0003   0.0011   0.0001  -0.0003  -0.0002   0.00    3.3
2018/03/20 09:50:30.000   45.062369409    7.663903083   296.0235   1  10   0.0004   0.0003   0.0011   0.0001  -0.0003  -0.0002   0.00    3.3
2018/03/20 09:50:31.000   45.062369409    7.663903083   296.0235   1  10   0.0004   0.0003   0.0011   0.0001  -0.0003  -0.0002   0.00    3.3
2018/03/20 09:50:32.000   45.062370453    7.663903418   296.1423   2  11   0.0205   0.0255   0.0352   0.0073  -0.0131  -0.0110   0.00    1.1
2018/03/20 09:50:33.000   45.062370430    7.663903395   296.1413   2  11   0.0204   0.0254   0.0349   0.0072  -0.0130  -0.0110   0.00    1.1
2018/03/20 09:50:34.000   45.062370408    7.663903380   296.1398   2  11   0.0203   0.0253   0.0347   0.0072  -0.0129  -0.0109   0.00    1.2
2018/03/20 09:50:35.000   45.062370391    7.663903354   296.1388   2  11   0.0202   0.0252   0.0344   0.0071  -0.0129  -0.0108   0.00    1.2
2018/03/20 09:50:36.000   45.062370380    7.663903325   296.1374   2  11   0.0200   0.0251   0.0342   0.0071  -0.0128  -0.0108   0.00    1.3
2018/03/20 09:50:37.000   45.062370366    7.663903292   296.1362   2  11   0.0199   0.0250   0.0340   0.0071  -0.0127  -0.0107   0.00    1.3
2018/03/20 09:50:38.000   45.062370349    7.663903264   296.1351   2  11   0.0198   0.0250   0.0337   0.0070  -0.0126  -0.0107   0.00    1.4
2018/03/20 09:50:39.000   45.062370331    7.663903238   296.1339   2  11   0.0197   0.0249   0.0335   0.0070  -0.0126  -0.0106   0.00    1.4
2018/03/20 09:50:40.000   45.062370315    7.663903209   296.1331   2  11   0.0196   0.0248   0.0333   0.0069  -0.0125  -0.0105   0.00    1.5
2018/03/20 09:50:41.000   45.062370302    7.663903182   296.1317   2  11   0.0194   0.0247   0.0330   0.0069  -0.0124  -0.0105   0.00    1.5
2018/03/20 09:50:42.000   45.062370285    7.663903155   296.1304   2  11   0.0193   0.0246   0.0328   0.0068  -0.0124  -0.0104   0.00    1.5
2018/03/20 09:50:43.000   45.062370269    7.663903130   296.1282   2  11   0.0192   0.0245   0.0326   0.0068  -0.0123  -0.0103   0.00    1.6
2018/03/20 09:50:44.000   45.062370256    7.663903116   296.1254   2  11   0.0191   0.0244   0.0323   0.0068  -0.0122  -0.0103   0.00    1.6
2018/03/20 09:50:45.000   45.062370238    7.663903089   296.1238   2  11   0.0190   0.0243   0.0321   0.0067  -0.0122  -0.0102   0.00    1.7
2018/03/20 09:50:46.000   45.062370222    7.663903066   296.1227   2  11   0.0189   0.0242   0.0319   0.0067  -0.0121  -0.0102   0.00    1.7
2018/03/20 09:50:47.000   45.062370204    7.663903044   296.1219   2  11   0.0187   0.0241   0.0317   0.0066  -0.0120  -0.0101   0.00    1.7
2018/03/20 09:50:48.000   45.062370190    7.663903021   296.1213   2  11   0.0186   0.0241   0.0315   0.0066  -0.0120  -0.0101   0.00    1.8
2018/03/20 09:50:49.000   45.062370176    7.663903001   296.1203   2  11   0.0185   0.0240   0.0313   0.0066  -0.0119  -0.0100   0.00    1.8
2018/03/20 09:50:50.000   45.062370158    7.663902983   296.1187   2  11   0.0184   0.0239   0.0311   0.0065  -0.0119  -0.0099   0.00    1.8
2018/03/20 09:50:51.000   45.062370142    7.663902965   296.1163   2  11   0.0183   0.0238   0.0309   0.0065  -0.0118  -0.0099   0.00    1.9
2018/03/20 09:50:52.000   45.062370127    7.663902947   296.1140   2  11   0.0182   0.0237   0.0307   0.0065  -0.0117  -0.0098   0.00    1.9
2018/03/20 09:50:53.000   45.062370114    7.663902933   296.1120   2  11   0.0181   0.0236   0.0305   0.0064  -0.0117  -0.0098   0.00    1.9
2018/03/20 09:50:54.000   45.062370102    7.663902920   296.1095   2  11   0.0180   0.0235   0.0303   0.0064  -0.0116  -0.0097   0.00    2.0
2018/03/20 09:50:55.000   45.062370083    7.663902905   296.1077   2  11   0.0179   0.0235   0.0301   0.0063  -0.0116  -0.0097   0.00    2.0
2018/03/20 09:50:56.000   45.062370071    7.663902894   296.1051   2  11   0.0178   0.0234   0.0299   0.0063  -0.0115  -0.0096   0.00    2.0
2018/03/20 09:50:57.000   45.062370051    7.663902878   296.1033   2  11   0.0177   0.0233   0.0297   0.0063  -0.0114  -0.0096   0.00    2.1
2018/03/20 09:50:58.000   45.062370037    7.663902858   296.1027   2  11   0.0176   0.0232   0.0295   0.0062  -0.0114  -0.0095   0.00    2.1
2018/03/20 09:50:59.000   45.062370022    7.663902842   296.1011   2  11   0.0175   0.0231   0.0293   0.0062  -0.0113  -0.0095   0.00    2.1
2018/03/20 09:51:00.000   45.062370009    7.663902824   296.1003   2  11   0.0174   0.0231   0.0291   0.0062  -0.0113  -0.0094   0.00    2.2
2018/03/20 09:51:01.000   45.062369999    7.663902819   296.0978   2  11   0.0173   0.0230   0.0289   0.0061  -0.0112  -0.0094   0.00    2.2
2018/03/20 09:51:02.000   45.062369981    7.663902799   296.0975   2  11   0.0172   0.0229   0.0287   0.0061  -0.0112  -0.0093   0.00    2.2
2018/03/20 09:51:03.000   45.062369967    7.663902787   296.0963   2  11   0.0171   0.0228   0.0286   0.0061  -0.0111  -0.0093   0.00    2.3
2018/03/20 09:51:04.000   45.062369953    7.663902774   296.0959   2  11   0.0170   0.0227   0.0284   0.0060  -0.0110  -0.0092   0.00    2.3
2018/03/20 09:51:05.000   45.062369939    7.663902760   296.0953   2  11   0.0169   0.0227   0.0282   0.0060  -0.0110  -0.0092   0.00    2.3
2018/03/20 09:51:06.000   45.062369928    7.663902749   296.0946   2  11   0.0168   0.0226   0.0280   0.0060  -0.0109  -0.0091   0.00    2.3
2018/03/20 09:51:07.000   45.062369917    7.663902740   296.0929   2  11   0.0167   0.0225   0.0279   0.0059  -0.0109  -0.0091   0.00    2.4
2018/03/20 09:51:08.000   45.062369907    7.663902739   296.0912   2  11   0.0166   0.0224   0.0277   0.0059  -0.0108  -0.0090   0.00    2.4
2018/03/20 09:51:09.000   45.062369901    7.663902741   296.0887   2  11   0.0165   0.0223   0.0275   0.0059  -0.0108  -0.0090   0.00    2.4
2018/03/20 09:51:10.000   45.062369891    7.663902740   296.0865   2  11   0.0164   0.0223   0.0273   0.0058  -0.0107  -0.0089   0.00    2.4
2018/03/20 09:51:11.000   45.062369880    7.663902740   296.0844   2  11   0.0163   0.0222   0.0272   0.0058  -0.0107  -0.0089   0.00    2.5
2018/03/20 09:51:12.000   45.062369867    7.663902736   296.0827   2  11   0.0163   0.0221   0.0270   0.0058  -0.0106  -0.0088   0.00    2.5
2018/03/20 09:51:13.000   45.062369854    7.663902728   296.0813   2  11   0.0162   0.0220   0.0269   0.0057  -0.0106  -0.0088   0.00    2.5
2018/03/20 09:51:14.000   45.062369841    7.663902713   296.0807   2  11   0.0161   0.0220   0.0267   0.0057  -0.0105  -0.0087   0.00    2.5
2018/03/20 09:51:15.000   45.062369829    7.663902707   296.0791   2  11   0.0160   0.0219   0.0265   0.0057  -0.0105  -0.0087   0.00    2.6
2018/03/20 09:51:16.000   45.062369820    7.663902703   296.0768   2  11   0.0159   0.0218   0.0264   0.0056  -0.0104  -0.0086   0.00    2.6
2018/03/20 09:51:17.000   45.062369810    7.663902696   296.0753   2  11   0.0158   0.0218   0.0262   0.0056  -0.0104  -0.0086   0.00    2.6
2018/03/20 09:51:18.000   45.062369800    7.663902692   296.0739   2  11   0.0157   0.0217   0.0261   0.0056  -0.0103  -0.0085   0.00    2.6
2018/03/20 09:51:19.000   45.062369781    7.663902683   296.0732   2  11   0.0157   0.0216   0.0259   0.0056  -0.0103  -0.0085   0.00    2.7
2018/03/20 09:51:20.000   45.062369769    7.663902679   296.0713   2  11   0.0156   0.0215   0.0258   0.0055  -0.0102  -0.0085   0.00    2.7
2018/03/20 09:51:21.000   45.062369760    7.663902679   296.0686   2  11   0.0155   0.0215   0.0256   0.0055  -0.0102  -0.0084   0.00    2.7
2018/03/20 09:51:22.000   45.062369752    7.663902679   296.0668   2  11   0.0154   0.0214   0.0255   0.0055  -0.0101  -0.0084   0.00    2.7
2018/03/20 09:51:23.000   45.062369743    7.663902680   296.0644   2  11   0.0153   0.0213   0.0253   0.0054  -0.0101  -0.0083   0.00    2.8
2018/03/20 09:51:24.000   45.062369733    7.663902674   296.0630   2  11   0.0152   0.0213   0.0252   0.0054  -0.0100  -0.0083   0.00    2.8
2018/03/20 09:51:25.000   45.062369723    7.663902674   296.0617   2  11   0.0152   0.0212   0.0250   0.0054  -0.0100  -0.0083   0.00    2.8
2018/03/20 09:51:26.000   45.062369715    7.663902669   296.0602   2  11   0.0151   0.0211   0.0249   0.0054  -0.0100  -0.0082   0.00    2.8
2018/03/20 09:51:27.000   45.062369703    7.663902667   296.0585   2  11   0.0150   0.0210   0.0247   0.0053  -0.0099  -0.0082   0.00    2.8
2018/03/20 09:51:28.000   45.062369693    7.663902670   296.0570   2  11   0.0149   0.0210   0.0246   0.0053  -0.0099  -0.0081   0.00    2.9
2018/03/20 09:51:29.000   45.062369683    7.663902670   296.0561   2  11   0.0149   0.0209   0.0245   0.0053  -0.0098  -0.0081   0.00    2.9
2018/03/20 09:51:30.000   45.062369675    7.663902676   296.0542   2  11   0.0148   0.0208   0.0243   0.0052  -0.0098  -0.0080   0.00    2.9
2018/03/20 09:51:31.000   45.062369666    7.663902681   296.0530   2  11   0.0147   0.0208   0.0242   0.0052  -0.0097  -0.0080   0.00    2.9
2018/03/20 09:51:32.000   45.062369659    7.663902679   296.0524   2  11   0.0146   0.0207   0.0241   0.0052  -0.0097  -0.0080   0.00    3.0
2018/03/20 09:51:33.000   45.062369649    7.663902675   296.0521   2  11   0.0146   0.0206   0.0239   0.0052  -0.0096  -0.0079   0.00    3.0
2018/03/20 09:51:34.000   45.062369644    7.663902679   296.0508   2  11   0.0145   0.0206   0.0238   0.0051  -0.0096  -0.0079   0.00    3.0
2018/03/20 09:51:35.000   45.062369400    7.663903074   296.0225   1  11   0.0003   0.0003   0.0009   0.0001  -0.0003  -0.0001   0.00    3.0
2018/03/20 09:51:36.000   45.062369400    7.663903074   296.0225   1  11   0.0003   0.0003   0.0009   0.0001  -0.0003  -0.0001   0.00    3.0
2018/03/20 09:51:37.000   45.062369400    7.663903074   296.0225   1  11   0.0003   0.0003   0.0009   0.0001  -0.0003  -0.0001   0.00    3.1
2018/03/20 09:51:38.000   45.062369400    7.663903074   296.0224   1  11   0.0003   0.0003   0.0009   0.0001  -0.0003  -0.0001   0.00    3.1
2018/03/20 09:51:39.000   45.062369400    7.663903074   296.0224   1  11   0.0003   0.0003   0.0009   0.0001  -0.0003  -0.0001   0.00    3.1
2018/03/20 09:51:40.000   45.062369400    7.663903074   296.0224   1  11   0.0003   0.0003   0.0009   0.0001  -0.0003  -0.0001   0.00    3.1
2018/03/20 09:51:41.000   45.062369400    7.663903073   296.0223   1  11   0.0003   0.0003   0.0009   0.0001  -0.0003  -0.0001   0.00    3.2
2018/03/20 09:51:42.000   45.062369400    7.663903073   296.0223   1  11   0.0003   0.0003   0.0009   0.0001  -0.0003  -0.0001   0.00    3.2
2018/03/20 09:51:43.000   45.062369400    7.663903073   296.0223   1  11   0.0003   0.0003   0.0009   0.0001  -0.0003  -0.0001   0.00    3.2
2018/03/20 09:51:44.000   45.062369400    7.663903073   296.0222   1  11   0.0003   0.0003   0.0009   0.0001  -0.0003  -0.0001   0.00    3.2
2018/03/20 09:51:45.000   45.062369400    7.663903073   296.0222   1  11   0.0003   0.0003   0.0009   0.0001  -0.0003  -0.0001   0.00    3.3
2018/03/20 09:51:46.000   45.062369400    7.663903073   296.0222   1  11   0.0003   0.0003   0.0009   0.0001  -0.0003  -0.0001   0.00    3.3
2018/03/20 09:51:47.000   45.062369400    7.663903073   296.0222   1  11   0.0003   0.0003   0.0009   0.0001  -0.0003  -0.0001   0.00    3.3
2018/03/20 09:51:48.000   45.062369400    7.663903073   296.0221   1  11   0.0003   0.0003   0.0009   0.0001  -0.0003  -0.0001   0.00    3.2
2018/03/20 09:51:49.000   45.062369400    7.663903072   296.0221   1  11   0.0003   0.0003   0.0009   0.0001  -0.0003  -0.0001   0.00    3.2
2018/03/20 09:51:50.000   45.062369400    7.663903072   296.0221   1  11   0.0003   0.0003   0.0009   0.0001  -0.0003  -0.0001   0.00    3.2
2018/03/20 09:51:51.000   45.062369400    7.663903072   296.0221   1  11   0.0003   0.0003   0.0009   0.0001  -0.0003  -0.0001   0.00    3.2
2018/03/20 09:51:52.000   45.062369400    7.663903072   296.0220   1  11   0.0003   0.0003   0.0009   0.0001  -0.0003  -0.0001   0.00    3.2
2018/03/20 09:51:53.000   45.062369400    7.663903072   296.0220   1  11   0.0003   0.0003   0.0009   0.0001  -0.0003  -0.0001   0.00    3.2
2018/03/20 09:51:54.000   45.062369400    7.663903072   296.0219   1  11   0.0003   0.0003   0.0009   0.0001  -0.0003  -0.0001   0.00    3.2
2018/03/20 09:51:55.000   45.062369401    7.663903072   296.0219   1  11   0.0003   0.0003   0.0009   0.0001  -0.0003  -0.0001   0.00    3.2
2018/03/20 09:51:56.000   45.062369401    7.663903073   296.0219   1  11   0.0003   0.0003   0.0009   0.0001  -0.0003  -0.0001   0.00    3.2
2018/03/20 09:51:57.000   45.062369401    7.663903073   296.0218   1  11   0.0003   0.0003   0.0009   0.0001  -0.0003  -0.0001   0.00    3.2
2018/03/20 09:51:58.000   45.062369401    7.663903073   296.0218   1  11   0.0003   0.0003   0.0009   0.0001  -0.0003  -0.0001   0.00    3.2
2018/03/20 09:51:59.000   45.062369401    7.663903073   296.0217   1  11   0.0003   0.0003   0.0009   0.0001  -0.0003  -0.0001   0.00    3.2
2018/03/20 09:52:00.000   45.062369401    7.663903073   296.0217   1  11   0.0003   0.0003   0.0009   0.0001  -0.0003  -0.0001   0.00    3.2
2018/03/20 09:52:01.000   45.062369401    7.663903073   296.0217   1  11   0.0003   0.0003   0.0009   0.0001  -0.0003  -0.0001   0.00    3.2
2018/03/20 09:52:02.000   45.062369401    7.663903073   296.0216   1  11   0.0003   0.0003   0.0009   0.0001  -0.0003  -0.0001   0.00    3.2
2018/03/20 09:52:03.000   45.062369401    7.663903073   296.0216   1  11   0.0003   0.0003   0.0009   0.0001  -0.0003  -0.0001   0.00    3.2
2018/03/20 09:52:04.000   45.062369401    7.663903073   296.0215   1  11   0.0003   0.0003   0.0009   0.0001  -0.0003  -0.0001   0.00    3.2
2018/03/20 09:52:05.000   45.062369401    7.663903073   296.0215   1  11   0.0003   0.0003   0.0009   0.0001  -0.0003  -0.0001   0.00    3.2
2018/03/20 09:52:06.000   45.062369401    7.663903073   296.0214   1  11   0.0003   0.0003   0.0009   0.0001  -0.0003  -0.0001   0.00    3.2
2018/03/20 09:52:07.000   45.062369402    7.663903073   296.0214   1  11   0.0003   0.0003   0.0009   0.0001  -0.0003  -0.0001   0.00    3.1
2018/03/20 09:52:08.000   45.062369402    7.663903074   296.0214   1  11   0.0003   0.0003   0.0009   0.0001  -0.0003  -0.0001   0.00    3.1
2018/03/20 09:52:09.000   45.062369402    7.663903074   296.0213   1  11   0.0003   0.0003   0.0009   0.0001  -0.0003  -0.0001   0.00    3.1
2018/03/20 09:52:10.000   45.062369402    7.663903074   296.0213   1  11   0.0003   0.0003   0.0009   0.0001  -0.0003  -0.0001   0.00    3.1
2018/03/20 09:52:11.000   45.062369402    7.663903074   296.0212   1  11   0.0003   0.0003   0.0009   0.0001  -0.0003  -0.0001   0.00    3.1
2018/03/20 09:52:12.000   45.062369402    7.663903074   296.0211   1  11   0.0003   0.0003   0.0009   0.0001  -0.0003  -0.0001   0.00    3.1
2018/03/20 09:52:13.000   45.062369402    7.663903074   296.0211   1  11   0.0003   0.0003   0.0009   0.0001  -0.0003  -0.0001   0.00    3.1
2018/03/20 09:52:14.000   45.062369402    7.663903074   296.0211   1  11   0.0003   0.0003   0.0009   0.0001  -0.0003  -0.0001   0.00    3.1
2018/03/20 09:52:15.000   45.062369402    7.663903074   296.0210   1  11   0.0003   0.0003   0.0009   0.0001  -0.0003  -0.0001   0.00    3.1
2018/03/20 09:52:16.000   45.062369402    7.663903074   296.0210   1  11   0.0003   0.0003   0.0009   0.0001  -0.0003  -0.0001   0.00    3.1
2018/03/20 09:52:17.000   45.062369402    7.663903074   296.0210   1  11   0.0003   0.0003   0.0009   0.0001  -0.0003  -0.0001   0.00    3.1
2018/03/20 09:52:18.000   45.062369402    7.663903074   296.0209   1  11   0.0003   0.0003   0.0009   0.0001  -0.0003  -0.0001   0.00    3.1
2018/03/20 09:52:19.000   45.062369402    7.663903074   296.0209   1  11   0.0003   0.0003   0.0009   0.0001  -0.0003  -0.0001   0.00    3.1
2018/03/20 09:52:20.000   45.062369402    7.663903074   296.0209   1  11   0.0003   0.0003   0.0009   0.0001  -0.0003  -0.0001   0.00    3.1
2018/03/20 09:52:21.000   45.062369402    7.663903074   296.0208   1  11   0.0003   0.0003   0.0009   0.0001  -0.0003  -0.0001   0.00    3.1
2018/03/20 09:52:22.000   45.062369402    7.663903074   296.0208   1  11   0.0003   0.0003   0.0009   0.0001  -0.0003  -0.0001   0.00    3.1
2018/03/20 09:52:23.000   45.062369402    7.663903074   296.0208   1  11   0.0003   0.0003   0.0009   0.0001  -0.0003  -0.0001   0.00    3.1
2018/03/20 09:52:24.000   45.062369402    7.663903074   296.0207   1  11   0.0003   0.0003   0.0009   0.0001  -0.0003  -0.0001   0.00    3.1
2018/03/20 09:52:25.000   45.062369401    7.663903074   296.0207   1  11   0.0003   0.0003   0.0009   0.0001  -0.0003  -0.0001   0.00    3.1
2018/03/20 09:52:26.000   45.062369401    7.663903074   296.0207   1  11   0.0003   0.0003   0.0009   0.0001  -0.0003  -0.0001   0.00    3.1
2018/03/20 09:52:27.000   45.062369401    7.663903074   296.0207   1  11   0.0003   0.0003   0.0009   0.0001  -0.0003  -0.0001   0.00    3.1
2018/03/20 09:52:28.000   45.062369401    7.663903074   296.0206   1  11   0.0003   0.0003   0.0009   0.0001  -0.0003  -0.0001   0.00    3.1
2018/03/20 09:52:29.000   45.062369401    7.663903074   296.0206   1  11   0.0003   0.0003   0.0009   0.0001  -0.0003  -0.0001   0.00    3.1
2018/03/20 09:52:30.000   45.062369401    7.663903074   296.0206   1  11   0.0003   0.0003   0.0009   0.0001  -0.0003  -0.0001   0.00    3.1
2018/03/20 09:52:31.000   45.062369401    7.663903074   296.0205   1  11   0.0003   0.0003   0.0009   0.0001  -0.0003  -0.0001   0.00    3.1
2018/03/20 09:52:32.000   45.062369400    7.663903074   296.0205   1  11   0.0003   0.0003   0.0009   0.0001  -0.0003  -0.0001   0.00    3.1
2018/03/20 09:52:33.000   45.062369400    7.663903074   296.0205   1  11   0.0003   0.0003   0.0009   0.0001  -0.0003  -0.0001   0.00    3.1
2018/03/20 09:52:34.000   45.062369400    7.663903074   296.0205   1  11   0.0003   0.0003   0.0009   0.0001  -0.0003  -0.0001   0.00    3.1
2018/03/20 09:52:35.000   45.062369400    7.663903074   296.0204   1  11   0.0003   0.0003   0.0009   0.0001  -0.0003  -0.0001   0.00    3.1
2018/03/20 09:52:36.000   45.062369400    7.663903074   296.0204   1  11   0.0003   0.0003   0.0009   0.0001  -0.0003  -0.0001   0.00    3.1
2018/03/20 09:52:37.000   45.062369400    7.663903074   296.0203   1  11   0.0003   0.0003   0.0009   0.0001  -0.0003  -0.0001   0.00    3.1
2018/03/20 09:52:38.000   45.062369399    7.663903074   296.0203   1  11   0.0003   0.0003   0.0009   0.0001  -0.0003  -0.0001   0.00    3.1
2018/03/20 09:52:39.000   45.062369399    7.663903074   296.0203   1  11   0.0003   0.0003   0.0009   0.0001  -0.0003  -0.0001   0.00    3.1
2018/03/20 09:52:40.000   45.062369399    7.663903074   296.0202   1  11   0.0003   0.0003   0.0009   0.0001  -0.0003  -0.0001   0.00    3.1
2018/03/20 09:52:41.000   45.062369399    7.663903074   296.0202   1  11   0.0003   0.0003   0.0008   0.0001  -0.0003  -0.0001   0.00    3.1
2018/03/20 09:52:42.000   45.062369399    7.663903074   296.0202   1  11   0.0003   0.0003   0.0008   0.0001  -0.0003  -0.0001   0.00    3.1
2018/03/20 09:52:43.000   45.062369399    7.663903074   296.0201   1  11   0.0003   0.0003   0.0008   0.0001  -0.0003  -0.0001   0.00    3.1
2018/03/20 09:52:44.000   45.062369398    7.663903074   296.0201   1  11   0.0003   0.0003   0.0008   0.0001  -0.0003  -0.0001   0.00    3.1
2018/03/20 09:52:45.000   45.062369398    7.663903074   296.0200   1  11   0.0003   0.0003   0.0008   0.0001  -0.0003  -0.0001   0.00    3.1
2018/03/20 09:52:46.000   45.062369398    7.663903074   296.0200   1  11   0.0003   0.0003   0.0008   0.0001  -0.0003  -0.0001   0.00    3.1
2018/03/20 09:52:47.000   45.062369398    7.663903075   296.0199   1  11   0.0003   0.0003   0.0008   0.0001  -0.0003  -0.0001   0.00    3.1
2018/03/20 09:52:48.000   45.062369398    7.663903075   296.0199   1  11   0.0003   0.0003   0.0008   0.0001  -0.0002  -0.0001   0.00    3.1
2018/03/20 09:52:49.000   45.062369397    7.663903075   296.0198   1  11   0.0003   0.0003   0.0008   0.0001  -0.0002  -0.0001   0.00    3.1
2018/03/20 09:52:50.000   45.062369397    7.663903075   296.0198   1  11   0.0003   0.0003   0.0008   0.0001  -0.0002  -0.0001   0.00    3.1
2018/03/20 09:52:51.000   45.062369397    7.663903075   296.0197   1  11   0.0003   0.0003   0.0008   0.0001  -0.0002  -0.0001   0.00    3.1
2018/03/20 09:52:52.000   45.062369397    7.663903075   296.0197   1  11   0.0003   0.0003   0.0008   0.0001  -0.0002  -0.0001   0.00    3.1
2018/03/20 09:52:53.000   45.062369397    7.663903075   296.0196   1  11   0.0003   0.0003   0.0008   0.0001  -0.0002  -0.0001   0.00    3.1
2018/03/20 09:52:54.000   45.062369396    7.663903074   296.0196   1  11   0.0003   0.0003   0.0008   0.0001  -0.0002  -0.0001   0.00    3.1
2018/03/20 09:52:55.000   45.062369396    7.663903074   296.0196   1  11   0.0003   0.0003   0.0008   0.0001  -0.0002  -0.0001   0.00    3.1
2018/03/20 09:52:56.000   45.062369396    7.663903074   296.0195   1  11   0.0003   0.0003   0.0008   0.0001  -0.0002  -0.0001   0.00    3.1
2018/03/20 09:52:57.000   45.062369396    7.663903074   296.0195   1  11   0.0003   0.0003   0.0008   0.0001  -0.0002  -0.0001   0.00    3.1
2018/03/20 09:52:58.000   45.062369396    7.663903074   296.0195   1  11   0.0003   0.0003   0.0008   0.0001  -0.0002  -0.0001   0.00    3.1
2018/03/20 09:52:59.000   45.062369396    7.663903074   296.0194   1  11   0.0003   0.0003   0.0008   0.0001  -0.0002  -0.0001   0.00    3.1
2018/03/20 09:53:00.000   45.062369395    7.663903074   296.0194   1  11   0.0003   0.0003   0.0008   0.0001  -0.0002  -0.0001   0.00    3.1
2018/03/20 09:53:01.000   45.062369395    7.663903074   296.0194   1  11   0.0003   0.0003   0.0008   0.0001  -0.0002  -0.0001   0.00    3.1
2018/03/20 09:53:02.000   45.062369395    7.663903073   296.0194   1  11   0.0003   0.0003   0.0008   0.0001  -0.0002  -0.0001   0.00    3.1
2018/03/20 09:53:03.000   45.062369395    7.663903073   296.0193   1  11   0.0003   0.0003   0.0008   0.0001  -0.0002  -0.0001   0.00    3.1
2018/03/20 09:53:04.000   45.062369394    7.663903073   296.0193   1  11   0.0003   0.0003   0.0008   0.0001  -0.0002  -0.0001   0.00    3.1
2018/03/20 09:53:05.000   45.062369394    7.663903073   296.0193   1  11   0.0003   0.0003   0.0008   0.0001  -0.0002  -0.0001   0.00    3.1
2018/03/20 09:53:06.000   45.062369394    7.663903073   296.0193   1  11   0.0003   0.0003   0.0008   0.0001  -0.0002  -0.0001   0.00    3.1
2018/03/20 09:53:07.000   45.062369394    7.663903073   296.0193   1  11   0.0003   0.0003   0.0008   0.0001  -0.0002  -0.0001   0.00    3.1
2018/03/20 09:53:08.000   45.062369393    7.663903073   296.0192   1  11   0.0003   0.0003   0.0008   0.0001  -0.0002  -0.0001   0.00    3.1
2018/03/20 09:53:09.000   45.062369393    7.663903073   296.0192   1  11   0.0003   0.0003   0.0008   0.0001  -0.0002  -0.0001   0.00    3.1
2018/03/20 09:53:10.000   45.062369393    7.663903072   296.0192   1  11   0.0003   0.0003   0.0008   0.0001  -0.0002  -0.0001   0.00    3.1
2018/03/20 09:53:11.000   45.062369392    7.663903072   296.0192   1  11   0.0003   0.0003   0.0008   0.0001  -0.0002  -0.0001   0.00    3.1
2018/03/20 09:53:12.000   45.062369392    7.663903072   296.0192   1  11   0.0003   0.0003   0.0008   0.0001  -0.0002  -0.0001   0.00    3.1
2018/03/20 09:53:13.000   45.062369392    7.663903072   296.0192   1  11   0.0003   0.0003   0.0008   0.0001  -0.0002  -0.0001   0.00    3.1
2018/03/20 09:53:14.000   45.062369392    7.663903072   296.0192   1  11   0.0003   0.0003   0.0008   0.0001  -0.0002  -0.0001   0.00    3.1
2018/03/20 09:53:15.000   45.062369391    7.663903072   296.0192   1  11   0.0003   0.0003   0.0008   0.0001  -0.0002  -0.0001   0.00    3.1
2018/03/20 09:53:16.000   45.062369391    7.663903072   296.0192   1  11   0.0003   0.0002   0.0008   0.0001  -0.0002  -0.0001   0.00    3.1
2018/03/20 09:53:17.000   45.062369391    7.663903071   296.0192   1  11   0.0003   0.0002   0.0008   0.0001  -0.0002  -0.0001   0.00    3.1
2018/03/20 09:53:18.000   45.062369391    7.663903071   296.0192   1  11   0.0003   0.0002   0.0008   0.0001  -0.0002  -0.0001   0.00    3.0
2018/03/20 09:53:19.000   45.062369390    7.663903071   296.0192   1  11   0.0003   0.0002   0.0008   0.0001  -0.0002  -0.0001   0.00    3.0
2018/03/20 09:53:20.000   45.062369390    7.663903071   296.0191   1  11   0.0003   0.0002   0.0008   0.0001  -0.0002  -0.0001   0.00    3.0
2018/03/20 09:53:21.000   45.062369621    7.663901954   296.0366   2  11   0.0091   0.0151   0.0145   0.0032  -0.0064  -0.0050   0.00    1.5
2018/03/20 09:53:22.000   45.062369616    7.663901933   296.0374   2  11   0.0091   0.0151   0.0145   0.0032  -0.0064  -0.0050   0.00    1.5
2018/03/20 09:53:23.000   45.062369615    7.663901915   296.0378   2  11   0.0091   0.0150   0.0144   0.0032  -0.0064  -0.0050   0.00    1.5
2018/03/20 09:53:24.000   45.062369613    7.663901899   296.0384   2  11   0.0090   0.0150   0.0144   0.0032  -0.0064  -0.0050   0.00    1.5
2018/03/20 09:53:25.000   45.062369612    7.663901884   296.0385   2  11   0.0090   0.0150   0.0143   0.0031  -0.0064  -0.0049   0.00    1.5
2018/03/20 09:53:26.000   45.062369610    7.663901868   296.0388   2  11   0.0090   0.0149   0.0142   0.0031  -0.0063  -0.0049   0.00    1.5
2018/03/20 09:53:27.000   45.062369607    7.663901854   296.0391   2  11   0.0089   0.0149   0.0142   0.0031  -0.0063  -0.0049   0.00    1.5
2018/03/20 09:53:28.000   45.062369605    7.663901834   296.0398   2  11   0.0089   0.0148   0.0141   0.0031  -0.0063  -0.0049   0.00    1.5
2018/03/20 09:53:29.000   45.062369603    7.663901821   296.0401   2  11   0.0089   0.0148   0.0141   0.0031  -0.0063  -0.0049   0.00    1.5
2018/03/20 09:53:30.000   45.062369602    7.663901808   296.0407   2  11   0.0088   0.0148   0.0140   0.0031  -0.0063  -0.0048   0.00    1.5
2018/03/20 09:53:31.000   45.062369600    7.663901792   296.0415   2  11   0.0088   0.0147   0.0140   0.0031  -0.0063  -0.0048   0.00    1.5
2018/03/20 09:53:32.000   45.062369598    7.663901779   296.0422   2  11   0.0088   0.0147   0.0139   0.0030  -0.0062  -0.0048   0.00    1.5
2018/03/20 09:53:33.000   45.062369595    7.663901768   296.0427   2  11   0.0087   0.0147   0.0139   0.0030  -0.0062  -0.0048   0.00    1.5
2018/03/20 09:53:34.000   45.062369589    7.663901754   296.0439   2  11   0.0087   0.0146   0.0138   0.0030  -0.0062  -0.0048   0.00    1.5
2018/03/20 09:53:35.000   45.062369584    7.663901739   296.0450   2  11   0.0087   0.0146   0.0138   0.0030  -0.0062  -0.0048   0.00    1.5
2018/03/20 09:53:36.000   45.062369578    7.663901722   296.0463   2  11   0.0087   0.0145   0.0137   0.0030  -0.0062  -0.0047   0.00    1.5
2018/03/20 09:53:37.000   45.062369571    7.663901709   296.0473   2  11   0.0086   0.0145   0.0137   0.0030  -0.0062  -0.0047   0.00    1.5
2018/03/20 09:53:38.000   45.062369566    7.663901698   296.0485   2  11   0.0086   0.0145   0.0136   0.0030  -0.0061  -0.0047   0.00    1.5
2018/03/20 09:53:39.000   45.062369561    7.663901683   296.0495   2  11   0.0086   0.0144   0.0136   0.0030  -0.0061  -0.0047   0.00    1.1
2018/03/20 09:53:40.000   45.062369557    7.663901669   296.0507   2  11   0.0085   0.0144   0.0135   0.0029  -0.0061  -0.0047   0.00    1.1
2018/03/20 09:53:41.000   45.062369551    7.663901652   296.0525   2  11   0.0085   0.0144   0.0135   0.0029  -0.0061  -0.0046   0.00    1.2
2018/03/20 09:53:42.000   45.062369546    7.663901640   296.0538   2  11   0.0085   0.0143   0.0134   0.0029  -0.0061  -0.0046   0.00    1.3
2018/03/20 09:53:43.000   45.062369541    7.663901625   296.0555   2  11   0.0085   0.0143   0.0134   0.0029  -0.0061  -0.0046   0.00    1.4
2018/03/20 09:53:44.000   45.062369537    7.663901616   296.0566   2  11   0.0084   0.0143   0.0133   0.0029  -0.0060  -0.0046   0.00    1.4
2018/03/20 09:53:45.000   45.062369534    7.663901605   296.0574   2  11   0.0084   0.0142   0.0133   0.0029  -0.0060  -0.0046   0.00    1.1
2018/03/20 09:53:46.000   45.062369531    7.663901592   296.0587   2  11   0.0084   0.0142   0.0133   0.0029  -0.0060  -0.0046   0.00    1.2
2018/03/20 09:53:47.000   45.062369526    7.663901575   296.0602   2  11   0.0083   0.0142   0.0132   0.0028  -0.0060  -0.0045   0.00    1.2
2018/03/20 09:53:48.000   45.062369521    7.663901559   296.0622   2  11   0.0083   0.0141   0.0132   0.0028  -0.0060  -0.0045   0.00    1.3
2018/03/20 09:53:49.000   45.062369519    7.663901545   296.0631   2  11   0.0083   0.0141   0.0131   0.0028  -0.0060  -0.0045   0.00    1.4
2018/03/20 09:53:50.000   45.062369516    7.663901529   296.0648   2  11   0.0083   0.0141   0.0131   0.0028  -0.0060  -0.0045   0.00    1.5
2018/03/20 09:53:51.000   45.062369513    7.663901514   296.0661   2  11   0.0082   0.0140   0.0130   0.0028  -0.0059  -0.0045   0.00    1.5
2018/03/20 09:53:52.000   45.062369511    7.663901500   296.0674   2  11   0.0082   0.0140   0.0130   0.0028  -0.0059  -0.0044   0.00    1.5
2018/03/20 09:53:53.000   45.062369507    7.663901480   296.0692   2  11   0.0082   0.0140   0.0129   0.0028  -0.0059  -0.0044   0.00    1.5
2018/03/20 09:53:54.000   45.062369507    7.663901462   296.0708   2  11   0.0081   0.0139   0.0129   0.0027  -0.0059  -0.0044   0.00    1.5
2018/03/20 09:53:55.000   45.062369505    7.663901448   296.0722   2  11   0.0081   0.0139   0.0129   0.0027  -0.0059  -0.0044   0.00    1.5
2018/03/20 09:53:56.000   45.062369504    7.663901435   296.0734   2  11   0.0081   0.0139   0.0128   0.0027  -0.0059  -0.0044   0.00    1.5
2018/03/20 09:53:57.000   45.062369501    7.663901423   296.0747   2  11   0.0081   0.0138   0.0128   0.0027  -0.0059  -0.0044   0.00    1.6
2018/03/20 09:53:58.000   45.062369499    7.663901408   296.0760   2  11   0.0080   0.0138   0.0127   0.0027  -0.0058  -0.0043   0.00    1.6
2018/03/20 09:53:59.000   45.062369499    7.663901398   296.0770   2  11   0.0080   0.0138   0.0127   0.0027  -0.0058  -0.0043   0.00    1.6
2018/03/20 09:54:00.000   45.062369497    7.663901387   296.0786   2  11   0.0080   0.0137   0.0126   0.0027  -0.0058  -0.0043   0.00    1.6
2018/03/20 09:54:01.000   45.062369496    7.663901376   296.0798   2  11   0.0080   0.0137   0.0126   0.0027  -0.0058  -0.0043   0.00    1.6
2018/03/20 09:54:02.000   45.062369493    7.663901367   296.0810   2  11   0.0079   0.0137   0.0126   0.0026  -0.0058  -0.0043   0.00    1.6
2018/03/20 09:54:03.000   45.062369492    7.663901358   296.0821   2  11   0.0079   0.0136   0.0125   0.0026  -0.0058  -0.0043   0.00    1.6
2018/03/20 09:54:04.000   45.062369492    7.663901346   296.0834   2  11   0.0079   0.0136   0.0125   0.0026  -0.0058  -0.0043   0.00    1.6
2018/03/20 09:54:05.000   45.062369490    7.663901335   296.0846   2  11   0.0079   0.0136   0.0124   0.0026  -0.0057  -0.0042   0.00    1.6
2018/03/20 09:54:06.000   45.062369489    7.663901325   296.0861   2  11   0.0078   0.0135   0.0124   0.0026  -0.0057  -0.0042   0.00    1.7
2018/03/20 09:54:07.000   45.062369489    7.663901318   296.0870   2  11   0.0078   0.0135   0.0124   0.0026  -0.0057  -0.0042   0.00    1.7
2018/03/20 09:54:08.000   45.062369487    7.663901310   296.0879   2  11   0.0078   0.0135   0.0123   0.0026  -0.0057  -0.0042   0.00    1.7
2018/03/20 09:54:09.000   45.062369484    7.663901302   296.0893   2  11   0.0078   0.0135   0.0123   0.0026  -0.0057  -0.0042   0.00    1.7
2018/03/20 09:54:10.000   45.062369482    7.663901297   296.0904   2  11   0.0077   0.0134   0.0122   0.0025  -0.0057  -0.0042   0.00    1.7
2018/03/20 09:54:11.000   45.062369479    7.663901291   296.0915   2  11   0.0077   0.0134   0.0122   0.0025  -0.0057  -0.0041   0.00    1.7
2018/03/20 09:54:12.000   45.062369476    7.663901283   296.0928   2  11   0.0077   0.0134   0.0122   0.0025  -0.0057  -0.0041   0.00    1.7
2018/03/20 09:54:13.000   45.062369473    7.663901273   296.0943   2  11   0.0077   0.0133   0.0121   0.0025  -0.0056  -0.0041   0.00    1.7
2018/03/20 09:54:14.000   45.062369469    7.663901269   296.0955   2  11   0.0076   0.0133   0.0121   0.0025  -0.0056  -0.0041   0.00    1.7
2018/03/20 09:54:15.000   45.062369466    7.663901260   296.0967   2  11   0.0076   0.0133   0.0120   0.0025  -0.0056  -0.0041   0.00    1.7
2018/03/20 09:54:16.000   45.062369462    7.663901254   296.0981   2  11   0.0076   0.0132   0.0120   0.0025  -0.0056  -0.0041   0.00    1.8
2018/03/20 09:54:17.000   45.062369457    7.663901245   296.0994   2  11   0.0076   0.0132   0.0120   0.0025  -0.0056  -0.0041   0.00    1.8
2018/03/20 09:54:18.000   45.062369453    7.663901241   296.1004   2  11   0.0075   0.0132   0.0119   0.0025  -0.0056  -0.0040   0.00    1.8
2018/03/20 09:54:19.000   45.062369450    7.663901232   296.1016   2  11   0.0075   0.0132   0.0119   0.0024  -0.0056  -0.0040   0.00    1.8
