% program   : RTKPOST ver.2.4.3 b33
% inp file  : C:\Users\Francesco Conforte\Documents\UNIVERSITA'\Magistrale\ICT for geomatics\Geomatics\LAB\Lab3\GNSS data\GNSS Static\Rover\1000790.18o
% inp file  : C:\Users\Francesco Conforte\Documents\UNIVERSITA'\Magistrale\ICT for geomatics\Geomatics\LAB\Lab3\GNSS data\GNSS Static\TORI\tori079j00.18o
% inp file  : C:\Users\Francesco Conforte\Documents\UNIVERSITA'\Magistrale\ICT for geomatics\Geomatics\LAB\Lab3\GNSS data\GNSS Static\Rover\*
% obs start : 2018/03/20 09:47:24.0 GPST (week1993 208044.0s)
% obs end   : 2018/03/20 11:49:18.0 GPST (week1993 215358.0s)
% pos mode  : static
% freqs     : L1+L2
% solution  : forward
% elev mask : 15.0 deg
% dynamics  : off
% tidecorr  : off
% ionos opt : broadcast
% tropo opt : saastamoinen
% ephemeris : broadcast
% amb res   : continuous
% val thres : 3.0
% antenna1  :                       ( 0.0000  0.0000  0.0000)
% antenna2  :                       ( 0.0000  0.0000  0.0000)
% ref pos   : 45.063364605    7.661277650   310.8177
%
% (lat/lon/height=WGS84/ellipsoidal,Q=1:fix,2:float,3:sbas,4:dgps,5:single,6:ppp,ns=# of satellites)
%  GPST                  latitude(deg) longitude(deg)  height(m)   Q  ns   sdn(m)   sde(m)   sdu(m)  sdne(m)  sdeu(m)  sdun(m) age(s)  ratio
2018/03/20 09:47:24.000   45.062381140    7.663906968   294.7063   2   6   0.5804   0.4253   1.6823   0.0943  -0.4684   0.4367   0.00    2.5
2018/03/20 09:47:25.000   45.062381023    7.663907176   294.7194   2   6   0.4117   0.3018   1.1933   0.0670  -0.3320   0.3091   0.00    2.6
2018/03/20 09:47:26.000   45.062380912    7.663907287   294.7141   2   6   0.3365   0.2467   0.9748   0.0549  -0.2712   0.2522   0.00    2.6
2018/03/20 09:47:27.000   45.062380820    7.663907418   294.7147   2   6   0.2915   0.2137   0.8439   0.0476  -0.2347   0.2181   0.00    2.5
2018/03/20 09:47:28.000   45.062380736    7.663907520   294.7356   2   6   0.2607   0.1912   0.7542   0.0427  -0.2098   0.1947   0.00    2.5
2018/03/20 09:47:29.000   45.062380635    7.663907618   294.7375   2   6   0.2380   0.1746   0.6877   0.0391  -0.1913   0.1774   0.00    2.6
2018/03/20 09:47:30.000   45.062380541    7.663907674   294.7542   2   6   0.2203   0.1616   0.6357   0.0363  -0.1768   0.1638   0.00    2.6
2018/03/20 09:47:31.000   45.062380441    7.663907688   294.7732   2   6   0.2060   0.1511   0.5935   0.0341  -0.1651   0.1527   0.00    2.6
2018/03/20 09:47:32.000   45.062380352    7.663907706   294.7879   2   6   0.1941   0.1425   0.5584   0.0323  -0.1553   0.1435   0.00    2.7
2018/03/20 09:47:33.000   45.062380247    7.663907692   294.7869   2   6   0.1840   0.1351   0.5285   0.0308  -0.1470   0.1357   0.00    2.7
2018/03/20 09:47:34.000   45.062380141    7.663907713   294.7887   2   6   0.1754   0.1288   0.5027   0.0295  -0.1398   0.1288   0.00    2.7
2018/03/20 09:47:35.000   45.062380013    7.663907728   294.7992   2   6   0.1678   0.1233   0.4799   0.0283  -0.1335   0.1228   0.00    2.7
2018/03/20 09:47:36.000   45.062379878    7.663907718   294.8235   2   6   0.1611   0.1184   0.4597   0.0274  -0.1279   0.1174   0.00    2.8
2018/03/20 09:47:37.000   45.062379738    7.663907704   294.8490   2   6   0.1551   0.1141   0.4415   0.0265  -0.1229   0.1126   0.00    2.8
2018/03/20 09:47:38.000   45.062379587    7.663907690   294.8762   2   6   0.1497   0.1102   0.4250   0.0257  -0.1183   0.1082   0.00    2.9
2018/03/20 09:47:39.000   45.062379453    7.663907689   294.9030   2   6   0.1448   0.1066   0.4100   0.0251  -0.1142   0.1042   0.00    2.9
2018/03/20 09:47:40.000   45.062379310    7.663907698   294.9124   2   6   0.1404   0.1034   0.3962   0.0245  -0.1103   0.1004   0.00    2.9
2018/03/20 09:47:41.000   45.062379189    7.663907687   294.9385   2   6   0.1363   0.1004   0.3835   0.0239  -0.1068   0.0970   0.00    3.0
2018/03/20 09:47:42.000   45.062379028    7.663907683   294.9540   2   6   0.1325   0.0977   0.3717   0.0234  -0.1035   0.0938   0.00    3.0
2018/03/20 09:47:43.000   45.062369448    7.663903121   296.0124   1   6   0.0013   0.0010   0.0038   0.0002  -0.0011   0.0010   0.00    3.0
2018/03/20 09:47:44.000   45.062369447    7.663903121   296.0128   1   6   0.0013   0.0009   0.0037   0.0002  -0.0010   0.0009   0.00    3.1
2018/03/20 09:47:45.000   45.062369447    7.663903120   296.0130   1   6   0.0012   0.0009   0.0036   0.0002  -0.0010   0.0009   0.00    3.1
2018/03/20 09:47:46.000   45.062369447    7.663903120   296.0132   1   6   0.0012   0.0009   0.0035   0.0002  -0.0010   0.0009   0.00    3.1
2018/03/20 09:47:47.000   45.062369447    7.663903120   296.0133   1   6   0.0012   0.0009   0.0035   0.0002  -0.0010   0.0009   0.00    3.2
2018/03/20 09:47:48.000   45.062369447    7.663903119   296.0134   1   6   0.0012   0.0009   0.0034   0.0002  -0.0009   0.0009   0.00    3.2
2018/03/20 09:47:49.000   45.062369447    7.663903118   296.0136   1   6   0.0011   0.0008   0.0033   0.0002  -0.0009   0.0009   0.00    3.3
2018/03/20 09:47:50.000   45.062369447    7.663903118   296.0137   1   6   0.0011   0.0008   0.0033   0.0002  -0.0009   0.0008   0.00    3.3
2018/03/20 09:47:51.000   45.062369446    7.663903118   296.0138   1   6   0.0011   0.0008   0.0032   0.0002  -0.0009   0.0008   0.00    3.4
2018/03/20 09:47:52.000   45.062369446    7.663903117   296.0140   1   6   0.0011   0.0008   0.0031   0.0002  -0.0009   0.0008   0.00    3.4
2018/03/20 09:47:53.000   45.062369446    7.663903117   296.0140   1   6   0.0011   0.0008   0.0031   0.0002  -0.0009   0.0008   0.00    3.5
2018/03/20 09:47:54.000   45.062369445    7.663903117   296.0139   1   6   0.0010   0.0008   0.0030   0.0002  -0.0008   0.0008   0.00    3.5
2018/03/20 09:47:55.000   45.062369445    7.663903117   296.0137   1   6   0.0010   0.0008   0.0030   0.0002  -0.0008   0.0008   0.00    3.6
2018/03/20 09:47:56.000   45.062369445    7.663903117   296.0138   1   6   0.0010   0.0007   0.0029   0.0002  -0.0008   0.0008   0.00    3.6
2018/03/20 09:47:57.000   45.062369445    7.663903116   296.0138   1   6   0.0010   0.0007   0.0029   0.0002  -0.0008   0.0007   0.00    3.7
2018/03/20 09:47:58.000   45.062369445    7.663903116   296.0137   1   6   0.0010   0.0007   0.0029   0.0002  -0.0008   0.0007   0.00    3.7
2018/03/20 09:47:59.000   45.062369444    7.663903116   296.0136   1   6   0.0010   0.0007   0.0028   0.0002  -0.0008   0.0007   0.00    3.8
2018/03/20 09:48:00.000   45.062369443    7.663903116   296.0135   1   6   0.0010   0.0007   0.0028   0.0002  -0.0008   0.0007   0.00    3.8
2018/03/20 09:48:01.000   45.062369443    7.663903116   296.0135   1   6   0.0009   0.0007   0.0027   0.0002  -0.0008   0.0007   0.00    3.9
2018/03/20 09:48:02.000   45.062369442    7.663903116   296.0134   1   6   0.0009   0.0007   0.0027   0.0002  -0.0008   0.0007   0.00    3.9
2018/03/20 09:48:03.000   45.062369442    7.663903116   296.0135   1   6   0.0009   0.0007   0.0027   0.0002  -0.0007   0.0007   0.00    4.0
2018/03/20 09:48:04.000   45.062369441    7.663903116   296.0136   1   6   0.0009   0.0007   0.0026   0.0001  -0.0007   0.0007   0.00    4.1
2018/03/20 09:48:05.000   45.062369441    7.663903115   296.0138   1   6   0.0009   0.0007   0.0026   0.0001  -0.0007   0.0007   0.00    4.1
2018/03/20 09:48:06.000   45.062369441    7.663903116   296.0138   1   6   0.0009   0.0007   0.0026   0.0001  -0.0007   0.0007   0.00    4.2
2018/03/20 09:48:07.000   45.062369441    7.663903116   296.0137   1   6   0.0009   0.0006   0.0026   0.0001  -0.0007   0.0007   0.00    4.2
2018/03/20 09:48:08.000   45.062369441    7.663903116   296.0136   1   6   0.0009   0.0006   0.0025   0.0001  -0.0007   0.0006   0.00    4.3
2018/03/20 09:48:09.000   45.062369441    7.663903116   296.0136   1   6   0.0009   0.0006   0.0025   0.0001  -0.0007   0.0006   0.00    4.4
2018/03/20 09:48:10.000   45.062369441    7.663903116   296.0136   1   6   0.0009   0.0006   0.0025   0.0001  -0.0007   0.0006   0.00    4.5
2018/03/20 09:48:11.000   45.062369441    7.663903116   296.0135   1   6   0.0008   0.0006   0.0024   0.0001  -0.0007   0.0006   0.00    4.6
2018/03/20 09:48:12.000   45.062369441    7.663903116   296.0134   1   6   0.0008   0.0006   0.0024   0.0001  -0.0007   0.0006   0.00    4.6
2018/03/20 09:48:13.000   45.062369440    7.663903116   296.0134   1   6   0.0008   0.0006   0.0024   0.0001  -0.0007   0.0006   0.00    4.7
2018/03/20 09:48:14.000   45.062369441    7.663903116   296.0136   1   6   0.0008   0.0006   0.0024   0.0001  -0.0007   0.0006   0.00    4.8
2018/03/20 09:48:15.000   45.062369440    7.663903115   296.0136   1   6   0.0008   0.0006   0.0023   0.0001  -0.0007   0.0006   0.00    4.9
2018/03/20 09:48:16.000   45.062369441    7.663903115   296.0137   1   6   0.0008   0.0006   0.0023   0.0001  -0.0006   0.0006   0.00    5.0
2018/03/20 09:48:17.000   45.062369441    7.663903114   296.0136   1   6   0.0008   0.0006   0.0023   0.0001  -0.0006   0.0006   0.00    5.1
2018/03/20 09:48:18.000   45.062369441    7.663903115   296.0136   1   6   0.0008   0.0006   0.0023   0.0001  -0.0006   0.0006   0.00    5.2
2018/03/20 09:48:19.000   45.062369441    7.663903114   296.0137   1   6   0.0008   0.0006   0.0023   0.0001  -0.0006   0.0006   0.00    5.3
2018/03/20 09:48:20.000   45.062369441    7.663903114   296.0138   1   6   0.0008   0.0006   0.0022   0.0001  -0.0006   0.0006   0.00    5.4
2018/03/20 09:48:21.000   45.062369441    7.663903113   296.0138   1   6   0.0008   0.0006   0.0022   0.0001  -0.0006   0.0006   0.00    5.4
2018/03/20 09:48:22.000   45.062369441    7.663903113   296.0137   1   6   0.0008   0.0006   0.0022   0.0001  -0.0006   0.0006   0.00    5.5
2018/03/20 09:48:23.000   45.062369440    7.663903113   296.0138   1   6   0.0008   0.0006   0.0022   0.0001  -0.0006   0.0006   0.00    5.6
2018/03/20 09:48:24.000   45.062369440    7.663903112   296.0139   1   6   0.0008   0.0006   0.0022   0.0001  -0.0006   0.0006   0.00    5.7
2018/03/20 09:48:25.000   45.062369440    7.663903112   296.0139   1   6   0.0007   0.0005   0.0022   0.0001  -0.0006   0.0005   0.00    5.7
2018/03/20 09:48:26.000   45.062369440    7.663903112   296.0140   1   6   0.0007   0.0005   0.0021   0.0001  -0.0006   0.0005   0.00    5.8
2018/03/20 09:48:27.000   45.062369440    7.663903112   296.0140   1   6   0.0007   0.0005   0.0021   0.0001  -0.0006   0.0005   0.00    5.9
2018/03/20 09:48:28.000   45.062369439    7.663903111   296.0141   1   6   0.0007   0.0005   0.0021   0.0001  -0.0006   0.0005   0.00    6.0
2018/03/20 09:48:29.000   45.062369439    7.663903111   296.0142   1   6   0.0007   0.0005   0.0021   0.0001  -0.0006   0.0005   0.00    6.1
2018/03/20 09:48:30.000   45.062369439    7.663903111   296.0142   1   6   0.0007   0.0005   0.0021   0.0001  -0.0006   0.0005   0.00    6.2
2018/03/20 09:48:31.000   45.062369438    7.663903111   296.0142   1   6   0.0007   0.0005   0.0021   0.0001  -0.0006   0.0005   0.00    6.3
2018/03/20 09:48:32.000   45.062369438    7.663903110   296.0143   1   6   0.0007   0.0005   0.0020   0.0001  -0.0006   0.0005   0.00    6.4
2018/03/20 09:48:33.000   45.062369438    7.663903110   296.0142   1   6   0.0007   0.0005   0.0020   0.0001  -0.0006   0.0005   0.00    6.5
2018/03/20 09:48:34.000   45.062369438    7.663903110   296.0142   1   6   0.0007   0.0005   0.0020   0.0001  -0.0006   0.0005   0.00    6.6
2018/03/20 09:48:35.000   45.062369437    7.663903110   296.0141   1   6   0.0007   0.0005   0.0020   0.0001  -0.0006   0.0005   0.00    6.7
2018/03/20 09:48:36.000   45.062369437    7.663903110   296.0141   1   6   0.0007   0.0005   0.0020   0.0001  -0.0006   0.0005   0.00    6.8
2018/03/20 09:48:37.000   45.062369437    7.663903110   296.0140   1   6   0.0007   0.0005   0.0020   0.0001  -0.0005   0.0005   0.00    6.8
2018/03/20 09:48:38.000   45.062369437    7.663903109   296.0139   1   6   0.0007   0.0005   0.0020   0.0001  -0.0005   0.0005   0.00    6.9
2018/03/20 09:48:39.000   45.062369436    7.663903109   296.0139   1   6   0.0007   0.0005   0.0019   0.0001  -0.0005   0.0005   0.00    6.9
2018/03/20 09:48:40.000   45.062369436    7.663903109   296.0139   1   6   0.0007   0.0005   0.0019   0.0001  -0.0005   0.0005   0.00    7.0
2018/03/20 09:48:41.000   45.062369435    7.663903109   296.0139   1   6   0.0007   0.0005   0.0019   0.0001  -0.0005   0.0005   0.00    7.1
2018/03/20 09:48:42.000   45.062369435    7.663903109   296.0139   1   6   0.0007   0.0005   0.0019   0.0001  -0.0005   0.0005   0.00    7.1
2018/03/20 09:48:43.000   45.062369435    7.663903108   296.0139   1   6   0.0007   0.0005   0.0019   0.0001  -0.0005   0.0005   0.00    7.2
2018/03/20 09:48:44.000   45.062369434    7.663903108   296.0140   1   6   0.0007   0.0005   0.0019   0.0001  -0.0005   0.0005   0.00    7.3
2018/03/20 09:48:45.000   45.062369434    7.663903108   296.0140   1   6   0.0007   0.0005   0.0019   0.0001  -0.0005   0.0005   0.00    7.3
2018/03/20 09:48:46.000   45.062369433    7.663903108   296.0140   1   6   0.0006   0.0005   0.0019   0.0001  -0.0005   0.0005   0.00    7.4
2018/03/20 09:48:47.000   45.062369433    7.663903107   296.0140   1   6   0.0006   0.0005   0.0019   0.0001  -0.0005   0.0005   0.00    7.4
2018/03/20 09:48:48.000   45.062369433    7.663903107   296.0140   1   6   0.0006   0.0005   0.0018   0.0001  -0.0005   0.0005   0.00    7.5
2018/03/20 09:48:49.000   45.062369433    7.663903107   296.0140   1   6   0.0006   0.0005   0.0018   0.0001  -0.0005   0.0005   0.00    7.6
2018/03/20 09:48:50.000   45.062369432    7.663903107   296.0140   1   6   0.0006   0.0005   0.0018   0.0001  -0.0005   0.0005   0.00    7.6
2018/03/20 09:48:51.000   45.062369432    7.663903107   296.0141   1   6   0.0006   0.0005   0.0018   0.0001  -0.0005   0.0005   0.00    7.7
2018/03/20 09:48:52.000   45.062369432    7.663903107   296.0141   1   6   0.0006   0.0005   0.0018   0.0001  -0.0005   0.0005   0.00    7.7
2018/03/20 09:48:53.000   45.062369431    7.663903107   296.0141   1   6   0.0006   0.0005   0.0018   0.0001  -0.0005   0.0005   0.00    7.7
2018/03/20 09:48:54.000   45.062369431    7.663903107   296.0141   1   6   0.0006   0.0005   0.0018   0.0001  -0.0005   0.0004   0.00    7.7
2018/03/20 09:48:55.000   45.062369431    7.663903107   296.0141   1   6   0.0006   0.0005   0.0018   0.0001  -0.0005   0.0004   0.00    7.7
2018/03/20 09:48:56.000   45.062369430    7.663903107   296.0141   1   6   0.0006   0.0004   0.0018   0.0001  -0.0005   0.0004   0.00    7.7
2018/03/20 09:48:57.000   45.062369430    7.663903107   296.0141   1   6   0.0006   0.0004   0.0018   0.0001  -0.0005   0.0004   0.00    7.7
2018/03/20 09:48:58.000   45.062369430    7.663903107   296.0141   1   6   0.0006   0.0004   0.0017   0.0001  -0.0005   0.0004   0.00    7.7
2018/03/20 09:48:59.000   45.062369430    7.663903107   296.0142   1   6   0.0006   0.0004   0.0017   0.0001  -0.0005   0.0004   0.00    7.7
2018/03/20 09:49:00.000   45.062369429    7.663903107   296.0142   1   6   0.0006   0.0004   0.0017   0.0001  -0.0005   0.0004   0.00    7.7
2018/03/20 09:49:01.000   45.062369429    7.663903107   296.0142   1   6   0.0006   0.0004   0.0017   0.0001  -0.0005   0.0004   0.00    7.7
2018/03/20 09:49:02.000   45.062369429    7.663903107   296.0143   1   6   0.0006   0.0004   0.0017   0.0001  -0.0005   0.0004   0.00    7.8
2018/03/20 09:49:03.000   45.062369428    7.663903107   296.0143   1   6   0.0006   0.0004   0.0017   0.0001  -0.0005   0.0004   0.00    7.8
2018/03/20 09:49:04.000   45.062369428    7.663903106   296.0143   1   6   0.0006   0.0004   0.0017   0.0001  -0.0005   0.0004   0.00    7.8
2018/03/20 09:49:05.000   45.062369428    7.663903106   296.0143   1   6   0.0006   0.0004   0.0017   0.0001  -0.0005   0.0004   0.00    7.8
2018/03/20 09:49:06.000   45.062369427    7.663903106   296.0144   1   6   0.0006   0.0004   0.0017   0.0001  -0.0005   0.0004   0.00    7.7
2018/03/20 09:49:07.000   45.062369427    7.663903106   296.0145   1   6   0.0006   0.0004   0.0017   0.0001  -0.0005   0.0004   0.00    7.7
2018/03/20 09:49:08.000   45.062369427    7.663903106   296.0145   1   6   0.0006   0.0004   0.0017   0.0001  -0.0005   0.0004   0.00    7.7
2018/03/20 09:49:09.000   45.062369427    7.663903106   296.0145   1   6   0.0006   0.0004   0.0017   0.0001  -0.0005   0.0004   0.00    7.7
2018/03/20 09:49:10.000   45.062369427    7.663903105   296.0145   1   6   0.0006   0.0004   0.0017   0.0001  -0.0005   0.0004   0.00    7.7
2018/03/20 09:49:11.000   45.062369426    7.663903105   296.0146   1   6   0.0006   0.0004   0.0016   0.0001  -0.0005   0.0004   0.00    7.6
2018/03/20 09:49:12.000   45.062369426    7.663903105   296.0147   1   6   0.0006   0.0004   0.0016   0.0001  -0.0005   0.0004   0.00    7.6
2018/03/20 09:49:13.000   45.062369426    7.663903104   296.0147   1   6   0.0006   0.0004   0.0016   0.0001  -0.0005   0.0004   0.00    7.6
2018/03/20 09:49:14.000   45.062369425    7.663903104   296.0148   1   6   0.0006   0.0004   0.0016   0.0001  -0.0004   0.0004   0.00    7.5
2018/03/20 09:49:15.000   45.062369425    7.663903104   296.0148   1   6   0.0006   0.0004   0.0016   0.0001  -0.0004   0.0004   0.00    7.5
2018/03/20 09:49:16.000   45.062369425    7.663903104   296.0149   1   6   0.0006   0.0004   0.0016   0.0001  -0.0004   0.0004   0.00    7.5
2018/03/20 09:49:17.000   45.062369424    7.663903104   296.0149   1   6   0.0006   0.0004   0.0016   0.0001  -0.0004   0.0004   0.00    7.5
2018/03/20 09:49:18.000   45.062369424    7.663903103   296.0150   1   6   0.0006   0.0004   0.0016   0.0001  -0.0004   0.0004   0.00    7.5
2018/03/20 09:49:19.000   45.062369424    7.663903103   296.0150   1   6   0.0006   0.0004   0.0016   0.0001  -0.0004   0.0004   0.00    7.4
2018/03/20 09:49:20.000   45.062369423    7.663903103   296.0151   1   6   0.0005   0.0004   0.0016   0.0001  -0.0004   0.0004   0.00    7.4
2018/03/20 09:49:21.000   45.062369423    7.663903102   296.0151   1   6   0.0005   0.0004   0.0016   0.0001  -0.0004   0.0004   0.00    7.4
2018/03/20 09:49:22.000   45.062369423    7.663903102   296.0152   1   6   0.0005   0.0004   0.0016   0.0001  -0.0004   0.0004   0.00    7.3
2018/03/20 09:49:23.000   45.062369422    7.663903102   296.0152   1   6   0.0005   0.0004   0.0016   0.0001  -0.0004   0.0004   0.00    7.3
2018/03/20 09:49:24.000   45.062369422    7.663903102   296.0154   1   6   0.0005   0.0004   0.0016   0.0001  -0.0004   0.0004   0.00    7.3
2018/03/20 09:49:25.000   45.062369422    7.663903101   296.0155   1   6   0.0005   0.0004   0.0016   0.0001  -0.0004   0.0004   0.00    7.3
2018/03/20 09:49:26.000   45.062369422    7.663903101   296.0156   1   6   0.0005   0.0004   0.0015   0.0001  -0.0004   0.0004   0.00    7.3
2018/03/20 09:49:27.000   45.062369421    7.663903101   296.0158   1   6   0.0005   0.0004   0.0015   0.0001  -0.0004   0.0004   0.00    7.3
2018/03/20 09:49:28.000   45.062369421    7.663903101   296.0159   1   6   0.0005   0.0004   0.0015   0.0001  -0.0004   0.0004   0.00    7.3
2018/03/20 09:49:29.000   45.062369421    7.663903100   296.0161   1   6   0.0005   0.0004   0.0015   0.0001  -0.0004   0.0004   0.00    7.3
2018/03/20 09:49:30.000   45.062369421    7.663903099   296.0162   1   6   0.0005   0.0004   0.0015   0.0001  -0.0004   0.0004   0.00    7.3
2018/03/20 09:49:31.000   45.062369420    7.663903099   296.0164   1   6   0.0005   0.0004   0.0015   0.0001  -0.0004   0.0004   0.00    7.3
2018/03/20 09:49:32.000   45.062369420    7.663903099   296.0165   1   6   0.0005   0.0004   0.0015   0.0001  -0.0004   0.0004   0.00    7.3
2018/03/20 09:49:33.000   45.062369420    7.663903098   296.0166   1   6   0.0005   0.0004   0.0015   0.0001  -0.0004   0.0004   0.00    7.3
2018/03/20 09:49:34.000   45.062369419    7.663903098   296.0168   1   6   0.0005   0.0004   0.0015   0.0001  -0.0004   0.0004   0.00    7.3
2018/03/20 09:49:35.000   45.062369419    7.663903097   296.0169   1   6   0.0005   0.0004   0.0015   0.0001  -0.0004   0.0004   0.00    7.3
2018/03/20 09:49:36.000   45.062369419    7.663903097   296.0170   1   6   0.0005   0.0004   0.0015   0.0001  -0.0004   0.0004   0.00    7.3
2018/03/20 09:49:37.000   45.062369419    7.663903097   296.0171   1   6   0.0005   0.0004   0.0015   0.0001  -0.0004   0.0004   0.00    7.2
2018/03/20 09:49:38.000   45.062369419    7.663903097   296.0172   1   6   0.0005   0.0004   0.0015   0.0001  -0.0004   0.0004   0.00    7.2
2018/03/20 09:49:39.000   45.062369418    7.663903096   296.0173   1   6   0.0005   0.0004   0.0015   0.0001  -0.0004   0.0004   0.00    7.2
2018/03/20 09:49:40.000   45.062369419    7.663903096   296.0174   1   6   0.0005   0.0004   0.0015   0.0001  -0.0004   0.0004   0.00    7.1
2018/03/20 09:49:41.000   45.062369418    7.663903095   296.0175   1   6   0.0005   0.0004   0.0015   0.0001  -0.0004   0.0004   0.00    7.1
2018/03/20 09:49:42.000   45.062369418    7.663903095   296.0176   1   6   0.0005   0.0004   0.0015   0.0001  -0.0004   0.0004   0.00    7.1
2018/03/20 09:49:43.000   45.062369418    7.663903094   296.0176   1   6   0.0005   0.0004   0.0015   0.0001  -0.0004   0.0004   0.00    7.1
2018/03/20 09:49:44.000   45.062369418    7.663903094   296.0177   1   6   0.0005   0.0004   0.0015   0.0001  -0.0004   0.0004   0.00    7.1
2018/03/20 09:49:45.000   45.062369417    7.663903093   296.0178   1   6   0.0005   0.0004   0.0014   0.0001  -0.0004   0.0004   0.00    7.1
2018/03/20 09:49:46.000   45.062369417    7.663903093   296.0179   1   6   0.0005   0.0004   0.0014   0.0001  -0.0004   0.0004   0.00    7.1
2018/03/20 09:49:47.000   45.062369418    7.663903093   296.0179   1   6   0.0005   0.0004   0.0014   0.0001  -0.0004   0.0004   0.00    7.1
2018/03/20 09:49:48.000   45.062369417    7.663903092   296.0180   1   6   0.0005   0.0004   0.0014   0.0001  -0.0004   0.0004   0.00    7.1
2018/03/20 09:49:49.000   45.062369417    7.663903092   296.0181   1   6   0.0005   0.0004   0.0014   0.0001  -0.0004   0.0004   0.00    7.1
2018/03/20 09:49:50.000   45.062369417    7.663903092   296.0182   1   6   0.0005   0.0004   0.0014   0.0001  -0.0004   0.0004   0.00    7.1
2018/03/20 09:49:51.000   45.062369417    7.663903092   296.0183   1   6   0.0005   0.0004   0.0014   0.0001  -0.0004   0.0004   0.00    7.1
2018/03/20 09:49:52.000   45.062369417    7.663903091   296.0184   1   6   0.0005   0.0004   0.0014   0.0001  -0.0004   0.0004   0.00    7.1
2018/03/20 09:49:53.000   45.062369417    7.663903091   296.0184   1   6   0.0005   0.0004   0.0014   0.0001  -0.0004   0.0004   0.00    7.1
2018/03/20 09:49:54.000   45.062369417    7.663903091   296.0185   1   6   0.0005   0.0004   0.0014   0.0001  -0.0004   0.0003   0.00    7.2
2018/03/20 09:49:55.000   45.062369417    7.663903091   296.0186   1   6   0.0005   0.0004   0.0014   0.0001  -0.0004   0.0003   0.00    7.2
2018/03/20 09:49:56.000   45.062369417    7.663903090   296.0186   1   6   0.0005   0.0004   0.0014   0.0001  -0.0004   0.0003   0.00    7.2
2018/03/20 09:49:57.000   45.062369416    7.663903090   296.0187   1   6   0.0005   0.0004   0.0014   0.0001  -0.0004   0.0003   0.00    7.2
2018/03/20 09:49:58.000   45.062369416    7.663903090   296.0188   1   6   0.0005   0.0004   0.0014   0.0001  -0.0004   0.0003   0.00    7.2
2018/03/20 09:49:59.000   45.062369416    7.663903090   296.0189   1   6   0.0005   0.0004   0.0014   0.0001  -0.0004   0.0003   0.00    7.3
2018/03/20 09:50:00.000   45.062369416    7.663903089   296.0189   1   6   0.0005   0.0004   0.0014   0.0001  -0.0004   0.0003   0.00    7.3
2018/03/20 09:50:01.000   45.062369416    7.663903089   296.0190   1   6   0.0005   0.0004   0.0014   0.0001  -0.0004   0.0003   0.00    7.3
2018/03/20 09:50:02.000   45.062369415    7.663903089   296.0191   1   6   0.0005   0.0004   0.0014   0.0001  -0.0004   0.0003   0.00    7.3
2018/03/20 09:50:03.000   45.062369415    7.663903088   296.0192   1   6   0.0005   0.0003   0.0014   0.0001  -0.0004   0.0003   0.00    7.4
2018/03/20 09:50:04.000   45.062369415    7.663903088   296.0192   1   6   0.0005   0.0003   0.0014   0.0001  -0.0004   0.0003   0.00    7.4
2018/03/20 09:50:05.000   45.062369415    7.663903088   296.0193   1   6   0.0005   0.0003   0.0014   0.0001  -0.0004   0.0003   0.00    7.3
2018/03/20 09:50:06.000   45.062369415    7.663903088   296.0194   1   6   0.0005   0.0003   0.0014   0.0001  -0.0004   0.0003   0.00    7.3
2018/03/20 09:50:07.000   45.062369414    7.663903087   296.0194   1   6   0.0005   0.0003   0.0014   0.0001  -0.0004   0.0003   0.00    7.4
2018/03/20 09:50:08.000   45.062369414    7.663903087   296.0195   1   6   0.0005   0.0003   0.0014   0.0001  -0.0004   0.0003   0.00    7.4
2018/03/20 09:50:09.000   45.062369414    7.663903087   296.0195   1   6   0.0005   0.0003   0.0014   0.0001  -0.0004   0.0003   0.00    7.4
2018/03/20 09:50:10.000   45.062369414    7.663903087   296.0196   1   6   0.0005   0.0003   0.0013   0.0001  -0.0004   0.0003   0.00    7.4
2018/03/20 09:50:11.000   45.062369414    7.663903086   296.0197   1   6   0.0005   0.0003   0.0013   0.0001  -0.0004   0.0003   0.00    7.4
2018/03/20 09:50:12.000   45.062369413    7.663903086   296.0198   1   6   0.0005   0.0003   0.0013   0.0001  -0.0004   0.0003   0.00    7.4
2018/03/20 09:50:13.000   45.062369413    7.663903085   296.0199   1   6   0.0005   0.0003   0.0013   0.0001  -0.0004   0.0003   0.00    7.4
2018/03/20 09:50:14.000   45.062369413    7.663903085   296.0199   1   6   0.0005   0.0003   0.0013   0.0001  -0.0004   0.0003   0.00    7.4
2018/03/20 09:50:15.000   45.062369413    7.663903085   296.0200   1   6   0.0005   0.0003   0.0013   0.0001  -0.0004   0.0003   0.00    7.4
2018/03/20 09:50:16.000   45.062369413    7.663903084   296.0201   1   6   0.0005   0.0003   0.0013   0.0001  -0.0004   0.0003   0.00    7.4
2018/03/20 09:50:17.000   45.062369412    7.663903084   296.0202   1   6   0.0005   0.0003   0.0013   0.0001  -0.0004   0.0003   0.00    7.4
2018/03/20 09:50:18.000   45.062369412    7.663903084   296.0202   1   6   0.0005   0.0003   0.0013   0.0001  -0.0004   0.0003   0.00    7.4
2018/03/20 09:50:19.000   45.062369412    7.663903083   296.0203   1   6   0.0005   0.0003   0.0013   0.0001  -0.0004   0.0003   0.00    7.3
2018/03/20 09:50:20.000   45.062369412    7.663903083   296.0204   1   6   0.0005   0.0003   0.0013   0.0001  -0.0004   0.0003   0.00    7.3
2018/03/20 09:50:21.000   45.062369411    7.663903082   296.0206   1   6   0.0005   0.0003   0.0013   0.0001  -0.0004   0.0003   0.00    7.3
2018/03/20 09:50:22.000   45.062369411    7.663903082   296.0207   1   6   0.0005   0.0003   0.0013   0.0001  -0.0004   0.0003   0.00    7.3
2018/03/20 09:50:23.000   45.062369411    7.663903082   296.0208   1   6   0.0005   0.0003   0.0013   0.0001  -0.0004   0.0003   0.00    7.3
2018/03/20 09:50:24.000   45.062369411    7.663903081   296.0209   1   6   0.0005   0.0003   0.0013   0.0001  -0.0004   0.0003   0.00    7.3
2018/03/20 09:50:25.000   45.062369411    7.663903081   296.0209   1   6   0.0005   0.0003   0.0013   0.0001  -0.0004   0.0003   0.00    7.3
2018/03/20 09:50:26.000   45.062369410    7.663903081   296.0210   1   6   0.0005   0.0003   0.0013   0.0001  -0.0004   0.0003   0.00    7.3
2018/03/20 09:50:27.000   45.062369410    7.663903080   296.0211   1   6   0.0004   0.0003   0.0013   0.0001  -0.0004   0.0003   0.00    7.3
2018/03/20 09:50:28.000   45.062369410    7.663903080   296.0212   1   6   0.0004   0.0003   0.0013   0.0001  -0.0004   0.0003   0.00    7.3
2018/03/20 09:50:29.000   45.062369410    7.663903080   296.0213   1   6   0.0004   0.0003   0.0013   0.0001  -0.0004   0.0003   0.00    7.3
2018/03/20 09:50:30.000   45.062369409    7.663903079   296.0213   1   6   0.0004   0.0003   0.0013   0.0001  -0.0004   0.0003   0.00    7.3
2018/03/20 09:50:31.000   45.062369409    7.663903079   296.0214   1   6   0.0004   0.0003   0.0013   0.0001  -0.0004   0.0003   0.00    7.2
2018/03/20 09:50:32.000   45.062369409    7.663903078   296.0215   1   6   0.0004   0.0003   0.0013   0.0001  -0.0004   0.0003   0.00    7.2
2018/03/20 09:50:33.000   45.062369409    7.663903078   296.0216   1   6   0.0004   0.0003   0.0013   0.0001  -0.0004   0.0003   0.00    7.2
2018/03/20 09:50:34.000   45.062369408    7.663903078   296.0217   1   6   0.0004   0.0003   0.0013   0.0001  -0.0004   0.0003   0.00    7.2
2018/03/20 09:50:35.000   45.062369408    7.663903077   296.0218   1   6   0.0004   0.0003   0.0013   0.0001  -0.0004   0.0003   0.00    7.2
2018/03/20 09:50:36.000   45.062369408    7.663903077   296.0218   1   6   0.0004   0.0003   0.0013   0.0001  -0.0003   0.0003   0.00    7.2
2018/03/20 09:50:37.000   45.062369407    7.663903077   296.0219   1   6   0.0004   0.0003   0.0013   0.0001  -0.0003   0.0003   0.00    7.2
2018/03/20 09:50:38.000   45.062369407    7.663903077   296.0220   1   6   0.0004   0.0003   0.0013   0.0001  -0.0003   0.0003   0.00    7.3
2018/03/20 09:50:39.000   45.062369407    7.663903076   296.0220   1   6   0.0004   0.0003   0.0013   0.0001  -0.0003   0.0003   0.00    7.3
2018/03/20 09:50:40.000   45.062369406    7.663903076   296.0221   1   6   0.0004   0.0003   0.0013   0.0001  -0.0003   0.0003   0.00    7.3
2018/03/20 09:50:41.000   45.062369406    7.663903076   296.0222   1   6   0.0004   0.0003   0.0013   0.0001  -0.0003   0.0003   0.00    7.3
2018/03/20 09:50:42.000   45.062369406    7.663903075   296.0223   1   6   0.0004   0.0003   0.0013   0.0001  -0.0003   0.0003   0.00    7.3
2018/03/20 09:50:43.000   45.062369405    7.663903075   296.0223   1   6   0.0004   0.0003   0.0012   0.0001  -0.0003   0.0003   0.00    7.3
2018/03/20 09:50:44.000   45.062369405    7.663903075   296.0224   1   6   0.0004   0.0003   0.0012   0.0001  -0.0003   0.0003   0.00    7.3
2018/03/20 09:50:45.000   45.062369404    7.663903075   296.0224   1   6   0.0004   0.0003   0.0012   0.0001  -0.0003   0.0003   0.00    7.3
2018/03/20 09:50:46.000   45.062369404    7.663903074   296.0225   1   6   0.0004   0.0003   0.0012   0.0001  -0.0003   0.0003   0.00    7.3
2018/03/20 09:50:47.000   45.062369404    7.663903074   296.0225   1   6   0.0004   0.0003   0.0012   0.0001  -0.0003   0.0003   0.00    7.3
2018/03/20 09:50:48.000   45.062369404    7.663903074   296.0226   1   6   0.0004   0.0003   0.0012   0.0001  -0.0003   0.0003   0.00    7.3
2018/03/20 09:50:49.000   45.062369403    7.663903074   296.0227   1   6   0.0004   0.0003   0.0012   0.0001  -0.0003   0.0003   0.00    7.3
2018/03/20 09:50:50.000   45.062369403    7.663903074   296.0227   1   6   0.0004   0.0003   0.0012   0.0001  -0.0003   0.0003   0.00    7.3
2018/03/20 09:50:51.000   45.062369403    7.663903073   296.0228   1   6   0.0004   0.0003   0.0012   0.0001  -0.0003   0.0003   0.00    7.3
2018/03/20 09:50:52.000   45.062369403    7.663903073   296.0228   1   6   0.0004   0.0003   0.0012   0.0001  -0.0003   0.0003   0.00    7.3
2018/03/20 09:50:53.000   45.062369402    7.663903073   296.0228   1   6   0.0004   0.0003   0.0012   0.0001  -0.0003   0.0003   0.00    7.3
2018/03/20 09:50:54.000   45.062369402    7.663903073   296.0228   1   6   0.0004   0.0003   0.0012   0.0001  -0.0003   0.0003   0.00    7.3
2018/03/20 09:50:55.000   45.062369402    7.663903073   296.0228   1   6   0.0004   0.0003   0.0012   0.0001  -0.0003   0.0003   0.00    7.3
2018/03/20 09:50:56.000   45.062369402    7.663903073   296.0228   1   6   0.0004   0.0003   0.0012   0.0001  -0.0003   0.0003   0.00    7.3
2018/03/20 09:50:57.000   45.062369401    7.663903072   296.0228   1   6   0.0004   0.0003   0.0012   0.0001  -0.0003   0.0003   0.00    7.4
2018/03/20 09:50:58.000   45.062369401    7.663903072   296.0229   1   6   0.0004   0.0003   0.0012   0.0001  -0.0003   0.0003   0.00    7.4
2018/03/20 09:50:59.000   45.062369401    7.663903072   296.0229   1   6   0.0004   0.0003   0.0012   0.0001  -0.0003   0.0003   0.00    7.4
2018/03/20 09:51:00.000   45.062369401    7.663903072   296.0229   1   6   0.0004   0.0003   0.0012   0.0001  -0.0003   0.0003   0.00    7.5
2018/03/20 09:51:01.000   45.062369400    7.663903072   296.0229   1   6   0.0004   0.0003   0.0012   0.0001  -0.0003   0.0003   0.00    7.5
2018/03/20 09:51:02.000   45.062369400    7.663903071   296.0228   1   6   0.0004   0.0003   0.0012   0.0001  -0.0003   0.0003   0.00    7.5
2018/03/20 09:51:03.000   45.062369400    7.663903071   296.0228   1   6   0.0004   0.0003   0.0012   0.0001  -0.0003   0.0003   0.00    7.6
2018/03/20 09:51:04.000   45.062369400    7.663903071   296.0228   1   6   0.0004   0.0003   0.0012   0.0001  -0.0003   0.0003   0.00    7.6
2018/03/20 09:51:05.000   45.062369400    7.663903071   296.0228   1   6   0.0004   0.0003   0.0012   0.0001  -0.0003   0.0003   0.00    7.6
2018/03/20 09:51:06.000   45.062369399    7.663903070   296.0228   1   6   0.0004   0.0003   0.0012   0.0001  -0.0003   0.0003   0.00    7.7
2018/03/20 09:51:07.000   45.062369399    7.663903070   296.0227   1   6   0.0004   0.0003   0.0012   0.0001  -0.0003   0.0003   0.00    7.7
2018/03/20 09:51:08.000   45.062369399    7.663903070   296.0227   1   6   0.0004   0.0003   0.0012   0.0001  -0.0003   0.0003   0.00    7.7
2018/03/20 09:51:09.000   45.062369399    7.663903070   296.0227   1   6   0.0004   0.0003   0.0012   0.0001  -0.0003   0.0003   0.00    7.8
2018/03/20 09:51:10.000   45.062369399    7.663903070   296.0226   1   6   0.0004   0.0003   0.0012   0.0001  -0.0003   0.0003   0.00    7.8
2018/03/20 09:51:11.000   45.062369399    7.663903070   296.0226   1   6   0.0004   0.0003   0.0012   0.0001  -0.0003   0.0003   0.00    7.8
2018/03/20 09:51:12.000   45.062369398    7.663903070   296.0225   1   6   0.0004   0.0003   0.0012   0.0001  -0.0003   0.0003   0.00    7.9
2018/03/20 09:51:13.000   45.062369398    7.663903070   296.0224   1   6   0.0004   0.0003   0.0012   0.0001  -0.0003   0.0003   0.00    7.9
2018/03/20 09:51:14.000   45.062369398    7.663903069   296.0223   1   6   0.0004   0.0003   0.0012   0.0001  -0.0003   0.0003   0.00    8.0
2018/03/20 09:51:15.000   45.062369398    7.663903069   296.0223   1   6   0.0004   0.0003   0.0012   0.0001  -0.0003   0.0003   0.00    8.0
2018/03/20 09:51:16.000   45.062369398    7.663903069   296.0222   1   6   0.0004   0.0003   0.0012   0.0001  -0.0003   0.0003   0.00    8.0
2018/03/20 09:51:17.000   45.062369398    7.663903069   296.0221   1   6   0.0004   0.0003   0.0012   0.0001  -0.0003   0.0003   0.00    8.1
2018/03/20 09:51:18.000   45.062369398    7.663903069   296.0221   1   6   0.0004   0.0003   0.0012   0.0001  -0.0003   0.0003   0.00    8.1
2018/03/20 09:51:19.000   45.062369397    7.663903069   296.0220   1   6   0.0004   0.0003   0.0012   0.0001  -0.0003   0.0003   0.00    8.1
2018/03/20 09:51:20.000   45.062369397    7.663903069   296.0220   1   6   0.0004   0.0003   0.0012   0.0001  -0.0003   0.0003   0.00    8.2
2018/03/20 09:51:21.000   45.062369397    7.663903069   296.0219   1   6   0.0004   0.0003   0.0012   0.0001  -0.0003   0.0003   0.00    8.2
2018/03/20 09:51:22.000   45.062369397    7.663903068   296.0218   1   6   0.0004   0.0003   0.0012   0.0001  -0.0003   0.0003   0.00    8.3
2018/03/20 09:51:23.000   45.062369397    7.663903068   296.0218   1   6   0.0004   0.0003   0.0012   0.0001  -0.0003   0.0003   0.00    8.3
2018/03/20 09:51:24.000   45.062369397    7.663903068   296.0217   1   6   0.0004   0.0003   0.0012   0.0001  -0.0003   0.0003   0.00    8.3
2018/03/20 09:51:25.000   45.062369397    7.663903068   296.0216   1   6   0.0004   0.0003   0.0012   0.0001  -0.0003   0.0003   0.00    8.4
2018/03/20 09:51:26.000   45.062369396    7.663903068   296.0216   1   6   0.0004   0.0003   0.0012   0.0001  -0.0003   0.0003   0.00    8.4
2018/03/20 09:51:27.000   45.062369396    7.663903068   296.0215   1   6   0.0004   0.0003   0.0012   0.0001  -0.0003   0.0003   0.00    8.5
2018/03/20 09:51:28.000   45.062369396    7.663903068   296.0215   1   6   0.0004   0.0003   0.0012   0.0001  -0.0003   0.0003   0.00    8.5
2018/03/20 09:51:29.000   45.062369396    7.663903067   296.0215   1   6   0.0004   0.0003   0.0012   0.0001  -0.0003   0.0003   0.00    8.5
2018/03/20 09:51:30.000   45.062369396    7.663903067   296.0214   1   6   0.0004   0.0003   0.0012   0.0001  -0.0003   0.0003   0.00    8.6
2018/03/20 09:51:31.000   45.062369396    7.663903067   296.0213   1   6   0.0004   0.0003   0.0011   0.0001  -0.0003   0.0003   0.00    8.6
2018/03/20 09:51:32.000   45.062369396    7.663903067   296.0213   1   6   0.0004   0.0003   0.0011   0.0001  -0.0003   0.0003   0.00    8.7
2018/03/20 09:51:33.000   45.062369396    7.663903067   296.0213   1   6   0.0004   0.0003   0.0011   0.0001  -0.0003   0.0003   0.00    8.7
2018/03/20 09:51:34.000   45.062369396    7.663903067   296.0212   1   6   0.0004   0.0003   0.0011   0.0001  -0.0003   0.0003   0.00    8.8
2018/03/20 09:51:35.000   45.062369396    7.663903067   296.0212   1   6   0.0004   0.0003   0.0011   0.0001  -0.0003   0.0003   0.00    8.8
2018/03/20 09:51:36.000   45.062369395    7.663903066   296.0212   1   6   0.0004   0.0003   0.0011   0.0001  -0.0003   0.0003   0.00    8.9
2018/03/20 09:51:37.000   45.062369395    7.663903066   296.0211   1   6   0.0004   0.0003   0.0011   0.0001  -0.0003   0.0003   0.00    8.9
2018/03/20 09:51:38.000   45.062369395    7.663903066   296.0211   1   6   0.0004   0.0003   0.0011   0.0001  -0.0003   0.0003   0.00    9.0
2018/03/20 09:51:39.000   45.062369395    7.663903066   296.0210   1   6   0.0004   0.0003   0.0011   0.0001  -0.0003   0.0003   0.00    9.0
2018/03/20 09:51:40.000   45.062369395    7.663903066   296.0210   1   6   0.0004   0.0003   0.0011   0.0001  -0.0003   0.0003   0.00    9.1
2018/03/20 09:51:41.000   45.062369395    7.663903066   296.0209   1   6   0.0004   0.0003   0.0011   0.0001  -0.0003   0.0003   0.00    9.2
2018/03/20 09:51:42.000   45.062369395    7.663903065   296.0209   1   6   0.0004   0.0003   0.0011   0.0001  -0.0003   0.0003   0.00    9.3
2018/03/20 09:51:43.000   45.062369395    7.663903065   296.0209   1   6   0.0004   0.0003   0.0011   0.0001  -0.0003   0.0003   0.00    9.3
2018/03/20 09:51:44.000   45.062369395    7.663903065   296.0209   1   6   0.0004   0.0003   0.0011   0.0001  -0.0003   0.0003   0.00    9.4
2018/03/20 09:51:45.000   45.062369395    7.663903065   296.0208   1   6   0.0004   0.0003   0.0011   0.0001  -0.0003   0.0003   0.00    9.5
2018/03/20 09:51:46.000   45.062369395    7.663903065   296.0208   1   6   0.0004   0.0003   0.0011   0.0001  -0.0003   0.0003   0.00    9.6
2018/03/20 09:51:47.000   45.062369395    7.663903064   296.0208   1   6   0.0004   0.0003   0.0011   0.0001  -0.0003   0.0003   0.00    9.6
2018/03/20 09:51:48.000   45.062369395    7.663903064   296.0207   1   6   0.0004   0.0003   0.0011   0.0001  -0.0003   0.0003   0.00    9.7
2018/03/20 09:51:49.000   45.062369395    7.663903064   296.0207   1   6   0.0004   0.0003   0.0011   0.0001  -0.0003   0.0003   0.00    9.7
2018/03/20 09:51:50.000   45.062369395    7.663903064   296.0207   1   6   0.0004   0.0003   0.0011   0.0001  -0.0003   0.0003   0.00    9.8
2018/03/20 09:51:51.000   45.062369395    7.663903064   296.0208   1   6   0.0004   0.0003   0.0011   0.0001  -0.0003   0.0003   0.00    9.9
2018/03/20 09:51:52.000   45.062369395    7.663903064   296.0207   1   6   0.0004   0.0003   0.0011   0.0001  -0.0003   0.0003   0.00   10.0
2018/03/20 09:51:53.000   45.062369395    7.663903064   296.0207   1   6   0.0004   0.0003   0.0011   0.0001  -0.0003   0.0003   0.00   10.0
2018/03/20 09:51:54.000   45.062369395    7.663903064   296.0206   1   6   0.0004   0.0003   0.0011   0.0001  -0.0003   0.0003   0.00   10.1
2018/03/20 09:51:55.000   45.062369395    7.663903064   296.0206   1   6   0.0004   0.0003   0.0011   0.0001  -0.0003   0.0003   0.00   10.2
2018/03/20 09:51:56.000   45.062369395    7.663903064   296.0206   1   6   0.0004   0.0003   0.0011   0.0001  -0.0003   0.0003   0.00   10.2
2018/03/20 09:51:57.000   45.062369395    7.663903064   296.0206   1   6   0.0004   0.0003   0.0011   0.0001  -0.0003   0.0003   0.00   10.3
2018/03/20 09:51:58.000   45.062369395    7.663903064   296.0205   1   6   0.0004   0.0003   0.0011   0.0001  -0.0003   0.0003   0.00   10.4
2018/03/20 09:51:59.000   45.062369395    7.663903064   296.0205   1   6   0.0004   0.0003   0.0011   0.0001  -0.0003   0.0003   0.00   10.5
2018/03/20 09:52:00.000   45.062369395    7.663903064   296.0205   1   6   0.0004   0.0003   0.0011   0.0001  -0.0003   0.0003   0.00   10.6
2018/03/20 09:52:01.000   45.062369395    7.663903064   296.0205   1   6   0.0004   0.0003   0.0011   0.0001  -0.0003   0.0003   0.00   10.6
2018/03/20 09:52:02.000   45.062369395    7.663903064   296.0204   1   6   0.0004   0.0003   0.0011   0.0001  -0.0003   0.0003   0.00   10.7
2018/03/20 09:52:03.000   45.062369396    7.663903064   296.0204   1   6   0.0004   0.0003   0.0011   0.0001  -0.0003   0.0003   0.00   10.8
2018/03/20 09:52:04.000   45.062369396    7.663903064   296.0204   1   6   0.0004   0.0003   0.0011   0.0001  -0.0003   0.0003   0.00   10.9
2018/03/20 09:52:05.000   45.062369396    7.663903064   296.0203   1   6   0.0004   0.0003   0.0011   0.0001  -0.0003   0.0003   0.00   11.0
2018/03/20 09:52:06.000   45.062369396    7.663903064   296.0203   1   6   0.0004   0.0003   0.0011   0.0001  -0.0003   0.0003   0.00   11.0
2018/03/20 09:52:07.000   45.062369396    7.663903064   296.0203   1   6   0.0004   0.0003   0.0011   0.0001  -0.0003   0.0003   0.00   11.1
2018/03/20 09:52:08.000   45.062369396    7.663903064   296.0202   1   6   0.0004   0.0003   0.0011   0.0001  -0.0003   0.0003   0.00   11.2
2018/03/20 09:52:09.000   45.062369396    7.663903064   296.0202   1   6   0.0004   0.0003   0.0011   0.0001  -0.0003   0.0003   0.00   11.3
2018/03/20 09:52:10.000   45.062369396    7.663903064   296.0202   1   6   0.0004   0.0003   0.0011   0.0001  -0.0003   0.0003   0.00   11.4
2018/03/20 09:52:11.000   45.062369396    7.663903064   296.0202   1   6   0.0004   0.0003   0.0011   0.0001  -0.0003   0.0003   0.00   11.5
2018/03/20 09:52:12.000   45.062369396    7.663903064   296.0201   1   6   0.0004   0.0003   0.0011   0.0001  -0.0003   0.0003   0.00   11.6
2018/03/20 09:52:13.000   45.062369396    7.663903064   296.0201   1   6   0.0004   0.0003   0.0011   0.0001  -0.0003   0.0003   0.00   11.7
2018/03/20 09:52:14.000   45.062369396    7.663903064   296.0201   1   6   0.0004   0.0003   0.0011   0.0001  -0.0003   0.0003   0.00   11.8
2018/03/20 09:52:15.000   45.062369396    7.663903064   296.0201   1   6   0.0004   0.0003   0.0011   0.0001  -0.0003   0.0003   0.00   11.9
2018/03/20 09:52:16.000   45.062369396    7.663903065   296.0200   1   6   0.0004   0.0003   0.0011   0.0001  -0.0003   0.0003   0.00   12.1
2018/03/20 09:52:17.000   45.062369396    7.663903065   296.0200   1   6   0.0004   0.0003   0.0011   0.0001  -0.0003   0.0003   0.00   12.2
2018/03/20 09:52:18.000   45.062369396    7.663903064   296.0200   1   6   0.0004   0.0003   0.0011   0.0001  -0.0003   0.0003   0.00   12.3
2018/03/20 09:52:19.000   45.062369396    7.663903064   296.0200   1   6   0.0004   0.0003   0.0011   0.0001  -0.0003   0.0003   0.00   12.4
2018/03/20 09:52:20.000   45.062369396    7.663903064   296.0200   1   6   0.0004   0.0003   0.0011   0.0001  -0.0003   0.0003   0.00   12.4
2018/03/20 09:52:21.000   45.062369396    7.663903064   296.0200   1   6   0.0004   0.0003   0.0011   0.0001  -0.0003   0.0003   0.00   12.5
2018/03/20 09:52:22.000   45.062369396    7.663903064   296.0199   1   6   0.0004   0.0003   0.0011   0.0001  -0.0003   0.0003   0.00   12.5
2018/03/20 09:52:23.000   45.062369396    7.663903064   296.0199   1   6   0.0004   0.0003   0.0011   0.0001  -0.0003   0.0003   0.00   12.5
2018/03/20 09:52:24.000   45.062369396    7.663903064   296.0199   1   6   0.0004   0.0003   0.0011   0.0001  -0.0003   0.0003   0.00   12.5
2018/03/20 09:52:25.000   45.062369396    7.663903064   296.0199   1   6   0.0004   0.0003   0.0011   0.0001  -0.0003   0.0003   0.00   12.6
2018/03/20 09:52:26.000   45.062369395    7.663903064   296.0199   1   6   0.0004   0.0003   0.0011   0.0001  -0.0003   0.0003   0.00   12.6
2018/03/20 09:52:27.000   45.062369395    7.663903064   296.0199   1   6   0.0004   0.0003   0.0011   0.0001  -0.0003   0.0003   0.00   12.6
2018/03/20 09:52:28.000   45.062369395    7.663903064   296.0198   1   6   0.0004   0.0003   0.0011   0.0001  -0.0003   0.0003   0.00   12.7
2018/03/20 09:52:29.000   45.062369395    7.663903064   296.0198   1   6   0.0004   0.0003   0.0011   0.0001  -0.0003   0.0003   0.00   12.7
2018/03/20 09:52:30.000   45.062369395    7.663903064   296.0198   1   6   0.0004   0.0003   0.0011   0.0001  -0.0003   0.0003   0.00   12.8
2018/03/20 09:52:31.000   45.062369395    7.663903064   296.0198   1   6   0.0004   0.0003   0.0011   0.0001  -0.0003   0.0003   0.00   12.8
2018/03/20 09:52:32.000   45.062369394    7.663903064   296.0198   1   6   0.0004   0.0003   0.0011   0.0001  -0.0003   0.0003   0.00   12.8
2018/03/20 09:52:33.000   45.062369394    7.663903064   296.0198   1   6   0.0004   0.0003   0.0011   0.0001  -0.0003   0.0003   0.00   12.8
2018/03/20 09:52:34.000   45.062369394    7.663903064   296.0198   1   6   0.0004   0.0003   0.0011   0.0001  -0.0003   0.0003   0.00   12.9
2018/03/20 09:52:35.000   45.062369394    7.663903064   296.0198   1   6   0.0004   0.0003   0.0011   0.0001  -0.0003   0.0003   0.00   12.9
2018/03/20 09:52:36.000   45.062369394    7.663903064   296.0198   1   6   0.0004   0.0003   0.0011   0.0001  -0.0003   0.0003   0.00   13.0
2018/03/20 09:52:37.000   45.062369393    7.663903064   296.0198   1   6   0.0004   0.0003   0.0011   0.0001  -0.0003   0.0003   0.00   13.0
2018/03/20 09:52:38.000   45.062369393    7.663903064   296.0197   1   6   0.0004   0.0003   0.0011   0.0001  -0.0003   0.0003   0.00   13.0
2018/03/20 09:52:39.000   45.062369393    7.663903064   296.0197   1   6   0.0004   0.0003   0.0011   0.0001  -0.0003   0.0003   0.00   13.0
2018/03/20 09:52:40.000   45.062369393    7.663903064   296.0197   1   6   0.0004   0.0003   0.0011   0.0001  -0.0003   0.0003   0.00   13.0
2018/03/20 09:52:41.000   45.062369392    7.663903064   296.0197   1   6   0.0004   0.0003   0.0011   0.0001  -0.0003   0.0003   0.00   13.0
2018/03/20 09:52:42.000   45.062369392    7.663903064   296.0197   1   6   0.0004   0.0003   0.0011   0.0001  -0.0003   0.0003   0.00   13.1
2018/03/20 09:52:43.000   45.062369392    7.663903064   296.0196   1   6   0.0004   0.0003   0.0011   0.0001  -0.0003   0.0003   0.00   13.1
2018/03/20 09:52:44.000   45.062369392    7.663903064   296.0196   1   6   0.0004   0.0003   0.0011   0.0001  -0.0003   0.0002   0.00   13.1
2018/03/20 09:52:45.000   45.062369391    7.663903064   296.0195   1   6   0.0004   0.0003   0.0011   0.0001  -0.0003   0.0002   0.00   13.1
2018/03/20 09:52:46.000   45.062369391    7.663903064   296.0195   1   6   0.0004   0.0003   0.0011   0.0001  -0.0003   0.0002   0.00   13.1
2018/03/20 09:52:47.000   45.062369391    7.663903064   296.0195   1   6   0.0004   0.0003   0.0010   0.0001  -0.0003   0.0002   0.00   13.1
2018/03/20 09:52:48.000   45.062369391    7.663903064   296.0195   1   6   0.0004   0.0003   0.0010   0.0001  -0.0003   0.0002   0.00   13.1
2018/03/20 09:52:49.000   45.062369390    7.663903064   296.0194   1   6   0.0004   0.0003   0.0010   0.0001  -0.0003   0.0002   0.00   13.1
2018/03/20 09:52:50.000   45.062369390    7.663903064   296.0194   1   6   0.0004   0.0003   0.0010   0.0001  -0.0003   0.0002   0.00   13.1
2018/03/20 09:52:51.000   45.062369390    7.663903064   296.0194   1   6   0.0004   0.0003   0.0010   0.0001  -0.0003   0.0002   0.00   13.1
2018/03/20 09:52:52.000   45.062369390    7.663903064   296.0193   1   6   0.0004   0.0003   0.0010   0.0001  -0.0003   0.0002   0.00   13.1
2018/03/20 09:52:53.000   45.062369389    7.663903064   296.0193   1   6   0.0004   0.0003   0.0010   0.0001  -0.0003   0.0002   0.00   13.1
2018/03/20 09:52:54.000   45.062369389    7.663903064   296.0193   1   6   0.0004   0.0003   0.0010   0.0001  -0.0003   0.0002   0.00   13.1
2018/03/20 09:52:55.000   45.062369389    7.663903064   296.0193   1   6   0.0004   0.0003   0.0010   0.0001  -0.0003   0.0002   0.00   13.1
2018/03/20 09:52:56.000   45.062369389    7.663903064   296.0192   1   6   0.0004   0.0003   0.0010   0.0001  -0.0003   0.0002   0.00   13.0
2018/03/20 09:52:57.000   45.062369388    7.663903064   296.0192   1   6   0.0004   0.0003   0.0010   0.0001  -0.0003   0.0002   0.00   13.0
2018/03/20 09:52:58.000   45.062369388    7.663903064   296.0192   1   6   0.0004   0.0003   0.0010   0.0001  -0.0003   0.0002   0.00   13.0
2018/03/20 09:52:59.000   45.062369388    7.663903063   296.0192   1   6   0.0004   0.0003   0.0010   0.0001  -0.0003   0.0002   0.00   12.9
2018/03/20 09:53:00.000   45.062369388    7.663903063   296.0192   1   6   0.0004   0.0003   0.0010   0.0001  -0.0003   0.0002   0.00   12.9
2018/03/20 09:53:01.000   45.062369387    7.663903063   296.0191   1   6   0.0004   0.0003   0.0010   0.0001  -0.0003   0.0002   0.00   12.9
2018/03/20 09:53:02.000   45.062369387    7.663903063   296.0191   1   6   0.0004   0.0003   0.0010   0.0001  -0.0003   0.0002   0.00   12.9
2018/03/20 09:53:03.000   45.062369387    7.663903063   296.0191   1   6   0.0004   0.0003   0.0010   0.0001  -0.0003   0.0002   0.00   12.9
2018/03/20 09:53:04.000   45.062369386    7.663903063   296.0191   1   6   0.0004   0.0003   0.0010   0.0001  -0.0003   0.0002   0.00   12.9
2018/03/20 09:53:05.000   45.062369386    7.663903063   296.0191   1   6   0.0004   0.0003   0.0010   0.0001  -0.0003   0.0002   0.00   12.9
2018/03/20 09:53:06.000   45.062369386    7.663903062   296.0191   1   6   0.0004   0.0003   0.0010   0.0001  -0.0003   0.0002   0.00   12.8
2018/03/20 09:53:07.000   45.062369386    7.663903062   296.0190   1   6   0.0004   0.0003   0.0010   0.0001  -0.0003   0.0002   0.00   12.8
2018/03/20 09:53:08.000   45.062369385    7.663903062   296.0191   1   6   0.0004   0.0003   0.0010   0.0001  -0.0003   0.0002   0.00   12.8
2018/03/20 09:53:09.000   45.062369385    7.663903062   296.0190   1   6   0.0004   0.0003   0.0010   0.0001  -0.0003   0.0002   0.00   12.8
2018/03/20 09:53:10.000   45.062369385    7.663903062   296.0191   1   6   0.0004   0.0003   0.0010   0.0001  -0.0003   0.0002   0.00   12.7
2018/03/20 09:53:11.000   45.062369384    7.663903062   296.0191   1   6   0.0004   0.0003   0.0010   0.0001  -0.0003   0.0002   0.00   12.7
2018/03/20 09:53:12.000   45.062369384    7.663903061   296.0190   1   6   0.0004   0.0003   0.0010   0.0001  -0.0003   0.0002   0.00   12.7
2018/03/20 09:53:13.000   45.062369384    7.663903061   296.0190   1   6   0.0004   0.0003   0.0010   0.0001  -0.0003   0.0002   0.00   12.6
2018/03/20 09:53:14.000   45.062369383    7.663903061   296.0190   1   6   0.0004   0.0003   0.0010   0.0001  -0.0003   0.0002   0.00   12.6
2018/03/20 09:53:15.000   45.062369383    7.663903061   296.0191   1   6   0.0004   0.0003   0.0010   0.0001  -0.0003   0.0002   0.00   12.5
2018/03/20 09:53:16.000   45.062369383    7.663903061   296.0191   1   6   0.0004   0.0003   0.0010   0.0001  -0.0003   0.0002   0.00   12.5
2018/03/20 09:53:17.000   45.062369382    7.663903061   296.0191   1   6   0.0004   0.0003   0.0010   0.0001  -0.0003   0.0002   0.00   12.4
2018/03/20 09:53:18.000   45.062369382    7.663903060   296.0191   1   6   0.0004   0.0003   0.0010   0.0001  -0.0003   0.0002   0.00   12.3
2018/03/20 09:53:19.000   45.062369382    7.663903060   296.0191   1   6   0.0004   0.0003   0.0010   0.0001  -0.0003   0.0002   0.00   12.3
2018/03/20 09:53:20.000   45.062369382    7.663903060   296.0191   1   6   0.0004   0.0003   0.0010   0.0001  -0.0003   0.0002   0.00   12.3
2018/03/20 09:53:21.000   45.062369381    7.663903060   296.0191   1   6   0.0004   0.0003   0.0010   0.0001  -0.0003   0.0002   0.00   12.2
2018/03/20 09:53:22.000   45.062369381    7.663903060   296.0191   1   6   0.0004   0.0003   0.0010   0.0001  -0.0003   0.0002   0.00   12.1
2018/03/20 09:53:23.000   45.062369381    7.663903060   296.0191   1   6   0.0004   0.0003   0.0010   0.0001  -0.0003   0.0002   0.00   12.1
2018/03/20 09:53:24.000   45.062369380    7.663903059   296.0191   1   6   0.0004   0.0003   0.0010   0.0001  -0.0003   0.0002   0.00   12.0
2018/03/20 09:53:25.000   45.062369380    7.663903059   296.0190   1   6   0.0004   0.0003   0.0010   0.0001  -0.0003   0.0002   0.00   11.9
2018/03/20 09:53:26.000   45.062369380    7.663903059   296.0190   1   6   0.0004   0.0003   0.0010   0.0001  -0.0003   0.0002   0.00   11.9
2018/03/20 09:53:27.000   45.062369380    7.663903059   296.0190   1   6   0.0004   0.0003   0.0010   0.0001  -0.0003   0.0002   0.00   11.8
2018/03/20 09:53:28.000   45.062369380    7.663903059   296.0190   1   6   0.0004   0.0003   0.0010   0.0001  -0.0003   0.0002   0.00   11.7
2018/03/20 09:53:29.000   45.062369379    7.663903059   296.0189   1   6   0.0004   0.0003   0.0010   0.0001  -0.0003   0.0002   0.00   11.7
2018/03/20 09:53:30.000   45.062369379    7.663903059   296.0190   1   6   0.0004   0.0003   0.0010   0.0001  -0.0003   0.0002   0.00   11.6
2018/03/20 09:53:31.000   45.062369379    7.663903058   296.0190   1   6   0.0004   0.0003   0.0010   0.0001  -0.0003   0.0002   0.00   11.5
2018/03/20 09:53:32.000   45.062369379    7.663903058   296.0190   1   6   0.0004   0.0003   0.0010   0.0001  -0.0003   0.0002   0.00   11.5
2018/03/20 09:53:33.000   45.062369379    7.663903058   296.0190   1   6   0.0004   0.0003   0.0010   0.0001  -0.0003   0.0002   0.00   11.4
2018/03/20 09:53:34.000   45.062369378    7.663903058   296.0190   1   6   0.0004   0.0003   0.0010   0.0001  -0.0003   0.0002   0.00   11.3
2018/03/20 09:53:35.000   45.062369378    7.663903057   296.0190   1   6   0.0004   0.0003   0.0010   0.0001  -0.0003   0.0002   0.00   11.3
2018/03/20 09:53:36.000   45.062369378    7.663903057   296.0189   1   6   0.0004   0.0003   0.0010   0.0001  -0.0003   0.0002   0.00   11.2
2018/03/20 09:53:37.000   45.062369378    7.663903057   296.0189   1   6   0.0004   0.0003   0.0010   0.0001  -0.0003   0.0002   0.00   11.2
2018/03/20 09:53:38.000   45.062369378    7.663903056   296.0190   1   6   0.0004   0.0003   0.0010   0.0001  -0.0003   0.0002   0.00   11.1
2018/03/20 09:53:39.000   45.062369377    7.663903056   296.0189   1   6   0.0004   0.0003   0.0010   0.0001  -0.0003   0.0002   0.00   11.1
2018/03/20 09:53:40.000   45.062369377    7.663903056   296.0190   1   6   0.0004   0.0003   0.0010   0.0001  -0.0003   0.0002   0.00   11.1
2018/03/20 09:53:41.000   45.062369377    7.663903055   296.0190   1   6   0.0004   0.0003   0.0010   0.0001  -0.0003   0.0002   0.00   11.0
2018/03/20 09:53:42.000   45.062369377    7.663903055   296.0190   1   6   0.0004   0.0003   0.0010   0.0001  -0.0003   0.0002   0.00   11.0
2018/03/20 09:53:43.000   45.062369377    7.663903054   296.0190   1   6   0.0004   0.0003   0.0010   0.0001  -0.0003   0.0002   0.00   10.9
2018/03/20 09:53:44.000   45.062369376    7.663903054   296.0190   1   6   0.0003   0.0003   0.0010   0.0001  -0.0003   0.0002   0.00   10.9
2018/03/20 09:53:45.000   45.062369376    7.663903054   296.0190   1   6   0.0003   0.0003   0.0010   0.0001  -0.0003   0.0002   0.00   10.8
2018/03/20 09:53:46.000   45.062369376    7.663903053   296.0191   1   6   0.0003   0.0003   0.0010   0.0001  -0.0003   0.0002   0.00   10.8
2018/03/20 09:53:47.000   45.062369376    7.663903053   296.0191   1   6   0.0003   0.0003   0.0010   0.0001  -0.0003   0.0002   0.00   10.7
2018/03/20 09:53:48.000   45.062369376    7.663903053   296.0191   1   6   0.0003   0.0003   0.0010   0.0001  -0.0003   0.0002   0.00   10.7
2018/03/20 09:53:49.000   45.062369376    7.663903052   296.0191   1   6   0.0003   0.0003   0.0010   0.0001  -0.0003   0.0002   0.00   10.7
2018/03/20 09:53:50.000   45.062369375    7.663903052   296.0192   1   6   0.0003   0.0003   0.0010   0.0001  -0.0003   0.0002   0.00   10.6
2018/03/20 09:53:51.000   45.062369375    7.663903052   296.0192   1   6   0.0003   0.0003   0.0010   0.0001  -0.0003   0.0002   0.00   10.6
2018/03/20 09:53:52.000   45.062369375    7.663903051   296.0193   1   6   0.0003   0.0003   0.0010   0.0001  -0.0003   0.0002   0.00   10.6
2018/03/20 09:53:53.000   45.062369375    7.663903051   296.0193   1   6   0.0003   0.0003   0.0010   0.0001  -0.0003   0.0002   0.00   10.5
2018/03/20 09:53:54.000   45.062369375    7.663903050   296.0193   1   6   0.0003   0.0003   0.0010   0.0001  -0.0003   0.0002   0.00   10.4
2018/03/20 09:53:55.000   45.062369375    7.663903050   296.0194   1   6   0.0003   0.0003   0.0010   0.0001  -0.0003   0.0002   0.00   10.4
2018/03/20 09:53:56.000   45.062369375    7.663903050   296.0194   1   6   0.0003   0.0003   0.0010   0.0001  -0.0003   0.0002   0.00   10.4
2018/03/20 09:53:57.000   45.062369375    7.663903049   296.0194   1   6   0.0003   0.0003   0.0010   0.0001  -0.0003   0.0002   0.00   10.3
2018/03/20 09:53:58.000   45.062369375    7.663903049   296.0195   1   6   0.0003   0.0003   0.0010   0.0001  -0.0003   0.0002   0.00   10.3
2018/03/20 09:53:59.000   45.062369375    7.663903049   296.0195   1   6   0.0003   0.0003   0.0010   0.0001  -0.0003   0.0002   0.00   10.2
2018/03/20 09:54:00.000   45.062369375    7.663903049   296.0195   1   6   0.0003   0.0003   0.0010   0.0001  -0.0003   0.0002   0.00   10.2
2018/03/20 09:54:01.000   45.062369375    7.663903048   296.0196   1   6   0.0003   0.0003   0.0010   0.0001  -0.0003   0.0002   0.00   10.1
2018/03/20 09:54:02.000   45.062369375    7.663903048   296.0196   1   6   0.0003   0.0003   0.0010   0.0001  -0.0003   0.0002   0.00   10.1
2018/03/20 09:54:03.000   45.062369375    7.663903048   296.0196   1   6   0.0003   0.0003   0.0010   0.0001  -0.0003   0.0002   0.00   10.0
2018/03/20 09:54:04.000   45.062369375    7.663903047   296.0197   1   6   0.0003   0.0003   0.0010   0.0001  -0.0003   0.0002   0.00    9.9
2018/03/20 09:54:05.000   45.062369375    7.663903047   296.0197   1   6   0.0003   0.0003   0.0010   0.0001  -0.0003   0.0002   0.00    9.9
2018/03/20 09:54:06.000   45.062369375    7.663903047   296.0197   1   6   0.0003   0.0003   0.0010   0.0001  -0.0003   0.0002   0.00    9.8
2018/03/20 09:54:07.000   45.062369375    7.663903047   296.0198   1   6   0.0003   0.0003   0.0010   0.0001  -0.0003   0.0002   0.00    9.8
2018/03/20 09:54:08.000   45.062369375    7.663903046   296.0198   1   6   0.0003   0.0003   0.0010   0.0001  -0.0003   0.0002   0.00    9.7
2018/03/20 09:54:09.000   45.062369375    7.663903046   296.0198   1   6   0.0003   0.0003   0.0010   0.0001  -0.0003   0.0002   0.00    9.7
2018/03/20 09:54:10.000   45.062369375    7.663903046   296.0199   1   6   0.0003   0.0003   0.0010   0.0001  -0.0003   0.0002   0.00    9.6
2018/03/20 09:54:11.000   45.062369375    7.663903045   296.0199   1   6   0.0003   0.0003   0.0010   0.0001  -0.0003   0.0002   0.00    9.6
2018/03/20 09:54:12.000   45.062369375    7.663903045   296.0199   1   6   0.0003   0.0003   0.0010   0.0001  -0.0003   0.0002   0.00    9.5
2018/03/20 09:54:13.000   45.062369375    7.663903045   296.0199   1   6   0.0003   0.0002   0.0010   0.0001  -0.0003   0.0002   0.00    9.5
2018/03/20 09:54:14.000   45.062369375    7.663903044   296.0200   1   6   0.0003   0.0002   0.0010   0.0001  -0.0003   0.0002   0.00    9.4
2018/03/20 09:54:15.000   45.062369375    7.663903044   296.0200   1   6   0.0003   0.0002   0.0010   0.0001  -0.0003   0.0002   0.00    9.4
2018/03/20 09:54:16.000   45.062369375    7.663903044   296.0201   1   6   0.0003   0.0002   0.0010   0.0001  -0.0003   0.0002   0.00    9.3
2018/03/20 09:54:17.000   45.062369375    7.663903043   296.0201   1   6   0.0003   0.0002   0.0010   0.0001  -0.0003   0.0002   0.00    9.3
2018/03/20 09:54:18.000   45.062369375    7.663903043   296.0202   1   6   0.0003   0.0002   0.0010   0.0001  -0.0003   0.0002   0.00    9.3
2018/03/20 09:54:19.000   45.062369375    7.663903043   296.0202   1   6   0.0003   0.0002   0.0010   0.0001  -0.0003   0.0002   0.00    9.2
