% program   : RTKPOST ver.2.4.3 b33
% inp file  : C:\Users\Francesco Conforte\Documents\UNIVERSITA'\Magistrale\ICT for geomatics\Geomatics\LAB\Lab3\GNSS data\GNSS Static\Rover\1000790.18o
% inp file  : C:\Users\Francesco Conforte\Documents\UNIVERSITA'\Magistrale\ICT for geomatics\Geomatics\LAB\Lab3\GNSS data\GNSS Static\Rover\*
% obs start : 2018/03/20 09:47:24.0 GPST (week1993 208044.0s)
% obs end   : 2018/03/20 11:49:18.0 GPST (week1993 215358.0s)
% pos mode  : single
% elev mask : 15.0 deg
% ionos opt : broadcast
% tropo opt : saastamoinen
% ephemeris : broadcast
% navi sys  : gps glonass
%
% (lat/lon/height=WGS84/ellipsoidal,Q=1:fix,2:float,3:sbas,4:dgps,5:single,6:ppp,ns=# of satellites)
%  GPST                  latitude(deg) longitude(deg)  height(m)   Q  ns   sdn(m)   sde(m)   sdu(m)  sdne(m)  sdeu(m)  sdun(m) age(s)  ratio
2018/03/20 09:47:24.000   45.062387743    7.663892821   297.9325   5   9   3.1957   2.5047   9.7050   0.9095  -2.5745   2.3138   0.00    0.0
2018/03/20 09:47:25.000   45.062387666    7.663893078   297.9862   5   9   3.1955   2.5045   9.7035   0.9097  -2.5730   2.3109   0.00    0.0
2018/03/20 09:47:26.000   45.062387600    7.663893146   298.0324   5   9   3.1953   2.5043   9.7020   0.9100  -2.5715   2.3080   0.00    0.0
2018/03/20 09:47:27.000   45.062387520    7.663893388   298.0496   5   9   3.1951   2.5041   9.7005   0.9102  -2.5700   2.3052   0.00    0.0
2018/03/20 09:47:28.000   45.062387405    7.663893608   298.0124   5   9   3.1948   2.5040   9.6990   0.9105  -2.5685   2.3023   0.00    0.0
2018/03/20 09:47:29.000   45.062387305    7.663893817   298.0205   5   9   3.1946   2.5038   9.6976   0.9107  -2.5671   2.2994   0.00    0.0
2018/03/20 09:47:30.000   45.062387079    7.663894084   298.0197   5   9   3.1944   2.5036   9.6961   0.9109  -2.5656   2.2965   0.00    0.0
2018/03/20 09:47:31.000   45.062386933    7.663894113   298.0259   5   9   3.1942   2.5034   9.6946   0.9112  -2.5641   2.2937   0.00    0.0
2018/03/20 09:47:32.000   45.062386759    7.663894378   298.0257   5   9   3.1940   2.5032   9.6931   0.9114  -2.5626   2.2908   0.00    0.0
2018/03/20 09:47:33.000   45.062386345    7.663894475   298.0358   5   9   3.1938   2.5031   9.6916   0.9117  -2.5611   2.2879   0.00    0.0
2018/03/20 09:47:34.000   45.062386175    7.663894684   298.0573   5   9   3.1936   2.5029   9.6902   0.9119  -2.5596   2.2850   0.00    0.0
2018/03/20 09:47:35.000   45.062385896    7.663894933   298.0489   5   9   3.1933   2.5027   9.6887   0.9122  -2.5581   2.2821   0.00    0.0
2018/03/20 09:47:36.000   45.062386173    7.663895068   298.4485   5  10   3.0434   2.5007   8.0805   0.8600  -2.6552   0.1772   0.00    0.0
2018/03/20 09:47:37.000   45.062386073    7.663895320   298.4989   5  10   3.0434   2.5005   8.0804   0.8600  -2.6542   0.1594   0.00    0.0
2018/03/20 09:47:38.000   45.062385807    7.663895493   298.4210   5  10   3.0435   2.5003   8.0803   0.8600  -2.6533   0.1395   0.00    0.0
2018/03/20 09:47:39.000   45.062385122    7.663895698   298.2042   5  10   3.0436   2.5001   8.0801   0.8599  -2.6524   0.1161   0.00    0.0
2018/03/20 09:47:40.000   45.062385011    7.663895711   298.1464   5  10   3.0436   2.4999   8.0800   0.8599  -2.6514   0.0867   0.00    0.0
2018/03/20 09:47:41.000   45.062384672    7.663895892   298.1562   5  10   3.0437   2.4997   8.0799   0.8599  -2.6505   0.0393   0.00    0.0
2018/03/20 09:47:42.000   45.062384745    7.663896237   298.3884   5  10   3.0438   2.4995   8.0797   0.8599  -2.6496  -0.0666   0.00    0.0
2018/03/20 09:47:43.000   45.062384601    7.663896486   298.4825   5  10   3.0438   2.4993   8.0796   0.8599  -2.6486  -0.1020   0.00    0.0
2018/03/20 09:47:44.000   45.062384566    7.663896661   298.5614   5  10   3.0439   2.4991   8.0795   0.8599  -2.6477  -0.1280   0.00    0.0
2018/03/20 09:47:45.000   45.062384315    7.663896782   298.5929   5  10   3.0440   2.4989   8.0793   0.8599  -2.6468  -0.1496   0.00    0.0
2018/03/20 09:47:46.000   45.062384438    7.663897062   298.7194   5  10   3.0440   2.4987   8.0792   0.8599  -2.6458  -0.1684   0.00    0.0
2018/03/20 09:47:47.000   45.062384098    7.663897488   298.6403   5  10   3.0441   2.4985   8.0791   0.8599  -2.6449  -0.1853   0.00    0.0
2018/03/20 09:47:48.000   45.062383466    7.663897653   298.4834   5  10   3.0442   2.4983   8.0789   0.8599  -2.6439  -0.2008   0.00    0.0
2018/03/20 09:47:49.000   45.062383107    7.663897791   298.3894   5  10   3.0443   2.4981   8.0788   0.8599  -2.6430  -0.2152   0.00    0.0
2018/03/20 09:47:50.000   45.062382938    7.663898021   298.4083   5  10   3.0443   2.4979   8.0787   0.8599  -2.6421  -0.2287   0.00    0.0
2018/03/20 09:47:51.000   45.062382890    7.663898523   298.4870   5  10   3.0444   2.4977   8.0785   0.8599  -2.6411  -0.2414   0.00    0.0
2018/03/20 09:47:52.000   45.062382649    7.663898856   298.4221   5  10   3.0445   2.4975   8.0784   0.8599  -2.6402  -0.2536   0.00    0.0
2018/03/20 09:47:53.000   45.062382489    7.663899197   298.4412   5  10   3.0445   2.4973   8.0783   0.8599  -2.6392  -0.2651   0.00    0.0
2018/03/20 09:47:54.000   45.062382364    7.663899629   298.4543   5  10   3.0446   2.4971   8.0781   0.8598  -2.6383  -0.2762   0.00    0.0
2018/03/20 09:47:55.000   45.062382184    7.663899747   298.5225   5  10   3.0447   2.4969   8.0780   0.8598  -2.6373  -0.2869   0.00    0.0
2018/03/20 09:47:56.000   45.062381949    7.663899889   298.5414   5  10   3.0447   2.4967   8.0779   0.8598  -2.6364  -0.2971   0.00    0.0
2018/03/20 09:47:57.000   45.062381999    7.663900395   298.5460   5  10   3.0448   2.4965   8.0777   0.8598  -2.6355  -0.3071   0.00    0.0
2018/03/20 09:47:58.000   45.062381889    7.663900618   298.6005   5  10   3.0449   2.4963   8.0776   0.8598  -2.6345  -0.3167   0.00    0.0
2018/03/20 09:47:59.000   45.062381770    7.663901171   298.5917   5  10   3.0450   2.4961   8.0774   0.8598  -2.6336  -0.3261   0.00    0.0
2018/03/20 09:48:00.000   45.062381471    7.663901381   298.4761   5  10   3.0450   2.4959   8.0773   0.8598  -2.6326  -0.3352   0.00    0.0
2018/03/20 09:48:01.000   45.062381456    7.663901557   298.5699   5  10   3.0451   2.4957   8.0772   0.8598  -2.6317  -0.3440   0.00    0.0
2018/03/20 09:48:02.000   45.062381335    7.663901929   298.5527   5  10   3.0452   2.4955   8.0770   0.8597  -2.6307  -0.3526   0.00    0.0
2018/03/20 09:48:03.000   45.062381298    7.663902006   298.6384   5  10   3.0452   2.4953   8.0769   0.8597  -2.6298  -0.3611   0.00    0.0
2018/03/20 09:48:04.000   45.062380984    7.663902277   298.5548   5  10   3.0453   2.4951   8.0767   0.8597  -2.6288  -0.3693   0.00    0.0
2018/03/20 09:48:05.000   45.062378950    7.663902091   297.3939   5   9   3.1873   2.4975   9.6443   0.9189  -2.5132   2.1942   0.00    0.0
2018/03/20 09:48:06.000   45.062378794    7.663902428   297.3237   5   9   3.1871   2.4973   9.6428   0.9191  -2.5117   2.1912   0.00    0.0
2018/03/20 09:48:07.000   45.062378593    7.663902489   297.3278   5   9   3.1869   2.4971   9.6414   0.9193  -2.5102   2.1882   0.00    0.0
2018/03/20 09:48:08.000   45.062378399    7.663902747   297.2899   5   9   3.1867   2.4970   9.6399   0.9195  -2.5087   2.1852   0.00    0.0
2018/03/20 09:48:09.000   45.062378237    7.663903006   297.2185   5   9   3.1865   2.4968   9.6384   0.9197  -2.5072   2.1822   0.00    0.0
2018/03/20 09:48:10.000   45.062378172    7.663903174   297.2050   5   9   3.1863   2.4966   9.6369   0.9199  -2.5057   2.1793   0.00    0.0
2018/03/20 09:48:11.000   45.062377843    7.663903155   297.1803   5   9   3.1861   2.4964   9.6355   0.9201  -2.5042   2.1763   0.00    0.0
2018/03/20 09:48:12.000   45.062377663    7.663903279   297.1593   5   9   3.1859   2.4963   9.6340   0.9203  -2.5027   2.1733   0.00    0.0
2018/03/20 09:48:13.000   45.062377606    7.663903493   297.1322   5   9   3.1857   2.4961   9.6325   0.9205  -2.5012   2.1703   0.00    0.0
2018/03/20 09:48:14.000   45.062377457    7.663903291   297.1641   5   9   3.1856   2.4959   9.6310   0.9207  -2.4997   2.1673   0.00    0.0
2018/03/20 09:48:15.000   45.062377152    7.663903274   297.2112   5   9   3.1854   2.4958   9.6296   0.9209  -2.4981   2.1643   0.00    0.0
2018/03/20 09:48:16.000   45.062377046    7.663903283   297.1637   5   9   3.1852   2.4956   9.6281   0.9211  -2.4966   2.1613   0.00    0.0
2018/03/20 09:48:17.000   45.062376818    7.663903418   297.1135   5   9   3.1850   2.4954   9.6266   0.9213  -2.4951   2.1583   0.00    0.0
2018/03/20 09:48:18.000   45.062376781    7.663903474   297.0787   5   9   3.1848   2.4953   9.6251   0.9215  -2.4936   2.1552   0.00    0.0
2018/03/20 09:48:19.000   45.062376414    7.663903464   297.0915   5   9   3.1846   2.4951   9.6237   0.9217  -2.4921   2.1522   0.00    0.0
2018/03/20 09:48:20.000   45.062376368    7.663903441   297.0890   5   9   3.1844   2.4949   9.6222   0.9219  -2.4906   2.1492   0.00    0.0
2018/03/20 09:48:21.000   45.062376334    7.663903512   297.0797   5   9   3.1843   2.4948   9.6207   0.9221  -2.4891   2.1462   0.00    0.0
2018/03/20 09:48:22.000   45.062376081    7.663903353   297.0384   5   9   3.1841   2.4946   9.6192   0.9223  -2.4876   2.1432   0.00    0.0
2018/03/20 09:48:23.000   45.062375861    7.663903357   297.0803   5   9   3.1839   2.4944   9.6178   0.9225  -2.4861   2.1401   0.00    0.0
2018/03/20 09:48:24.000   45.062375695    7.663903397   297.0263   5   9   3.1837   2.4943   9.6163   0.9227  -2.4846   2.1371   0.00    0.0
2018/03/20 09:48:25.000   45.062375422    7.663903327   297.0254   5   9   3.1835   2.4941   9.6148   0.9228  -2.4831   2.1341   0.00    0.0
2018/03/20 09:48:26.000   45.062371489    7.663902519   294.7380   5  10   3.0470   2.4909   8.0734   0.8593  -2.6079  -0.5189   0.00    0.0
2018/03/20 09:48:27.000   45.062371521    7.663902657   294.8486   5  10   3.0470   2.4907   8.0733   0.8593  -2.6069  -0.5247   0.00    0.0
2018/03/20 09:48:28.000   45.062371571    7.663902562   295.0241   5  10   3.0471   2.4905   8.0731   0.8593  -2.6060  -0.5305   0.00    0.0
2018/03/20 09:48:29.000   45.062371578    7.663902674   295.0634   5  10   3.0472   2.4903   8.0730   0.8593  -2.6050  -0.5362   0.00    0.0
2018/03/20 09:48:30.000   45.062371491    7.663902792   295.0780   5  10   3.0473   2.4901   8.0728   0.8592  -2.6041  -0.5418   0.00    0.0
2018/03/20 09:48:31.000   45.062371806    7.663902882   295.3482   5  10   3.0473   2.4899   8.0727   0.8592  -2.6031  -0.5474   0.00    0.0
2018/03/20 09:48:32.000   45.062371976    7.663902899   295.5058   5  10   3.0474   2.4897   8.0725   0.8592  -2.6022  -0.5529   0.00    0.0
2018/03/20 09:48:33.000   45.062372060    7.663903062   295.7368   5  10   3.0475   2.4896   8.0723   0.8592  -2.6012  -0.5584   0.00    0.0
2018/03/20 09:48:34.000   45.062372097    7.663903110   295.8090   5  10   3.0476   2.4894   8.0722   0.8592  -2.6002  -0.5638   0.00    0.0
2018/03/20 09:48:35.000   45.062372371    7.663903279   296.0193   5  10   3.0477   2.4892   8.0720   0.8591  -2.5993  -0.5691   0.00    0.0
2018/03/20 09:48:36.000   45.062372529    7.663903282   296.1919   5  10   3.0477   2.4890   8.0719   0.8591  -2.5983  -0.5745   0.00    0.0
2018/03/20 09:48:37.000   45.062372484    7.663903321   296.2101   5  10   3.0478   2.4888   8.0717   0.8591  -2.5973  -0.5797   0.00    0.0
2018/03/20 09:48:38.000   45.062372540    7.663903302   296.3010   5  10   3.0479   2.4886   8.0715   0.8590  -2.5964  -0.5849   0.00    0.0
2018/03/20 09:48:39.000   45.062372613    7.663903281   296.3859   5  10   3.0480   2.4884   8.0714   0.8590  -2.5954  -0.5901   0.00    0.0
2018/03/20 09:48:40.000   45.062372415    7.663903595   296.1993   5  10   3.0481   2.4882   8.0712   0.8590  -2.5945  -0.5953   0.00    0.0
2018/03/20 09:48:41.000   45.062372298    7.663903488   296.2458   5  10   3.0482   2.4880   8.0711   0.8590  -2.5935  -0.6003   0.00    0.0
2018/03/20 09:48:42.000   45.062372293    7.663903578   296.2266   5  10   3.0482   2.4879   8.0709   0.8589  -2.5925  -0.6054   0.00    0.0
2018/03/20 09:48:43.000   45.062372484    7.663903685   296.2709   5  10   3.0483   2.4877   8.0707   0.8589  -2.5916  -0.6104   0.00    0.0
2018/03/20 09:48:44.000   45.062372455    7.663903668   296.2509   5  10   3.0484   2.4875   8.0706   0.8589  -2.5906  -0.6154   0.00    0.0
2018/03/20 09:48:45.000   45.062372316    7.663903646   296.2021   5  10   3.0485   2.4873   8.0704   0.8589  -2.5896  -0.6203   0.00    0.0
2018/03/20 09:48:46.000   45.062372247    7.663903724   296.1949   5  10   3.0486   2.4871   8.0702   0.8588  -2.5887  -0.6252   0.00    0.0
2018/03/20 09:48:47.000   45.062372260    7.663903837   296.0867   5  10   3.0486   2.4869   8.0701   0.8588  -2.5877  -0.6301   0.00    0.0
2018/03/20 09:48:48.000   45.062372319    7.663903869   296.1710   5  10   3.0487   2.4867   8.0699   0.8588  -2.5867  -0.6349   0.00    0.0
2018/03/20 09:48:49.000   45.062372492    7.663904047   296.2588   5  10   3.0488   2.4865   8.0697   0.8587  -2.5858  -0.6397   0.00    0.0
2018/03/20 09:48:50.000   45.062372569    7.663904155   296.3075   5  10   3.0489   2.4863   8.0696   0.8587  -2.5848  -0.6444   0.00    0.0
2018/03/20 09:48:51.000   45.062372764    7.663904319   296.4044   5  10   3.0490   2.4862   8.0694   0.8587  -2.5838  -0.6492   0.00    0.0
2018/03/20 09:48:52.000   45.062372675    7.663904384   296.3844   5  10   3.0491   2.4860   8.0692   0.8586  -2.5829  -0.6538   0.00    0.0
2018/03/20 09:48:53.000   45.062373018    7.663904548   296.5198   5  10   3.0491   2.4858   8.0691   0.8586  -2.5819  -0.6585   0.00    0.0
2018/03/20 09:48:54.000   45.062373003    7.663904541   296.5758   5  10   3.0492   2.4856   8.0689   0.8586  -2.5809  -0.6631   0.00    0.0
2018/03/20 09:48:55.000   45.062372947    7.663904795   296.5248   5  10   3.0493   2.4854   8.0687   0.8585  -2.5800  -0.6677   0.00    0.0
2018/03/20 09:48:56.000   45.062373024    7.663904944   296.5557   5  10   3.0494   2.4852   8.0686   0.8585  -2.5790  -0.6723   0.00    0.0
2018/03/20 09:48:57.000   45.062373299    7.663905262   296.6792   5  10   3.0495   2.4850   8.0684   0.8585  -2.5780  -0.6768   0.00    0.0
2018/03/20 09:48:58.000   45.062373307    7.663905412   296.7457   5  10   3.0496   2.4848   8.0682   0.8584  -2.5770  -0.6813   0.00    0.0
2018/03/20 09:48:59.000   45.062373521    7.663905517   296.8146   5  10   3.0497   2.4847   8.0680   0.8584  -2.5761  -0.6858   0.00    0.0
2018/03/20 09:49:00.000   45.062373626    7.663905664   296.8387   5  10   3.0497   2.4845   8.0679   0.8584  -2.5751  -0.6902   0.00    0.0
2018/03/20 09:49:01.000   45.062373922    7.663905870   296.9492   5  10   3.0498   2.4843   8.0677   0.8583  -2.5741  -0.6947   0.00    0.0
2018/03/20 09:49:02.000   45.062373980    7.663906250   296.9920   5  10   3.0499   2.4841   8.0675   0.8583  -2.5732  -0.6991   0.00    0.0
2018/03/20 09:49:03.000   45.062374241    7.663906556   297.0876   5  10   3.0500   2.4839   8.0673   0.8583  -2.5722  -0.7034   0.00    0.0
2018/03/20 09:49:04.000   45.062374379    7.663906902   297.1260   5  10   3.0501   2.4837   8.0672   0.8582  -2.5712  -0.7078   0.00    0.0
2018/03/20 09:49:05.000   45.062374576    7.663907222   297.1420   5  10   3.0502   2.4835   8.0670   0.8582  -2.5702  -0.7121   0.00    0.0
2018/03/20 09:49:06.000   45.062374512    7.663907346   297.1393   5  10   3.0503   2.4834   8.0668   0.8582  -2.5693  -0.7164   0.00    0.0
2018/03/20 09:49:07.000   45.062374633    7.663907659   297.1587   5  10   3.0504   2.4832   8.0666   0.8581  -2.5683  -0.7206   0.00    0.0
2018/03/20 09:49:08.000   45.062374864    7.663908034   297.1011   5  10   3.0504   2.4830   8.0665   0.8581  -2.5673  -0.7249   0.00    0.0
2018/03/20 09:49:09.000   45.062375162    7.663908684   297.1055   5  10   3.0505   2.4828   8.0663   0.8580  -2.5663  -0.7291   0.00    0.0
2018/03/20 09:49:10.000   45.062375265    7.663908828   297.1227   5  10   3.0506   2.4826   8.0661   0.8580  -2.5653  -0.7333   0.00    0.0
2018/03/20 09:49:11.000   45.062375470    7.663909305   297.0078   5  10   3.0507   2.4824   8.0659   0.8580  -2.5644  -0.7375   0.00    0.0
2018/03/20 09:49:12.000   45.062375555    7.663909707   296.9438   5  10   3.0508   2.4823   8.0658   0.8579  -2.5634  -0.7416   0.00    0.0
2018/03/20 09:49:13.000   45.062375614    7.663909954   296.8577   5  10   3.0509   2.4821   8.0656   0.8579  -2.5624  -0.7458   0.00    0.0
2018/03/20 09:49:14.000   45.062375709    7.663910423   296.7367   5  10   3.0510   2.4819   8.0654   0.8578  -2.5614  -0.7499   0.00    0.0
2018/03/20 09:49:15.000   45.062376105    7.663910972   296.6998   5  10   3.0511   2.4817   8.0652   0.8578  -2.5605  -0.7540   0.00    0.0
2018/03/20 09:49:16.000   45.062376354    7.663911404   296.7402   5  10   3.0512   2.4815   8.0650   0.8578  -2.5595  -0.7580   0.00    0.0
2018/03/20 09:49:17.000   45.062376787    7.663911820   296.7814   5  10   3.0512   2.4813   8.0649   0.8577  -2.5585  -0.7621   0.00    0.0
2018/03/20 09:49:18.000   45.062377054    7.663912320   296.7186   5  10   3.0513   2.4812   8.0647   0.8577  -2.5575  -0.7661   0.00    0.0
2018/03/20 09:49:19.000   45.062377230    7.663912674   296.6818   5  10   3.0514   2.4810   8.0645   0.8576  -2.5565  -0.7701   0.00    0.0
2018/03/20 09:49:20.000   45.062377243    7.663913095   296.5650   5  10   3.0515   2.4808   8.0643   0.8576  -2.5556  -0.7741   0.00    0.0
2018/03/20 09:49:21.000   45.062377354    7.663913411   296.5230   5  10   3.0516   2.4806   8.0641   0.8576  -2.5546  -0.7781   0.00    0.0
2018/03/20 09:49:22.000   45.062377454    7.663913707   296.3878   5  10   3.0517   2.4804   8.0639   0.8575  -2.5536  -0.7820   0.00    0.0
2018/03/20 09:49:23.000   45.062377588    7.663914034   296.3410   5  10   3.0518   2.4802   8.0638   0.8575  -2.5526  -0.7859   0.00    0.0
2018/03/20 09:49:24.000   45.062377535    7.663914367   296.2581   5  10   3.0519   2.4801   8.0636   0.8574  -2.5516  -0.7898   0.00    0.0
2018/03/20 09:49:25.000   45.062377426    7.663914719   296.1009   5  10   3.0520   2.4799   8.0634   0.8574  -2.5506  -0.7937   0.00    0.0
2018/03/20 09:49:26.000   45.062377452    7.663915010   296.0335   5  10   3.0521   2.4797   8.0632   0.8573  -2.5497  -0.7976   0.00    0.0
2018/03/20 09:49:27.000   45.062377266    7.663915049   295.9736   5  10   3.0522   2.4795   8.0630   0.8573  -2.5487  -0.8015   0.00    0.0
2018/03/20 09:49:28.000   45.062377426    7.663915099   295.9580   5  10   3.0523   2.4793   8.0628   0.8572  -2.5477  -0.8053   0.00    0.0
2018/03/20 09:49:29.000   45.062377506    7.663915261   295.9343   5  10   3.0524   2.4791   8.0626   0.8572  -2.5467  -0.8091   0.00    0.0
2018/03/20 09:49:30.000   45.062377556    7.663915517   295.8575   5  10   3.0524   2.4790   8.0624   0.8571  -2.5457  -0.8129   0.00    0.0
2018/03/20 09:49:31.000   45.062377486    7.663915554   295.7900   5  10   3.0525   2.4788   8.0623   0.8571  -2.5447  -0.8167   0.00    0.0
2018/03/20 09:49:32.000   45.062377293    7.663915579   295.7551   5  10   3.0526   2.4786   8.0621   0.8571  -2.5437  -0.8205   0.00    0.0
2018/03/20 09:49:33.000   45.062377228    7.663915602   295.7240   5  10   3.0527   2.4784   8.0619   0.8570  -2.5428  -0.8242   0.00    0.0
2018/03/20 09:49:34.000   45.062377230    7.663915670   295.6099   5  10   3.0528   2.4782   8.0617   0.8570  -2.5418  -0.8280   0.00    0.0
2018/03/20 09:49:35.000   45.062377180    7.663915842   295.5795   5  10   3.0529   2.4781   8.0615   0.8569  -2.5408  -0.8317   0.00    0.0
2018/03/20 09:49:36.000   45.062377241    7.663915821   295.5427   5  10   3.0530   2.4779   8.0613   0.8569  -2.5398  -0.8354   0.00    0.0
2018/03/20 09:49:37.000   45.062377130    7.663916061   295.5008   5  10   3.0531   2.4777   8.0611   0.8568  -2.5388  -0.8391   0.00    0.0
2018/03/20 09:49:38.000   45.062377128    7.663916099   295.3908   5  10   3.0532   2.4775   8.0609   0.8568  -2.5378  -0.8428   0.00    0.0
2018/03/20 09:49:39.000   45.062377027    7.663915987   295.3366   5  10   3.0533   2.4773   8.0607   0.8567  -2.5368  -0.8465   0.00    0.0
2018/03/20 09:49:40.000   45.062377039    7.663915947   295.2714   5  10   3.0534   2.4772   8.0605   0.8567  -2.5358  -0.8501   0.00    0.0
2018/03/20 09:49:41.000   45.062377034    7.663915738   295.2856   5  10   3.0535   2.4770   8.0604   0.8566  -2.5348  -0.8537   0.00    0.0
2018/03/20 09:49:42.000   45.062376935    7.663915829   295.2389   5  10   3.0536   2.4768   8.0602   0.8566  -2.5339  -0.8573   0.00    0.0
2018/03/20 09:49:43.000   45.062376889    7.663915566   295.2432   5  10   3.0537   2.4766   8.0600   0.8565  -2.5329  -0.8610   0.00    0.0
2018/03/20 09:49:44.000   45.062376827    7.663915506   295.2714   5  10   3.0538   2.4764   8.0598   0.8565  -2.5319  -0.8645   0.00    0.0
2018/03/20 09:49:45.000   45.062376861    7.663915404   295.2434   5  10   3.0539   2.4763   8.0596   0.8564  -2.5309  -0.8681   0.00    0.0
2018/03/20 09:49:46.000   45.062376732    7.663915284   295.2036   5  10   3.0540   2.4761   8.0594   0.8563  -2.5299  -0.8717   0.00    0.0
2018/03/20 09:49:47.000   45.062376563    7.663914838   295.2060   5  10   3.0541   2.4759   8.0592   0.8563  -2.5289  -0.8752   0.00    0.0
2018/03/20 09:49:48.000   45.062376532    7.663914665   295.1486   5  10   3.0542   2.4757   8.0590   0.8562  -2.5279  -0.8788   0.00    0.0
2018/03/20 09:49:49.000   45.062376380    7.663914747   295.0990   5  10   3.0543   2.4756   8.0588   0.8562  -2.5269  -0.8823   0.00    0.0
2018/03/20 09:49:50.000   45.062376199    7.663914490   295.0923   5  10   3.0544   2.4754   8.0586   0.8561  -2.5259  -0.8858   0.00    0.0
2018/03/20 09:49:51.000   45.062376008    7.663914368   295.0727   5  10   3.0545   2.4752   8.0584   0.8561  -2.5249  -0.8893   0.00    0.0
2018/03/20 09:49:52.000   45.062375807    7.663914027   295.0583   5  10   3.0546   2.4750   8.0582   0.8560  -2.5239  -0.8928   0.00    0.0
2018/03/20 09:49:53.000   45.062375871    7.663913788   295.0685   5  10   3.0547   2.4748   8.0580   0.8560  -2.5229  -0.8962   0.00    0.0
2018/03/20 09:49:54.000   45.062375734    7.663913614   295.0270   5  10   3.0548   2.4747   8.0578   0.8559  -2.5219  -0.8997   0.00    0.0
2018/03/20 09:49:55.000   45.062375528    7.663913349   295.0281   5  10   3.0549   2.4745   8.0576   0.8558  -2.5209  -0.9031   0.00    0.0
2018/03/20 09:49:56.000   45.062375419    7.663913331   294.9755   5  10   3.0550   2.4743   8.0574   0.8558  -2.5199  -0.9066   0.00    0.0
2018/03/20 09:49:57.000   45.062375354    7.663913172   295.0004   5  10   3.0551   2.4741   8.0572   0.8557  -2.5189  -0.9100   0.00    0.0
2018/03/20 09:49:58.000   45.062375275    7.663913040   294.9793   5  10   3.0552   2.4740   8.0570   0.8557  -2.5179  -0.9134   0.00    0.0
2018/03/20 09:49:59.000   45.062375132    7.663912804   294.9274   5  10   3.0553   2.4738   8.0568   0.8556  -2.5169  -0.9168   0.00    0.0
2018/03/20 09:50:00.000   45.062374958    7.663912684   294.9446   5  10   3.0554   2.4736   8.0566   0.8556  -2.5159  -0.9202   0.00    0.0
2018/03/20 09:50:01.000   45.062374914    7.663912528   294.9446   5  10   3.0555   2.4734   8.0564   0.8555  -2.5149  -0.9236   0.00    0.0
2018/03/20 09:50:02.000   45.062374660    7.663912148   294.9174   5  10   3.0556   2.4733   8.0562   0.8554  -2.5139  -0.9269   0.00    0.0
2018/03/20 09:50:03.000   45.062374687    7.663912099   294.9271   5  10   3.0557   2.4731   8.0560   0.8554  -2.5129  -0.9303   0.00    0.0
2018/03/20 09:50:04.000   45.062374436    7.663912045   294.9313   5  10   3.0558   2.4729   8.0558   0.8553  -2.5119  -0.9336   0.00    0.0
2018/03/20 09:50:05.000   45.062374369    7.663911899   294.9345   5  10   3.0559   2.4727   8.0556   0.8552  -2.5109  -0.9369   0.00    0.0
2018/03/20 09:50:06.000   45.062374287    7.663911825   294.9090   5  10   3.0560   2.4726   8.0554   0.8552  -2.5099  -0.9403   0.00    0.0
2018/03/20 09:50:07.000   45.062374041    7.663911609   294.9389   5  10   3.0561   2.4724   8.0552   0.8551  -2.5089  -0.9436   0.00    0.0
2018/03/20 09:50:08.000   45.062373889    7.663911643   294.9347   5  10   3.0562   2.4722   8.0550   0.8551  -2.5079  -0.9469   0.00    0.0
2018/03/20 09:50:09.000   45.062373844    7.663911570   294.9558   5  10   3.0563   2.4720   8.0548   0.8550  -2.5069  -0.9501   0.00    0.0
2018/03/20 09:50:10.000   45.062373764    7.663911394   294.9203   5  10   3.0564   2.4719   8.0545   0.8549  -2.5059  -0.9534   0.00    0.0
2018/03/20 09:50:11.000   45.062373551    7.663911145   294.9604   5  10   3.0565   2.4717   8.0543   0.8549  -2.5049  -0.9567   0.00    0.0
2018/03/20 09:50:12.000   45.062373381    7.663910962   294.9206   5  10   3.0566   2.4715   8.0541   0.8548  -2.5039  -0.9599   0.00    0.0
2018/03/20 09:50:13.000   45.062373263    7.663911022   294.9334   5  10   3.0567   2.4713   8.0539   0.8547  -2.5029  -0.9632   0.00    0.0
2018/03/20 09:50:14.000   45.062372970    7.663910736   294.9743   5  10   3.0568   2.4712   8.0537   0.8547  -2.5019  -0.9664   0.00    0.0
2018/03/20 09:50:15.000   45.062372753    7.663910752   294.9557   5  10   3.0569   2.4710   8.0535   0.8546  -2.5009  -0.9696   0.00    0.0
2018/03/20 09:50:16.000   45.062372485    7.663910531   294.9909   5  10   3.0570   2.4708   8.0533   0.8545  -2.4999  -0.9728   0.00    0.0
2018/03/20 09:50:17.000   45.062372283    7.663910366   294.9365   5  10   3.0571   2.4706   8.0531   0.8545  -2.4989  -0.9760   0.00    0.0
2018/03/20 09:50:18.000   45.062371970    7.663910076   294.9646   5  10   3.0573   2.4705   8.0529   0.8544  -2.4979  -0.9792   0.00    0.0
2018/03/20 09:50:19.000   45.062371705    7.663910047   294.9424   5  10   3.0574   2.4703   8.0527   0.8543  -2.4969  -0.9824   0.00    0.0
2018/03/20 09:50:20.000   45.062371362    7.663909816   294.9036   5  10   3.0575   2.4701   8.0525   0.8543  -2.4958  -0.9856   0.00    0.0
2018/03/20 09:50:21.000   45.062371045    7.663909576   294.9161   5  10   3.0576   2.4700   8.0522   0.8542  -2.4948  -0.9888   0.00    0.0
2018/03/20 09:50:22.000   45.062370777    7.663909466   294.9111   5  10   3.0577   2.4698   8.0520   0.8541  -2.4938  -0.9919   0.00    0.0
2018/03/20 09:50:23.000   45.062370462    7.663909176   294.8895   5  10   3.0578   2.4696   8.0518   0.8541  -2.4928  -0.9951   0.00    0.0
2018/03/20 09:50:24.000   45.062370154    7.663909041   294.9209   5  10   3.0579   2.4694   8.0516   0.8540  -2.4918  -0.9982   0.00    0.0
2018/03/20 09:50:25.000   45.062369886    7.663908831   294.8824   5  10   3.0580   2.4693   8.0514   0.8539  -2.4908  -1.0013   0.00    0.0
2018/03/20 09:50:26.000   45.062369677    7.663908740   294.9449   5  10   3.0581   2.4691   8.0512   0.8539  -2.4898  -1.0044   0.00    0.0
2018/03/20 09:50:27.000   45.062369486    7.663908481   294.9581   5  10   3.0582   2.4689   8.0510   0.8538  -2.4888  -1.0076   0.00    0.0
2018/03/20 09:50:28.000   45.062369217    7.663908308   294.9427   5  10   3.0583   2.4687   8.0508   0.8537  -2.4878  -1.0107   0.00    0.0
2018/03/20 09:50:29.000   45.062369039    7.663908441   294.9424   5  10   3.0584   2.4686   8.0505   0.8536  -2.4867  -1.0137   0.00    0.0
2018/03/20 09:50:30.000   45.062368816    7.663908279   294.8921   5  10   3.0586   2.4684   8.0503   0.8536  -2.4857  -1.0168   0.00    0.0
2018/03/20 09:50:31.000   45.062368682    7.663908007   294.9105   5  10   3.0587   2.4682   8.0501   0.8535  -2.4847  -1.0199   0.00    0.0
2018/03/20 09:50:32.000   45.062366689    7.663907582   295.4544   5  11   2.7958   2.4570   7.0449   0.6624  -2.2935   1.9459   0.00    0.0
2018/03/20 09:50:33.000   45.062366797    7.663907501   295.3541   5  11   2.7957   2.4569   7.0447   0.6626  -2.2927   1.9447   0.00    0.0
2018/03/20 09:50:34.000   45.062366940    7.663907506   295.1823   5  11   2.7956   2.4567   7.0445   0.6628  -2.2919   1.9435   0.00    0.0
2018/03/20 09:50:35.000   45.062366838    7.663907371   295.1105   5  11   2.7956   2.4566   7.0442   0.6629  -2.2911   1.9423   0.00    0.0
2018/03/20 09:50:36.000   45.062366485    7.663907314   295.1442   5  11   2.7955   2.4565   7.0440   0.6631  -2.2903   1.9411   0.00    0.0
2018/03/20 09:50:37.000   45.062366259    7.663907174   295.1774   5  11   2.7954   2.4563   7.0438   0.6633  -2.2895   1.9400   0.00    0.0
2018/03/20 09:50:38.000   45.062366180    7.663906901   295.1405   5  11   2.7953   2.4562   7.0436   0.6634  -2.2888   1.9388   0.00    0.0
2018/03/20 09:50:39.000   45.062365901    7.663907042   295.0848   5  11   2.7952   2.4561   7.0434   0.6636  -2.2880   1.9376   0.00    0.0
2018/03/20 09:50:40.000   45.062365945    7.663907027   294.9995   5  11   2.7952   2.4559   7.0431   0.6638  -2.2872   1.9364   0.00    0.0
2018/03/20 09:50:41.000   45.062365700    7.663906889   294.9301   5  11   2.7951   2.4558   7.0429   0.6639  -2.2864   1.9352   0.00    0.0
2018/03/20 09:50:42.000   45.062365664    7.663906923   294.8820   5  11   2.7950   2.4557   7.0427   0.6641  -2.2856   1.9340   0.00    0.0
2018/03/20 09:50:43.000   45.062365527    7.663907075   294.8615   5  11   2.7949   2.4555   7.0425   0.6643  -2.2848   1.9328   0.00    0.0
2018/03/20 09:50:44.000   45.062365391    7.663907165   294.8345   5  11   2.7949   2.4554   7.0422   0.6644  -2.2840   1.9316   0.00    0.0
2018/03/20 09:50:45.000   45.062365102    7.663907199   294.8219   5  11   2.7948   2.4552   7.0420   0.6646  -2.2832   1.9304   0.00    0.0
2018/03/20 09:50:46.000   45.062365254    7.663907246   294.7178   5  11   2.7947   2.4551   7.0418   0.6647  -2.2825   1.9292   0.00    0.0
2018/03/20 09:50:47.000   45.062365183    7.663907256   294.6403   5  11   2.7946   2.4550   7.0416   0.6649  -2.2817   1.9281   0.00    0.0
2018/03/20 09:50:48.000   45.062365192    7.663907363   294.5934   5  11   2.7946   2.4548   7.0414   0.6651  -2.2809   1.9269   0.00    0.0
2018/03/20 09:50:49.000   45.062365053    7.663907497   294.5022   5  11   2.7945   2.4547   7.0411   0.6652  -2.2801   1.9257   0.00    0.0
2018/03/20 09:50:50.000   45.062365131    7.663907471   294.4007   5  11   2.7944   2.4546   7.0409   0.6654  -2.2793   1.9245   0.00    0.0
2018/03/20 09:50:51.000   45.062365230    7.663907642   294.3424   5  11   2.7944   2.4544   7.0407   0.6656  -2.2785   1.9233   0.00    0.0
2018/03/20 09:50:52.000   45.062365303    7.663907708   294.2600   5  11   2.7943   2.4543   7.0404   0.6657  -2.2777   1.9221   0.00    0.0
2018/03/20 09:50:53.000   45.062365358    7.663907701   294.2000   5  11   2.7942   2.4542   7.0402   0.6659  -2.2769   1.9209   0.00    0.0
2018/03/20 09:50:54.000   45.062365261    7.663907616   294.2419   5  11   2.7941   2.4540   7.0400   0.6660  -2.2761   1.9196   0.00    0.0
2018/03/20 09:50:55.000   45.062365600    7.663907664   294.1633   5  11   2.7941   2.4539   7.0398   0.6662  -2.2753   1.9184   0.00    0.0
2018/03/20 09:50:56.000   45.062365360    7.663907516   294.1953   5  11   2.7940   2.4538   7.0395   0.6664  -2.2745   1.9172   0.00    0.0
2018/03/20 09:50:57.000   45.062365627    7.663907594   294.1564   5  11   2.7939   2.4536   7.0393   0.6665  -2.2738   1.9160   0.00    0.0
2018/03/20 09:50:58.000   45.062365602    7.663907463   294.1603   5  11   2.7938   2.4535   7.0391   0.6667  -2.2730   1.9148   0.00    0.0
2018/03/20 09:50:59.000   45.062365839    7.663907496   294.0845   5  11   2.7938   2.4534   7.0389   0.6668  -2.2722   1.9136   0.00    0.0
2018/03/20 09:51:00.000   45.062366106    7.663907497   293.9865   5  11   2.7937   2.4532   7.0386   0.6670  -2.2714   1.9124   0.00    0.0
2018/03/20 09:51:01.000   45.062366168    7.663907310   294.0376   5  11   2.7936   2.4531   7.0384   0.6672  -2.2706   1.9112   0.00    0.0
2018/03/20 09:51:02.000   45.062366223    7.663907452   294.0440   5  11   2.7936   2.4530   7.0382   0.6673  -2.2698   1.9100   0.00    0.0
2018/03/20 09:51:03.000   45.062366330    7.663907276   294.0539   5  11   2.7935   2.4528   7.0379   0.6675  -2.2690   1.9088   0.00    0.0
2018/03/20 09:51:04.000   45.062366476    7.663907353   294.0516   5  11   2.7934   2.4527   7.0377   0.6676  -2.2682   1.9076   0.00    0.0
2018/03/20 09:51:05.000   45.062366593    7.663907274   294.0855   5  11   2.7933   2.4526   7.0375   0.6678  -2.2674   1.9063   0.00    0.0
2018/03/20 09:51:06.000   45.062366887    7.663907269   294.0371   5  11   2.7933   2.4524   7.0373   0.6679  -2.2666   1.9051   0.00    0.0
2018/03/20 09:51:07.000   45.062367084    7.663907222   294.0011   5  11   2.7932   2.4523   7.0370   0.6681  -2.2658   1.9039   0.00    0.0
2018/03/20 09:51:08.000   45.062367388    7.663907211   293.9142   5  11   2.7931   2.4522   7.0368   0.6683  -2.2650   1.9027   0.00    0.0
2018/03/20 09:51:09.000   45.062367594    7.663907178   293.9420   5  11   2.7931   2.4520   7.0366   0.6684  -2.2642   1.9015   0.00    0.0
2018/03/20 09:51:10.000   45.062367736    7.663907133   293.9498   5  11   2.7930   2.4519   7.0363   0.6686  -2.2634   1.9002   0.00    0.0
2018/03/20 09:51:11.000   45.062367965    7.663907137   293.9032   5  11   2.7929   2.4518   7.0361   0.6687  -2.2626   1.8990   0.00    0.0
2018/03/20 09:51:12.000   45.062368116    7.663907062   293.9617   5  11   2.7928   2.4516   7.0359   0.6689  -2.2618   1.8978   0.00    0.0
2018/03/20 09:51:13.000   45.062368061    7.663906991   294.0317   5  11   2.7928   2.4515   7.0356   0.6690  -2.2610   1.8966   0.00    0.0
2018/03/20 09:51:14.000   45.062368316    7.663907076   294.0757   5  11   2.7927   2.4514   7.0354   0.6692  -2.2602   1.8954   0.00    0.0
2018/03/20 09:51:15.000   45.062368428    7.663906980   294.1158   5  11   2.7926   2.4513   7.0352   0.6693  -2.2594   1.8941   0.00    0.0
2018/03/20 09:51:16.000   45.062368411    7.663906949   294.1874   5  11   2.7926   2.4511   7.0349   0.6695  -2.2586   1.8929   0.00    0.0
2018/03/20 09:51:17.000   45.062368449    7.663906876   294.2416   5  11   2.7925   2.4510   7.0347   0.6696  -2.2578   1.8917   0.00    0.0
2018/03/20 09:51:18.000   45.062368428    7.663906946   294.2557   5  11   2.7924   2.4509   7.0345   0.6698  -2.2570   1.8904   0.00    0.0
2018/03/20 09:51:19.000   45.062368529    7.663907009   294.2935   5  11   2.7924   2.4507   7.0342   0.6699  -2.2562   1.8892   0.00    0.0
2018/03/20 09:51:20.000   45.062368742    7.663907243   294.3102   5  11   2.7923   2.4506   7.0340   0.6701  -2.2555   1.8880   0.00    0.0
2018/03/20 09:51:21.000   45.062368881    7.663907369   294.3145   5  11   2.7922   2.4505   7.0338   0.6702  -2.2547   1.8867   0.00    0.0
2018/03/20 09:51:22.000   45.062369010    7.663907426   294.3098   5  11   2.7922   2.4503   7.0335   0.6704  -2.2539   1.8855   0.00    0.0
2018/03/20 09:51:23.000   45.062369193    7.663907726   294.2662   5  11   2.7921   2.4502   7.0333   0.6705  -2.2531   1.8843   0.00    0.0
2018/03/20 09:51:24.000   45.062369281    7.663907692   294.2881   5  11   2.7920   2.4501   7.0331   0.6707  -2.2523   1.8830   0.00    0.0
2018/03/20 09:51:25.000   45.062369461    7.663907932   294.2893   5  11   2.7919   2.4500   7.0328   0.6708  -2.2515   1.8818   0.00    0.0
2018/03/20 09:51:26.000   45.062369544    7.663908048   294.2716   5  11   2.7919   2.4498   7.0326   0.6710  -2.2507   1.8806   0.00    0.0
2018/03/20 09:51:27.000   45.062369593    7.663908153   294.3272   5  11   2.7918   2.4497   7.0323   0.6711  -2.2499   1.8793   0.00    0.0
2018/03/20 09:51:28.000   45.062369680    7.663908194   294.3291   5  11   2.7917   2.4496   7.0321   0.6713  -2.2491   1.8781   0.00    0.0
2018/03/20 09:51:29.000   45.062369676    7.663908300   294.3723   5  11   2.7917   2.4494   7.0319   0.6714  -2.2483   1.8768   0.00    0.0
2018/03/20 09:51:30.000   45.062369955    7.663908667   294.2988   5  11   2.7916   2.4493   7.0316   0.6716  -2.2475   1.8756   0.00    0.0
2018/03/20 09:51:31.000   45.062370018    7.663908714   294.3393   5  11   2.7915   2.4492   7.0314   0.6717  -2.2466   1.8744   0.00    0.0
2018/03/20 09:51:32.000   45.062370306    7.663908848   294.3529   5  11   2.7915   2.4490   7.0312   0.6719  -2.2458   1.8731   0.00    0.0
2018/03/20 09:51:33.000   45.062370481    7.663908898   294.3711   5  11   2.7914   2.4489   7.0309   0.6720  -2.2450   1.8719   0.00    0.0
2018/03/20 09:51:34.000   45.062370559    7.663909008   294.3917   5  11   2.7913   2.4488   7.0307   0.6722  -2.2442   1.8706   0.00    0.0
2018/03/20 09:51:35.000   45.062370808    7.663909151   294.3829   5  11   2.7913   2.4487   7.0304   0.6723  -2.2434   1.8694   0.00    0.0
2018/03/20 09:51:36.000   45.062370989    7.663909406   294.3676   5  11   2.7912   2.4485   7.0302   0.6725  -2.2426   1.8681   0.00    0.0
2018/03/20 09:51:37.000   45.062371264    7.663909706   294.3623   5  11   2.7911   2.4484   7.0300   0.6726  -2.2418   1.8669   0.00    0.0
2018/03/20 09:51:38.000   45.062371462    7.663909684   294.3993   5  11   2.7911   2.4483   7.0297   0.6728  -2.2410   1.8656   0.00    0.0
2018/03/20 09:51:39.000   45.062371621    7.663909928   294.3528   5  11   2.7910   2.4481   7.0295   0.6729  -2.2402   1.8644   0.00    0.0
2018/03/20 09:51:40.000   45.062371867    7.663910243   294.3750   5  11   2.7910   2.4480   7.0292   0.6730  -2.2394   1.8631   0.00    0.0
2018/03/20 09:51:41.000   45.062372022    7.663910385   294.2977   5  11   2.7909   2.4479   7.0290   0.6732  -2.2386   1.8618   0.00    0.0
2018/03/20 09:51:42.000   45.062372300    7.663910688   294.2913   5  11   2.7908   2.4478   7.0288   0.6733  -2.2378   1.8606   0.00    0.0
2018/03/20 09:51:43.000   45.062372597    7.663910823   294.2704   5  11   2.7908   2.4476   7.0285   0.6735  -2.2370   1.8593   0.00    0.0
2018/03/20 09:51:44.000   45.062373025    7.663911165   294.1983   5  11   2.7907   2.4475   7.0283   0.6736  -2.2362   1.8581   0.00    0.0
2018/03/20 09:51:45.000   45.062373061    7.663911357   294.1883   5  11   2.7906   2.4474   7.0280   0.6738  -2.2354   1.8568   0.00    0.0
2018/03/20 09:51:46.000   45.062373229    7.663911555   294.1880   5  11   2.7906   2.4473   7.0278   0.6739  -2.2346   1.8555   0.00    0.0
2018/03/20 09:51:47.000   45.062373481    7.663911514   294.1717   5  11   2.7905   2.4471   7.0276   0.6740  -2.2338   1.8543   0.00    0.0
2018/03/20 09:51:48.000   45.062373749    7.663911897   294.1264   5  11   2.7904   2.4470   7.0273   0.6742  -2.2330   1.8530   0.00    0.0
2018/03/20 09:51:49.000   45.062373775    7.663911833   294.1188   5  11   2.7904   2.4469   7.0271   0.6743  -2.2322   1.8518   0.00    0.0
2018/03/20 09:51:50.000   45.062374004    7.663911894   294.1303   5  11   2.7903   2.4468   7.0268   0.6745  -2.2314   1.8505   0.00    0.0
2018/03/20 09:51:51.000   45.062374130    7.663912057   294.0787   5  11   2.7903   2.4466   7.0266   0.6746  -2.2306   1.8492   0.00    0.0
2018/03/20 09:51:52.000   45.062374477    7.663912245   294.0614   5  11   2.7902   2.4465   7.0263   0.6747  -2.2298   1.8480   0.00    0.0
2018/03/20 09:51:53.000   45.062374585    7.663912208   294.0514   5  11   2.7901   2.4464   7.0261   0.6749  -2.2289   1.8467   0.00    0.0
2018/03/20 09:51:54.000   45.062374585    7.663912505   294.0231   5  11   2.7901   2.4462   7.0258   0.6750  -2.2281   1.8454   0.00    0.0
2018/03/20 09:51:55.000   45.062374705    7.663912718   293.9863   5  11   2.7900   2.4461   7.0256   0.6752  -2.2273   1.8441   0.00    0.0
2018/03/20 09:51:56.000   45.062374765    7.663912859   294.0049   5  11   2.7899   2.4460   7.0254   0.6753  -2.2265   1.8429   0.00    0.0
2018/03/20 09:51:57.000   45.062374726    7.663912871   294.0030   5  11   2.7899   2.4459   7.0251   0.6754  -2.2257   1.8416   0.00    0.0
2018/03/20 09:51:58.000   45.062374859    7.663913031   294.0209   5  11   2.7898   2.4457   7.0249   0.6756  -2.2249   1.8403   0.00    0.0
2018/03/20 09:51:59.000   45.062374829    7.663913107   294.0468   5  11   2.7898   2.4456   7.0246   0.6757  -2.2241   1.8390   0.00    0.0
2018/03/20 09:52:00.000   45.062374759    7.663913326   294.0420   5  11   2.7897   2.4455   7.0244   0.6758  -2.2233   1.8378   0.00    0.0
2018/03/20 09:52:01.000   45.062374741    7.663913376   294.0267   5  11   2.7896   2.4454   7.0241   0.6760  -2.2225   1.8365   0.00    0.0
2018/03/20 09:52:02.000   45.062374691    7.663913450   294.0701   5  11   2.7896   2.4452   7.0239   0.6761  -2.2217   1.8352   0.00    0.0
2018/03/20 09:52:03.000   45.062374692    7.663913523   294.0717   5  11   2.7895   2.4451   7.0236   0.6763  -2.2209   1.8339   0.00    0.0
2018/03/20 09:52:04.000   45.062374679    7.663913611   294.0939   5  11   2.7894   2.4450   7.0234   0.6764  -2.2200   1.8326   0.00    0.0
2018/03/20 09:52:05.000   45.062374569    7.663913742   294.0909   5  11   2.7894   2.4449   7.0231   0.6765  -2.2192   1.8314   0.00    0.0
2018/03/20 09:52:06.000   45.062374580    7.663913906   294.1145   5  11   2.7893   2.4447   7.0229   0.6767  -2.2184   1.8301   0.00    0.0
2018/03/20 09:52:07.000   45.062374498    7.663914117   294.0959   5  11   2.7893   2.4446   7.0226   0.6768  -2.2176   1.8288   0.00    0.0
2018/03/20 09:52:08.000   45.062374478    7.663914059   294.1251   5  11   2.7892   2.4445   7.0224   0.6769  -2.2168   1.8275   0.00    0.0
2018/03/20 09:52:09.000   45.062374392    7.663914028   294.1486   5  11   2.7891   2.4444   7.0221   0.6771  -2.2160   1.8262   0.00    0.0
2018/03/20 09:52:10.000   45.062374233    7.663914111   294.1580   5  11   2.7891   2.4442   7.0219   0.6772  -2.2152   1.8249   0.00    0.0
2018/03/20 09:52:11.000   45.062374073    7.663914216   294.1940   5  11   2.7890   2.4441   7.0216   0.6773  -2.2144   1.8236   0.00    0.0
2018/03/20 09:52:12.000   45.062373953    7.663914370   294.1942   5  11   2.7890   2.4440   7.0214   0.6775  -2.2136   1.8223   0.00    0.0
2018/03/20 09:52:13.000   45.062373828    7.663914483   294.2305   5  11   2.7889   2.4439   7.0211   0.6776  -2.2127   1.8211   0.00    0.0
2018/03/20 09:52:14.000   45.062373714    7.663914407   294.2879   5  11   2.7889   2.4438   7.0209   0.6777  -2.2119   1.8198   0.00    0.0
2018/03/20 09:52:15.000   45.062373634    7.663914721   294.3101   5  11   2.7888   2.4436   7.0206   0.6778  -2.2111   1.8185   0.00    0.0
2018/03/20 09:52:16.000   45.062373389    7.663914706   294.3438   5  11   2.7887   2.4435   7.0204   0.6780  -2.2103   1.8172   0.00    0.0
2018/03/20 09:52:17.000   45.062373247    7.663914867   294.3889   5  11   2.7887   2.4434   7.0201   0.6781  -2.2095   1.8159   0.00    0.0
2018/03/20 09:52:18.000   45.062373103    7.663914932   294.4392   5  11   2.7886   2.4433   7.0199   0.6782  -2.2087   1.8146   0.00    0.0
2018/03/20 09:52:19.000   45.062372960    7.663914986   294.4292   5  11   2.7886   2.4431   7.0196   0.6784  -2.2079   1.8133   0.00    0.0
2018/03/20 09:52:20.000   45.062372840    7.663914897   294.4901   5  11   2.7885   2.4430   7.0194   0.6785  -2.2070   1.8120   0.00    0.0
2018/03/20 09:52:21.000   45.062372594    7.663914987   294.5196   5  11   2.7884   2.4429   7.0191   0.6786  -2.2062   1.8107   0.00    0.0
2018/03/20 09:52:22.000   45.062372459    7.663915011   294.5577   5  11   2.7884   2.4428   7.0189   0.6787  -2.2054   1.8094   0.00    0.0
2018/03/20 09:52:23.000   45.062372364    7.663915180   294.5983   5  11   2.7883   2.4427   7.0186   0.6789  -2.2046   1.8081   0.00    0.0
2018/03/20 09:52:24.000   45.062372164    7.663915028   294.6749   5  11   2.7883   2.4425   7.0184   0.6790  -2.2038   1.8067   0.00    0.0
2018/03/20 09:52:25.000   45.062371814    7.663915030   294.7050   5  11   2.7882   2.4424   7.0181   0.6791  -2.2030   1.8054   0.00    0.0
2018/03/20 09:52:26.000   45.062371669    7.663915198   294.7276   5  11   2.7882   2.4423   7.0179   0.6793  -2.2022   1.8041   0.00    0.0
2018/03/20 09:52:27.000   45.062371348    7.663915161   294.7622   5  11   2.7881   2.4422   7.0176   0.6794  -2.2013   1.8028   0.00    0.0
2018/03/20 09:52:28.000   45.062371222    7.663915248   294.7950   5  11   2.7881   2.4420   7.0174   0.6795  -2.2005   1.8015   0.00    0.0
2018/03/20 09:52:29.000   45.062370975    7.663915248   294.8236   5  11   2.7880   2.4419   7.0171   0.6796  -2.1997   1.8002   0.00    0.0
2018/03/20 09:52:30.000   45.062370844    7.663915388   294.8457   5  11   2.7879   2.4418   7.0169   0.6798  -2.1989   1.7989   0.00    0.0
2018/03/20 09:52:31.000   45.062370573    7.663915458   294.8736   5  11   2.7879   2.4417   7.0166   0.6799  -2.1981   1.7976   0.00    0.0
2018/03/20 09:52:32.000   45.062370331    7.663915391   294.9236   5  11   2.7878   2.4416   7.0163   0.6800  -2.1973   1.7963   0.00    0.0
2018/03/20 09:52:33.000   45.062370038    7.663915478   294.9862   5  11   2.7878   2.4414   7.0161   0.6801  -2.1964   1.7949   0.00    0.0
2018/03/20 09:52:34.000   45.062369773    7.663915419   295.0409   5  11   2.7877   2.4413   7.0158   0.6803  -2.1956   1.7936   0.00    0.0
2018/03/20 09:52:35.000   45.062369400    7.663915478   295.0140   5  11   2.7877   2.4412   7.0156   0.6804  -2.1948   1.7923   0.00    0.0
2018/03/20 09:52:36.000   45.062368990    7.663915432   295.0567   5  11   2.7876   2.4411   7.0153   0.6805  -2.1940   1.7910   0.00    0.0
2018/03/20 09:52:37.000   45.062368914    7.663915391   295.0806   5  11   2.7876   2.4410   7.0151   0.6806  -2.1932   1.7897   0.00    0.0
2018/03/20 09:52:38.000   45.062368602    7.663915378   295.1200   5  11   2.7875   2.4408   7.0148   0.6807  -2.1923   1.7883   0.00    0.0
2018/03/20 09:52:39.000   45.062368369    7.663915288   295.1738   5  11   2.7874   2.4407   7.0146   0.6809  -2.1915   1.7870   0.00    0.0
2018/03/20 09:52:40.000   45.062368145    7.663915390   295.1929   5  11   2.7874   2.4406   7.0143   0.6810  -2.1907   1.7857   0.00    0.0
2018/03/20 09:52:41.000   45.062367867    7.663915338   295.2481   5  11   2.7873   2.4405   7.0140   0.6811  -2.1899   1.7844   0.00    0.0
2018/03/20 09:52:42.000   45.062367601    7.663915279   295.2532   5  11   2.7873   2.4404   7.0138   0.6812  -2.1891   1.7830   0.00    0.0
2018/03/20 09:52:43.000   45.062367508    7.663915259   295.2899   5  11   2.7872   2.4402   7.0135   0.6814  -2.1882   1.7817   0.00    0.0
2018/03/20 09:52:44.000   45.062367244    7.663915236   295.3351   5  11   2.7872   2.4401   7.0133   0.6815  -2.1874   1.7804   0.00    0.0
2018/03/20 09:52:45.000   45.062367077    7.663915241   295.3806   5  11   2.7871   2.4400   7.0130   0.6816  -2.1866   1.7790   0.00    0.0
2018/03/20 09:52:46.000   45.062366826    7.663915366   295.3944   5  11   2.7871   2.4399   7.0128   0.6817  -2.1858   1.7777   0.00    0.0
2018/03/20 09:52:47.000   45.062366518    7.663915376   295.4107   5  11   2.7870   2.4398   7.0125   0.6818  -2.1850   1.7764   0.00    0.0
2018/03/20 09:52:48.000   45.062366505    7.663915395   295.4217   5  11   2.7870   2.4396   7.0122   0.6819  -2.1841   1.7750   0.00    0.0
2018/03/20 09:52:49.000   45.062366375    7.663915247   295.4195   5  11   2.7869   2.4395   7.0120   0.6821  -2.1833   1.7737   0.00    0.0
2018/03/20 09:52:50.000   45.062366210    7.663915108   295.4115   5  11   2.7869   2.4394   7.0117   0.6822  -2.1825   1.7724   0.00    0.0
2018/03/20 09:52:51.000   45.062366027    7.663915003   295.4486   5  11   2.7868   2.4393   7.0115   0.6823  -2.1817   1.7710   0.00    0.0
2018/03/20 09:52:52.000   45.062365922    7.663915050   295.4707   5  11   2.7868   2.4392   7.0112   0.6824  -2.1808   1.7697   0.00    0.0
2018/03/20 09:52:53.000   45.062365725    7.663914892   295.4446   5  11   2.7867   2.4390   7.0109   0.6825  -2.1800   1.7683   0.00    0.0
2018/03/20 09:52:54.000   45.062365667    7.663914643   295.4219   5  11   2.7867   2.4389   7.0107   0.6826  -2.1792   1.7670   0.00    0.0
2018/03/20 09:52:55.000   45.062365730    7.663914611   295.4543   5  11   2.7866   2.4388   7.0104   0.6828  -2.1784   1.7656   0.00    0.0
2018/03/20 09:52:56.000   45.062365734    7.663914479   295.4230   5  11   2.7866   2.4387   7.0102   0.6829  -2.1776   1.7643   0.00    0.0
2018/03/20 09:52:57.000   45.062365684    7.663914378   295.3853   5  11   2.7865   2.4386   7.0099   0.6830  -2.1767   1.7629   0.00    0.0
2018/03/20 09:52:58.000   45.062365643    7.663914272   295.3698   5  11   2.7865   2.4385   7.0096   0.6831  -2.1759   1.7616   0.00    0.0
2018/03/20 09:52:59.000   45.062365527    7.663914119   295.3593   5  11   2.7864   2.4383   7.0094   0.6832  -2.1751   1.7602   0.00    0.0
2018/03/20 09:53:00.000   45.062365698    7.663913977   295.3826   5  11   2.7864   2.4382   7.0091   0.6833  -2.1743   1.7589   0.00    0.0
2018/03/20 09:53:01.000   45.062365555    7.663913976   295.3668   5  11   2.7863   2.4381   7.0088   0.6835  -2.1734   1.7575   0.00    0.0
2018/03/20 09:53:02.000   45.062365573    7.663913928   295.3498   5  11   2.7863   2.4380   7.0086   0.6836  -2.1726   1.7562   0.00    0.0
2018/03/20 09:53:03.000   45.062365598    7.663913767   295.3034   5  11   2.7862   2.4379   7.0083   0.6837  -2.1718   1.7548   0.00    0.0
2018/03/20 09:53:04.000   45.062365505    7.663913586   295.3059   5  11   2.7862   2.4378   7.0081   0.6838  -2.1710   1.7535   0.00    0.0
2018/03/20 09:53:05.000   45.062365556    7.663913581   295.3010   5  11   2.7861   2.4376   7.0078   0.6839  -2.1701   1.7521   0.00    0.0
2018/03/20 09:53:06.000   45.062365621    7.663913378   295.2983   5  11   2.7861   2.4375   7.0075   0.6840  -2.1693   1.7508   0.00    0.0
2018/03/20 09:53:07.000   45.062365639    7.663913240   295.3018   5  11   2.7860   2.4374   7.0073   0.6841  -2.1685   1.7494   0.00    0.0
2018/03/20 09:53:08.000   45.062365682    7.663913002   295.3500   5  11   2.7860   2.4373   7.0070   0.6842  -2.1676   1.7480   0.00    0.0
2018/03/20 09:53:09.000   45.062365759    7.663912785   295.3292   5  11   2.7859   2.4372   7.0067   0.6843  -2.1668   1.7467   0.00    0.0
2018/03/20 09:53:10.000   45.062365980    7.663912651   295.3407   5  11   2.7859   2.4371   7.0065   0.6845  -2.1660   1.7453   0.00    0.0
2018/03/20 09:53:11.000   45.062365915    7.663912427   295.3713   5  11   2.7858   2.4369   7.0062   0.6846  -2.1652   1.7439   0.00    0.0
2018/03/20 09:53:12.000   45.062366071    7.663912304   295.3772   5  11   2.7858   2.4368   7.0059   0.6847  -2.1643   1.7426   0.00    0.0
2018/03/20 09:53:13.000   45.062366182    7.663912199   295.3796   5  11   2.7857   2.4367   7.0057   0.6848  -2.1635   1.7412   0.00    0.0
2018/03/20 09:53:14.000   45.062366228    7.663912190   295.3793   5  11   2.7857   2.4366   7.0054   0.6849  -2.1627   1.7398   0.00    0.0
2018/03/20 09:53:15.000   45.062366344    7.663912156   295.3651   5  11   2.7856   2.4365   7.0052   0.6850  -2.1618   1.7385   0.00    0.0
2018/03/20 09:53:16.000   45.062366450    7.663912077   295.3638   5  11   2.7856   2.4364   7.0049   0.6851  -2.1610   1.7371   0.00    0.0
2018/03/20 09:53:17.000   45.062366584    7.663911781   295.3999   5  11   2.7855   2.4363   7.0046   0.6852  -2.1602   1.7357   0.00    0.0
2018/03/20 09:53:18.000   45.062366725    7.663911570   295.4211   5  11   2.7855   2.4361   7.0044   0.6853  -2.1594   1.7343   0.00    0.0
2018/03/20 09:53:19.000   45.062366884    7.663911608   295.3870   5  11   2.7854   2.4360   7.0041   0.6854  -2.1585   1.7330   0.00    0.0
2018/03/20 09:53:20.000   45.062367064    7.663911275   295.4077   5  11   2.7854   2.4359   7.0038   0.6855  -2.1577   1.7316   0.00    0.0
2018/03/20 09:53:21.000   45.062367190    7.663911330   295.4139   5  11   2.7854   2.4358   7.0036   0.6856  -2.1569   1.7302   0.00    0.0
2018/03/20 09:53:22.000   45.062367348    7.663911054   295.4106   5  11   2.7853   2.4357   7.0033   0.6857  -2.1560   1.7288   0.00    0.0
2018/03/20 09:53:23.000   45.062367348    7.663910837   295.4217   5  11   2.7853   2.4356   7.0030   0.6858  -2.1552   1.7274   0.00    0.0
2018/03/20 09:53:24.000   45.062367391    7.663910781   295.3893   5  11   2.7852   2.4355   7.0028   0.6859  -2.1544   1.7261   0.00    0.0
2018/03/20 09:53:25.000   45.062367623    7.663910649   295.4124   5  11   2.7852   2.4353   7.0025   0.6861  -2.1535   1.7247   0.00    0.0
2018/03/20 09:53:26.000   45.062367858    7.663910542   295.3839   5  11   2.7851   2.4352   7.0022   0.6862  -2.1527   1.7233   0.00    0.0
2018/03/20 09:53:27.000   45.062368089    7.663910423   295.3791   5  11   2.7851   2.4351   7.0019   0.6863  -2.1519   1.7219   0.00    0.0
2018/03/20 09:53:28.000   45.062368290    7.663910352   295.4269   5  11   2.7850   2.4350   7.0017   0.6864  -2.1510   1.7205   0.00    0.0
2018/03/20 09:53:29.000   45.062368455    7.663910302   295.4419   5  11   2.7850   2.4349   7.0014   0.6865  -2.1502   1.7191   0.00    0.0
2018/03/20 09:53:30.000   45.062368678    7.663910138   295.4712   5  11   2.7850   2.4348   7.0011   0.6866  -2.1494   1.7177   0.00    0.0
2018/03/20 09:53:31.000   45.062369041    7.663910048   295.4855   5  11   2.7849   2.4347   7.0009   0.6867  -2.1485   1.7163   0.00    0.0
2018/03/20 09:53:32.000   45.062369213    7.663910144   295.4742   5  11   2.7849   2.4346   7.0006   0.6868  -2.1477   1.7150   0.00    0.0
2018/03/20 09:53:33.000   45.062369601    7.663910177   295.4702   5  11   2.7848   2.4344   7.0003   0.6869  -2.1469   1.7136   0.00    0.0
2018/03/20 09:53:34.000   45.062369876    7.663910154   295.4991   5  11   2.7848   2.4343   7.0001   0.6870  -2.1460   1.7122   0.00    0.0
2018/03/20 09:53:35.000   45.062370108    7.663909910   295.4752   5  11   2.7847   2.4342   6.9998   0.6871  -2.1452   1.7108   0.00    0.0
2018/03/20 09:53:36.000   45.062370339    7.663910011   295.4849   5  11   2.7847   2.4341   6.9995   0.6872  -2.1444   1.7094   0.00    0.0
2018/03/20 09:53:37.000   45.062370712    7.663909914   295.5045   5  11   2.7847   2.4340   6.9993   0.6873  -2.1435   1.7080   0.00    0.0
2018/03/20 09:53:38.000   45.062370865    7.663909982   295.5317   5  11   2.7846   2.4339   6.9990   0.6874  -2.1427   1.7066   0.00    0.0
2018/03/20 09:53:39.000   45.062371219    7.663910237   295.5151   5  11   2.7846   2.4338   6.9987   0.6875  -2.1419   1.7052   0.00    0.0
2018/03/20 09:53:40.000   45.062371430    7.663910175   295.5270   5  11   2.7845   2.4337   6.9984   0.6876  -2.1410   1.7037   0.00    0.0
2018/03/20 09:53:41.000   45.062371740    7.663910347   295.5009   5  11   2.7845   2.4335   6.9982   0.6877  -2.1402   1.7023   0.00    0.0
2018/03/20 09:53:42.000   45.062372017    7.663910341   295.5086   5  11   2.7844   2.4334   6.9979   0.6878  -2.1394   1.7009   0.00    0.0
2018/03/20 09:53:43.000   45.062372086    7.663910409   295.5157   5  11   2.7844   2.4333   6.9976   0.6879  -2.1385   1.6995   0.00    0.0
2018/03/20 09:53:44.000   45.062372257    7.663910434   295.5096   5  11   2.7844   2.4332   6.9974   0.6880  -2.1377   1.6981   0.00    0.0
2018/03/20 09:53:45.000   45.062372346    7.663910382   295.5270   5  11   2.7843   2.4331   6.9971   0.6881  -2.1369   1.6967   0.00    0.0
2018/03/20 09:53:46.000   45.062372530    7.663910586   295.5249   5  11   2.7843   2.4330   6.9968   0.6881  -2.1360   1.6953   0.00    0.0
2018/03/20 09:53:47.000   45.062372746    7.663910654   295.5216   5  11   2.7842   2.4329   6.9965   0.6882  -2.1352   1.6939   0.00    0.0
2018/03/20 09:53:48.000   45.062372910    7.663910559   295.5245   5  11   2.7842   2.4328   6.9963   0.6883  -2.1343   1.6925   0.00    0.0
2018/03/20 09:53:49.000   45.062373227    7.663910818   295.4899   5  11   2.7842   2.4327   6.9960   0.6884  -2.1335   1.6910   0.00    0.0
2018/03/20 09:53:50.000   45.062373403    7.663910948   295.5081   5  11   2.7841   2.4325   6.9957   0.6885  -2.1327   1.6896   0.00    0.0
2018/03/20 09:53:51.000   45.062373608    7.663911271   295.5081   5  11   2.7841   2.4324   6.9954   0.6886  -2.1318   1.6882   0.00    0.0
2018/03/20 09:53:52.000   45.062373672    7.663911482   295.4880   5  11   2.7840   2.4323   6.9952   0.6887  -2.1310   1.6868   0.00    0.0
2018/03/20 09:53:53.000   45.062373820    7.663911603   295.4812   5  11   2.7840   2.4322   6.9949   0.6888  -2.1302   1.6854   0.00    0.0
2018/03/20 09:53:54.000   45.062373891    7.663911608   295.4942   5  11   2.7840   2.4321   6.9946   0.6889  -2.1293   1.6839   0.00    0.0
2018/03/20 09:53:55.000   45.062373900    7.663911590   295.5289   5  11   2.7839   2.4320   6.9943   0.6890  -2.1285   1.6825   0.00    0.0
2018/03/20 09:53:56.000   45.062373919    7.663911618   295.5277   5  11   2.7839   2.4319   6.9941   0.6891  -2.1276   1.6811   0.00    0.0
2018/03/20 09:53:57.000   45.062374126    7.663911650   295.5558   5  11   2.7838   2.4318   6.9938   0.6892  -2.1268   1.6796   0.00    0.0
2018/03/20 09:53:58.000   45.062373995    7.663911493   295.5876   5  11   2.7838   2.4317   6.9935   0.6893  -2.1260   1.6782   0.00    0.0
2018/03/20 09:53:59.000   45.062374053    7.663911558   295.5727   5  11   2.7838   2.4316   6.9932   0.6894  -2.1251   1.6768   0.00    0.0
2018/03/20 09:54:00.000   45.062374125    7.663911421   295.5984   5  11   2.7837   2.4314   6.9930   0.6894  -2.1243   1.6754   0.00    0.0
2018/03/20 09:54:01.000   45.062374023    7.663911279   295.6202   5  11   2.7837   2.4313   6.9927   0.6895  -2.1234   1.6739   0.00    0.0
2018/03/20 09:54:02.000   45.062373811    7.663911250   295.6402   5  11   2.7837   2.4312   6.9924   0.6896  -2.1226   1.6725   0.00    0.0
2018/03/20 09:54:03.000   45.062373938    7.663911146   295.6373   5  11   2.7836   2.4311   6.9921   0.6897  -2.1218   1.6710   0.00    0.0
2018/03/20 09:54:04.000   45.062373854    7.663910998   295.6578   5  11   2.7836   2.4310   6.9919   0.6898  -2.1209   1.6696   0.00    0.0
2018/03/20 09:54:05.000   45.062373728    7.663910781   295.7100   5  11   2.7835   2.4309   6.9916   0.6899  -2.1201   1.6682   0.00    0.0
2018/03/20 09:54:06.000   45.062373559    7.663910632   295.7475   5  11   2.7835   2.4308   6.9913   0.6900  -2.1192   1.6667   0.00    0.0
2018/03/20 09:54:07.000   45.062373358    7.663910523   295.7501   5  11   2.7835   2.4307   6.9910   0.6901  -2.1184   1.6653   0.00    0.0
2018/03/20 09:54:08.000   45.062373184    7.663910316   295.7596   5  11   2.7834   2.4306   6.9908   0.6902  -2.1175   1.6638   0.00    0.0
2018/03/20 09:54:09.000   45.062373052    7.663910073   295.7540   5  11   2.7834   2.4305   6.9905   0.6902  -2.1167   1.6624   0.00    0.0
2018/03/20 09:54:10.000   45.062372923    7.663910005   295.7819   5  11   2.7834   2.4304   6.9902   0.6903  -2.1159   1.6609   0.00    0.0
2018/03/20 09:54:11.000   45.062372719    7.663909722   295.8052   5  11   2.7833   2.4303   6.9899   0.6904  -2.1150   1.6595   0.00    0.0
2018/03/20 09:54:12.000   45.062372549    7.663909721   295.8344   5  11   2.7833   2.4302   6.9896   0.6905  -2.1142   1.6580   0.00    0.0
2018/03/20 09:54:13.000   45.062372342    7.663909526   295.8305   5  11   2.7833   2.4300   6.9894   0.6906  -2.1133   1.6566   0.00    0.0
2018/03/20 09:54:14.000   45.062372312    7.663909570   295.8478   5  11   2.7832   2.4299   6.9891   0.6907  -2.1125   1.6551   0.00    0.0
2018/03/20 09:54:15.000   45.062372013    7.663909204   295.8521   5  11   2.7832   2.4298   6.9888   0.6908  -2.1116   1.6537   0.00    0.0
2018/03/20 09:54:16.000   45.062371855    7.663909419   295.8456   5  11   2.7832   2.4297   6.9885   0.6908  -2.1108   1.6522   0.00    0.0
2018/03/20 09:54:17.000   45.062371747    7.663909087   295.8707   5  11   2.7831   2.4296   6.9883   0.6909  -2.1099   1.6508   0.00    0.0
2018/03/20 09:54:18.000   45.062371510    7.663909139   295.8488   5  11   2.7831   2.4295   6.9880   0.6910  -2.1091   1.6493   0.00    0.0
2018/03/20 09:54:19.000   45.062371436    7.663909033   295.9019   5  11   2.7831   2.4294   6.9877   0.6911  -2.1083   1.6478   0.00    0.0
2018/03/20 09:54:20.000   45.062371176    7.663908854   295.9019   5  11   2.7830   2.4293   6.9874   0.6912  -2.1074   1.6464   0.00    0.0
2018/03/20 09:54:21.000   45.062371139    7.663908858   295.8782   5  11   2.7830   2.4292   6.9871   0.6913  -2.1066   1.6449   0.00    0.0
2018/03/20 09:54:22.000   45.062371089    7.663909190   295.8438   5  11   2.7830   2.4291   6.9869   0.6913  -2.1057   1.6434   0.00    0.0
