% program   : RTKPOST ver.2.4.3 b33
% inp file  : C:\Users\Francesco Conforte\Documents\UNIVERSITA'\Magistrale\ICT for geomatics\Geomatics\LAB\Lab3\GNSS data\GNSS Static\Rover\1000790.18o
% inp file  : C:\Users\Francesco Conforte\Documents\UNIVERSITA'\Magistrale\ICT for geomatics\Geomatics\LAB\Lab3\GNSS data\GNSS Static\Rover\*
% obs start : 2018/03/20 09:47:24.0 GPST (week1993 208044.0s)
% obs end   : 2018/03/20 11:49:18.0 GPST (week1993 215358.0s)
% pos mode  : single
% elev mask : 15.0 deg
% ionos opt : broadcast
% tropo opt : saastamoinen
% ephemeris : broadcast
%
% (lat/lon/height=WGS84/ellipsoidal,Q=1:fix,2:float,3:sbas,4:dgps,5:single,6:ppp,ns=# of satellites)
%  GPST                  latitude(deg) longitude(deg)  height(m)   Q  ns   sdn(m)   sde(m)   sdu(m)  sdne(m)  sdeu(m)  sdun(m) age(s)  ratio
2018/03/20 09:47:24.000   45.062389603    7.663895671   297.2773   5   6   3.4482   2.5951  10.2258   0.3861  -2.9626   3.0018   0.00    0.0
2018/03/20 09:47:25.000   45.062389481    7.663895946   297.3217   5   6   3.4479   2.5948  10.2244   0.3869  -2.9612   2.9995   0.00    0.0
2018/03/20 09:47:26.000   45.062389402    7.663896052   297.3555   5   6   3.4475   2.5946  10.2229   0.3878  -2.9598   2.9971   0.00    0.0
2018/03/20 09:47:27.000   45.062389372    7.663896275   297.3816   5   6   3.4472   2.5944  10.2215   0.3886  -2.9584   2.9947   0.00    0.0
2018/03/20 09:47:28.000   45.062389269    7.663896465   297.3531   5   6   3.4469   2.5942  10.2200   0.3894  -2.9571   2.9923   0.00    0.0
2018/03/20 09:47:29.000   45.062389138    7.663896676   297.3576   5   6   3.4465   2.5940  10.2186   0.3902  -2.9557   2.9899   0.00    0.0
2018/03/20 09:47:30.000   45.062388871    7.663896978   297.3431   5   6   3.4462   2.5937  10.2171   0.3910  -2.9543   2.9875   0.00    0.0
2018/03/20 09:47:31.000   45.062388766    7.663896971   297.3621   5   6   3.4459   2.5935  10.2156   0.3918  -2.9529   2.9851   0.00    0.0
2018/03/20 09:47:32.000   45.062388555    7.663897278   297.3464   5   6   3.4456   2.5933  10.2142   0.3926  -2.9515   2.9827   0.00    0.0
2018/03/20 09:47:33.000   45.062388126    7.663897362   297.3586   5   6   3.4452   2.5931  10.2127   0.3934  -2.9501   2.9803   0.00    0.0
2018/03/20 09:47:34.000   45.062387920    7.663897583   297.3732   5   6   3.4449   2.5929  10.2113   0.3941  -2.9487   2.9779   0.00    0.0
2018/03/20 09:47:35.000   45.062387593    7.663897829   297.3613   5   6   3.4446   2.5926  10.2098   0.3949  -2.9473   2.9755   0.00    0.0
2018/03/20 09:47:36.000   45.062387138    7.663897881   297.3292   5   6   3.4443   2.5924  10.2084   0.3957  -2.9459   2.9731   0.00    0.0
2018/03/20 09:47:37.000   45.062386893    7.663898136   297.3070   5   6   3.4440   2.5922  10.2069   0.3965  -2.9445   2.9707   0.00    0.0
2018/03/20 09:47:38.000   45.062386604    7.663898294   297.2247   5   6   3.4436   2.5920  10.2055   0.3973  -2.9431   2.9683   0.00    0.0
2018/03/20 09:47:39.000   45.062386206    7.663898590   297.2088   5   6   3.4433   2.5918  10.2040   0.3980  -2.9417   2.9659   0.00    0.0
2018/03/20 09:47:40.000   45.062386111    7.663898616   297.1596   5   6   3.4430   2.5915  10.2025   0.3988  -2.9403   2.9635   0.00    0.0
2018/03/20 09:47:41.000   45.062385632    7.663898830   297.1154   5   6   3.4427   2.5913  10.2011   0.3995  -2.9390   2.9611   0.00    0.0
2018/03/20 09:47:42.000   45.062385205    7.663899159   297.0639   5   6   3.4424   2.5911  10.1996   0.4003  -2.9376   2.9587   0.00    0.0
2018/03/20 09:47:43.000   45.062384779    7.663899441   297.0274   5   6   3.4420   2.5909  10.1982   0.4011  -2.9362   2.9563   0.00    0.0
2018/03/20 09:47:44.000   45.062384547    7.663899637   297.0092   5   6   3.4417   2.5907  10.1967   0.4018  -2.9348   2.9539   0.00    0.0
2018/03/20 09:47:45.000   45.062384075    7.663899774   296.9270   5   6   3.4414   2.5905  10.1952   0.4025  -2.9334   2.9515   0.00    0.0
2018/03/20 09:47:46.000   45.062383833    7.663900048   296.8485   5   6   3.4411   2.5902  10.1938   0.4033  -2.9320   2.9491   0.00    0.0
2018/03/20 09:47:47.000   45.062383644    7.663900480   296.8572   5   6   3.4408   2.5900  10.1923   0.4040  -2.9306   2.9467   0.00    0.0
2018/03/20 09:47:48.000   45.062383171    7.663900695   296.8251   5   6   3.4405   2.5898  10.1909   0.4048  -2.9292   2.9443   0.00    0.0
2018/03/20 09:47:49.000   45.062382815    7.663900899   296.7506   5   6   3.4401   2.5896  10.1894   0.4055  -2.9278   2.9418   0.00    0.0
2018/03/20 09:47:50.000   45.062382590    7.663901139   296.7298   5   6   3.4398   2.5894  10.1879   0.4062  -2.9264   2.9394   0.00    0.0
2018/03/20 09:47:51.000   45.062382263    7.663901689   296.6749   5   6   3.4395   2.5892  10.1865   0.4069  -2.9250   2.9370   0.00    0.0
2018/03/20 09:47:52.000   45.062381992    7.663902066   296.6109   5   6   3.4392   2.5890  10.1850   0.4077  -2.9236   2.9346   0.00    0.0
2018/03/20 09:47:53.000   45.062381685    7.663902456   296.5790   5   6   3.4389   2.5887  10.1836   0.4084  -2.9222   2.9322   0.00    0.0
2018/03/20 09:47:54.000   45.062381433    7.663902958   296.5402   5   6   3.4386   2.5885  10.1821   0.4091  -2.9208   2.9298   0.00    0.0
2018/03/20 09:47:55.000   45.062381008    7.663903104   296.5038   5   6   3.4383   2.5883  10.1806   0.4098  -2.9194   2.9273   0.00    0.0
2018/03/20 09:47:56.000   45.062380733    7.663903288   296.5113   5   6   3.4380   2.5881  10.1792   0.4105  -2.9180   2.9249   0.00    0.0
2018/03/20 09:47:57.000   45.062380632    7.663903836   296.4480   5   6   3.4376   2.5879  10.1777   0.4112  -2.9166   2.9225   0.00    0.0
2018/03/20 09:47:58.000   45.062380328    7.663904089   296.4049   5   6   3.4373   2.5877  10.1763   0.4119  -2.9152   2.9201   0.00    0.0
2018/03/20 09:47:59.000   45.062380082    7.663904672   296.3487   5   6   3.4370   2.5875  10.1748   0.4126  -2.9138   2.9176   0.00    0.0
2018/03/20 09:48:00.000   45.062379837    7.663904988   296.3144   5   6   3.4367   2.5872  10.1733   0.4133  -2.9124   2.9152   0.00    0.0
2018/03/20 09:48:01.000   45.062379611    7.663905190   296.2880   5   6   3.4364   2.5870  10.1719   0.4140  -2.9110   2.9128   0.00    0.0
2018/03/20 09:48:02.000   45.062379318    7.663905637   296.2101   5   6   3.4361   2.5868  10.1704   0.4147  -2.9096   2.9104   0.00    0.0
2018/03/20 09:48:03.000   45.062379109    7.663905744   296.2160   5   6   3.4358   2.5866  10.1690   0.4154  -2.9082   2.9079   0.00    0.0
2018/03/20 09:48:04.000   45.062378815    7.663906092   296.1803   5   6   3.4355   2.5864  10.1675   0.4161  -2.9068   2.9055   0.00    0.0
2018/03/20 09:48:05.000   45.062378674    7.663906192   296.1866   5   6   3.4352   2.5862  10.1660   0.4167  -2.9054   2.9031   0.00    0.0
2018/03/20 09:48:06.000   45.062378399    7.663906614   296.0820   5   6   3.4349   2.5860  10.1646   0.4174  -2.9040   2.9006   0.00    0.0
2018/03/20 09:48:07.000   45.062378156    7.663906686   296.0791   5   6   3.4346   2.5858  10.1631   0.4181  -2.9026   2.8982   0.00    0.0
2018/03/20 09:48:08.000   45.062377875    7.663907005   296.0161   5   6   3.4343   2.5856  10.1616   0.4188  -2.9012   2.8958   0.00    0.0
2018/03/20 09:48:09.000   45.062377670    7.663907301   295.9301   5   6   3.4340   2.5853  10.1602   0.4194  -2.8998   2.8933   0.00    0.0
2018/03/20 09:48:10.000   45.062377574    7.663907476   295.9115   5   6   3.4337   2.5851  10.1587   0.4201  -2.8984   2.8909   0.00    0.0
2018/03/20 09:48:11.000   45.062377162    7.663907491   295.8697   5   6   3.4334   2.5849  10.1572   0.4207  -2.8970   2.8884   0.00    0.0
2018/03/20 09:48:12.000   45.062376960    7.663907634   295.8411   5   6   3.4331   2.5847  10.1558   0.4214  -2.8956   2.8860   0.00    0.0
2018/03/20 09:48:13.000   45.062376835    7.663907887   295.7965   5   6   3.4328   2.5845  10.1543   0.4220  -2.8942   2.8836   0.00    0.0
2018/03/20 09:48:14.000   45.062376624    7.663907708   295.8164   5   6   3.4325   2.5843  10.1529   0.4227  -2.8928   2.8811   0.00    0.0
2018/03/20 09:48:15.000   45.062376233    7.663907738   295.8425   5   6   3.4322   2.5841  10.1514   0.4233  -2.8914   2.8787   0.00    0.0
2018/03/20 09:48:16.000   45.062376064    7.663907781   295.7797   5   6   3.4319   2.5839  10.1499   0.4240  -2.8900   2.8762   0.00    0.0
2018/03/20 09:48:17.000   45.062375755    7.663907971   295.7068   5   6   3.4316   2.5837  10.1485   0.4246  -2.8886   2.8738   0.00    0.0
2018/03/20 09:48:18.000   45.062375652    7.663908069   295.6540   5   6   3.4313   2.5835  10.1470   0.4253  -2.8872   2.8713   0.00    0.0
2018/03/20 09:48:19.000   45.062375265    7.663908061   295.6640   5   6   3.4310   2.5832  10.1455   0.4259  -2.8858   2.8689   0.00    0.0
2018/03/20 09:48:20.000   45.062375154    7.663908052   295.6520   5   6   3.4307   2.5830  10.1441   0.4265  -2.8844   2.8664   0.00    0.0
2018/03/20 09:48:21.000   45.062375095    7.663908147   295.6329   5   6   3.4304   2.5828  10.1426   0.4272  -2.8830   2.8640   0.00    0.0
2018/03/20 09:48:22.000   45.062374770    7.663908022   295.5757   5   6   3.4301   2.5826  10.1411   0.4278  -2.8816   2.8615   0.00    0.0
2018/03/20 09:48:23.000   45.062374499    7.663908052   295.6056   5   6   3.4298   2.5824  10.1397   0.4284  -2.8802   2.8591   0.00    0.0
2018/03/20 09:48:24.000   45.062374280    7.663908135   295.5343   5   6   3.4295   2.5822  10.1382   0.4290  -2.8788   2.8566   0.00    0.0
2018/03/20 09:48:25.000   45.062373968    7.663908069   295.5286   5   6   3.4292   2.5820  10.1367   0.4296  -2.8774   2.8541   0.00    0.0
2018/03/20 09:48:26.000   45.062373666    7.663907950   295.5393   5   6   3.4290   2.5818  10.1353   0.4303  -2.8760   2.8517   0.00    0.0
2018/03/20 09:48:27.000   45.062373468    7.663908093   295.5208   5   6   3.4287   2.5816  10.1338   0.4309  -2.8746   2.8492   0.00    0.0
2018/03/20 09:48:28.000   45.062373243    7.663907959   295.5329   5   6   3.4284   2.5814  10.1323   0.4315  -2.8732   2.8468   0.00    0.0
2018/03/20 09:48:29.000   45.062373151    7.663908092   295.5076   5   6   3.4281   2.5812  10.1309   0.4321  -2.8718   2.8443   0.00    0.0
2018/03/20 09:48:30.000   45.062373042    7.663908166   295.5070   5   6   3.4278   2.5810  10.1294   0.4327  -2.8704   2.8418   0.00    0.0
2018/03/20 09:48:31.000   45.062372944    7.663908188   295.5229   5   6   3.4275   2.5808  10.1279   0.4333  -2.8690   2.8394   0.00    0.0
2018/03/20 09:48:32.000   45.062372803    7.663908166   295.4886   5   6   3.4272   2.5806  10.1265   0.4339  -2.8675   2.8369   0.00    0.0
2018/03/20 09:48:33.000   45.062372561    7.663908277   295.5209   5   6   3.4269   2.5804  10.1250   0.4345  -2.8661   2.8344   0.00    0.0
2018/03/20 09:48:34.000   45.062372467    7.663908302   295.5060   5   6   3.4266   2.5802  10.1235   0.4351  -2.8647   2.8320   0.00    0.0
2018/03/20 09:48:35.000   45.062372490    7.663908421   295.5521   5   6   3.4264   2.5799  10.1221   0.4357  -2.8633   2.8295   0.00    0.0
2018/03/20 09:48:36.000   45.062372420    7.663908337   295.5703   5   6   3.4261   2.5797  10.1206   0.4362  -2.8619   2.8270   0.00    0.0
2018/03/20 09:48:37.000   45.062372385    7.663908353   295.5914   5   6   3.4258   2.5795  10.1191   0.4368  -2.8605   2.8246   0.00    0.0
2018/03/20 09:48:38.000   45.062372364    7.663908315   295.6290   5   6   3.4255   2.5793  10.1177   0.4374  -2.8591   2.8221   0.00    0.0
2018/03/20 09:48:39.000   45.062372294    7.663908229   295.6154   5   6   3.4252   2.5791  10.1162   0.4380  -2.8577   2.8196   0.00    0.0
2018/03/20 09:48:40.000   45.062372435    7.663908552   295.6176   5   6   3.4249   2.5789  10.1147   0.4386  -2.8563   2.8171   0.00    0.0
2018/03/20 09:48:41.000   45.062372330    7.663908417   295.6633   5   6   3.4247   2.5787  10.1133   0.4391  -2.8549   2.8147   0.00    0.0
2018/03/20 09:48:42.000   45.062372374    7.663908479   295.6640   5   6   3.4244   2.5785  10.1118   0.4397  -2.8535   2.8122   0.00    0.0
2018/03/20 09:48:43.000   45.062372576    7.663908572   295.7099   5   6   3.4241   2.5783  10.1103   0.4403  -2.8521   2.8097   0.00    0.0
2018/03/20 09:48:44.000   45.062372646    7.663908523   295.7444   5   6   3.4238   2.5781  10.1089   0.4408  -2.8507   2.8072   0.00    0.0
2018/03/20 09:48:45.000   45.062372609    7.663908486   295.7534   5   6   3.4235   2.5779  10.1074   0.4414  -2.8492   2.8047   0.00    0.0
2018/03/20 09:48:46.000   45.062372698    7.663908543   295.8253   5   6   3.4233   2.5777  10.1059   0.4420  -2.8478   2.8023   0.00    0.0
2018/03/20 09:48:47.000   45.062372845    7.663908648   295.7970   5   6   3.4230   2.5775  10.1045   0.4425  -2.8464   2.7998   0.00    0.0
2018/03/20 09:48:48.000   45.062372873    7.663908597   295.8428   5   6   3.4227   2.5773  10.1030   0.4431  -2.8450   2.7973   0.00    0.0
2018/03/20 09:48:49.000   45.062372895    7.663908720   295.8238   5   6   3.4224   2.5771  10.1015   0.4436  -2.8436   2.7948   0.00    0.0
2018/03/20 09:48:50.000   45.062372903    7.663908783   295.8299   5   6   3.4221   2.5769  10.1001   0.4442  -2.8422   2.7923   0.00    0.0
2018/03/20 09:48:51.000   45.062373071    7.663908876   295.8812   5   6   3.4219   2.5767  10.0986   0.4447  -2.8408   2.7898   0.00    0.0
2018/03/20 09:48:52.000   45.062373024    7.663908898   295.8725   5   6   3.4216   2.5765  10.0971   0.4452  -2.8394   2.7873   0.00    0.0
2018/03/20 09:48:53.000   45.062373278    7.663908967   295.9264   5   6   3.4213   2.5763  10.0957   0.4458  -2.8380   2.7848   0.00    0.0
2018/03/20 09:48:54.000   45.062373242    7.663908874   295.9614   5   6   3.4210   2.5761  10.0942   0.4463  -2.8366   2.7823   0.00    0.0
2018/03/20 09:48:55.000   45.062373207    7.663909104   295.9148   5   6   3.4208   2.5759  10.0927   0.4469  -2.8351   2.7798   0.00    0.0
2018/03/20 09:48:56.000   45.062373289    7.663909207   295.9371   5   6   3.4205   2.5757  10.0913   0.4474  -2.8337   2.7773   0.00    0.0
2018/03/20 09:48:57.000   45.062373432    7.663909408   295.9531   5   6   3.4202   2.5755  10.0898   0.4479  -2.8323   2.7748   0.00    0.0
2018/03/20 09:48:58.000   45.062373392    7.663909527   295.9851   5   6   3.4200   2.5753  10.0883   0.4484  -2.8309   2.7723   0.00    0.0
2018/03/20 09:48:59.000   45.062373587    7.663909549   296.0290   5   6   3.4197   2.5751  10.0868   0.4490  -2.8295   2.7698   0.00    0.0
2018/03/20 09:49:00.000   45.062373606    7.663909652   295.9882   5   6   3.4194   2.5749  10.0854   0.4495  -2.8281   2.7673   0.00    0.0
2018/03/20 09:49:01.000   45.062373757    7.663909780   296.0007   5   6   3.4192   2.5747  10.0839   0.4500  -2.8267   2.7648   0.00    0.0
2018/03/20 09:49:02.000   45.062373686    7.663910118   295.9543   5   6   3.4189   2.5745  10.0824   0.4505  -2.8253   2.7623   0.00    0.0
2018/03/20 09:49:03.000   45.062373882    7.663910349   295.9956   5   6   3.4186   2.5743  10.0810   0.4510  -2.8238   2.7598   0.00    0.0
2018/03/20 09:49:04.000   45.062373911    7.663910662   295.9539   5   6   3.4183   2.5741  10.0795   0.4516  -2.8224   2.7573   0.00    0.0
2018/03/20 09:49:05.000   45.062374106    7.663910935   295.9480   5   6   3.4181   2.5739  10.0780   0.4521  -2.8210   2.7548   0.00    0.0
2018/03/20 09:49:06.000   45.062374005    7.663911042   295.9222   5   6   3.4178   2.5737  10.0766   0.4526  -2.8196   2.7523   0.00    0.0
2018/03/20 09:49:07.000   45.062374110    7.663911331   295.9186   5   6   3.4175   2.5735  10.0751   0.4531  -2.8182   2.7498   0.00    0.0
2018/03/20 09:49:08.000   45.062374280    7.663911660   295.8159   5   6   3.4173   2.5733  10.0736   0.4536  -2.8168   2.7473   0.00    0.0
2018/03/20 09:49:09.000   45.062374532    7.663912296   295.7860   5   6   3.4170   2.5731  10.0722   0.4541  -2.8154   2.7448   0.00    0.0
2018/03/20 09:49:10.000   45.062374613    7.663912411   295.7766   5   6   3.4168   2.5730  10.0707   0.4546  -2.8139   2.7422   0.00    0.0
2018/03/20 09:49:11.000   45.062374885    7.663912869   295.6981   5   6   3.4165   2.5728  10.0692   0.4551  -2.8125   2.7397   0.00    0.0
2018/03/20 09:49:12.000   45.062374966    7.663913309   295.6441   5   6   3.4162   2.5726  10.0677   0.4556  -2.8111   2.7372   0.00    0.0
2018/03/20 09:49:13.000   45.062375200    7.663913555   295.6422   5   6   3.4160   2.5724  10.0663   0.4560  -2.8097   2.7347   0.00    0.0
2018/03/20 09:49:14.000   45.062375313    7.663914037   295.5339   5   6   3.4157   2.5722  10.0648   0.4565  -2.8083   2.7322   0.00    0.0
2018/03/20 09:49:15.000   45.062375729    7.663914562   295.4882   5   6   3.4154   2.5720  10.0633   0.4570  -2.8069   2.7296   0.00    0.0
2018/03/20 09:49:16.000   45.062375819    7.663914983   295.4406   5   6   3.4152   2.5718  10.0619   0.4575  -2.8054   2.7271   0.00    0.0
2018/03/20 09:49:17.000   45.062376048    7.663915371   295.3538   5   6   3.4149   2.5716  10.0604   0.4580  -2.8040   2.7246   0.00    0.0
2018/03/20 09:49:18.000   45.062376320    7.663915852   295.2703   5   6   3.4147   2.5714  10.0589   0.4584  -2.8026   2.7221   0.00    0.0
2018/03/20 09:49:19.000   45.062376535    7.663916181   295.2459   5   6   3.4144   2.5712  10.0575   0.4589  -2.8012   2.7195   0.00    0.0
2018/03/20 09:49:20.000   45.062376579    7.663916586   295.1374   5   6   3.4142   2.5710  10.0560   0.4594  -2.7998   2.7170   0.00    0.0
2018/03/20 09:49:21.000   45.062376736    7.663916859   295.0969   5   6   3.4139   2.5708  10.0545   0.4599  -2.7984   2.7145   0.00    0.0
2018/03/20 09:49:22.000   45.062376978    7.663917161   295.0441   5   6   3.4136   2.5706  10.0530   0.4603  -2.7969   2.7120   0.00    0.0
2018/03/20 09:49:23.000   45.062377199    7.663917465   295.0250   5   6   3.4134   2.5704  10.0516   0.4608  -2.7955   2.7094   0.00    0.0
2018/03/20 09:49:24.000   45.062377204    7.663917756   294.9557   5   6   3.4131   2.5702  10.0501   0.4613  -2.7941   2.7069   0.00    0.0
2018/03/20 09:49:25.000   45.062377243    7.663918137   294.8881   5   6   3.4129   2.5700  10.0486   0.4617  -2.7927   2.7043   0.00    0.0
2018/03/20 09:49:26.000   45.062377326    7.663918391   294.8320   5   6   3.4126   2.5699  10.0472   0.4622  -2.7913   2.7018   0.00    0.0
2018/03/20 09:49:27.000   45.062377197    7.663918472   294.8154   5   6   3.4124   2.5697  10.0457   0.4626  -2.7898   2.6993   0.00    0.0
2018/03/20 09:49:28.000   45.062377336    7.663918535   294.7872   5   6   3.4121   2.5695  10.0442   0.4631  -2.7884   2.6967   0.00    0.0
2018/03/20 09:49:29.000   45.062377394    7.663918671   294.7354   5   6   3.4119   2.5693  10.0428   0.4635  -2.7870   2.6942   0.00    0.0
2018/03/20 09:49:30.000   45.062377518    7.663918897   294.6781   5   6   3.4116   2.5691  10.0413   0.4640  -2.7856   2.6916   0.00    0.0
2018/03/20 09:49:31.000   45.062377600    7.663918906   294.6718   5   6   3.4114   2.5689  10.0398   0.4644  -2.7842   2.6891   0.00    0.0
2018/03/20 09:49:32.000   45.062377395    7.663918961   294.6386   5   6   3.4111   2.5687  10.0383   0.4649  -2.7828   2.6866   0.00    0.0
2018/03/20 09:49:33.000   45.062377399    7.663918977   294.6363   5   6   3.4109   2.5685  10.0369   0.4653  -2.7813   2.6840   0.00    0.0
2018/03/20 09:49:34.000   45.062377446    7.663919022   294.5435   5   6   3.4106   2.5683  10.0354   0.4658  -2.7799   2.6815   0.00    0.0
2018/03/20 09:49:35.000   45.062377408    7.663919197   294.5198   5   6   3.4104   2.5681  10.0339   0.4662  -2.7785   2.6789   0.00    0.0
2018/03/20 09:49:36.000   45.062377481    7.663919113   294.4728   5   6   3.4101   2.5680  10.0325   0.4666  -2.7771   2.6764   0.00    0.0
2018/03/20 09:49:37.000   45.062377479    7.663919380   294.4886   5   6   3.4099   2.5678  10.0310   0.4671  -2.7756   2.6738   0.00    0.0
2018/03/20 09:49:38.000   45.062377554    7.663919391   294.4047   5   6   3.4096   2.5676  10.0295   0.4675  -2.7742   2.6712   0.00    0.0
2018/03/20 09:49:39.000   45.062377632    7.663919244   294.4480   5   6   3.4094   2.5674  10.0281   0.4679  -2.7728   2.6687   0.00    0.0
2018/03/20 09:49:40.000   45.062377644    7.663919195   294.3601   5   6   3.4091   2.5672  10.0266   0.4683  -2.7714   2.6661   0.00    0.0
2018/03/20 09:49:41.000   45.062377694    7.663918922   294.3819   5   6   3.4089   2.5670  10.0251   0.4688  -2.7700   2.6636   0.00    0.0
2018/03/20 09:49:42.000   45.062377577    7.663919006   294.3227   5   6   3.4086   2.5668  10.0236   0.4692  -2.7685   2.6610   0.00    0.0
2018/03/20 09:49:43.000   45.062377586    7.663918672   294.3317   5   6   3.4084   2.5666  10.0222   0.4696  -2.7671   2.6584   0.00    0.0
2018/03/20 09:49:44.000   45.062377588    7.663918555   294.3687   5   6   3.4082   2.5664  10.0207   0.4700  -2.7657   2.6559   0.00    0.0
2018/03/20 09:49:45.000   45.062377714    7.663918399   294.3764   5   6   3.4079   2.5663  10.0192   0.4704  -2.7643   2.6533   0.00    0.0
2018/03/20 09:49:46.000   45.062377609    7.663918289   294.3418   5   6   3.4077   2.5661  10.0178   0.4708  -2.7628   2.6507   0.00    0.0
2018/03/20 09:49:47.000   45.062377578    7.663917758   294.3915   5   6   3.4074   2.5659  10.0163   0.4713  -2.7614   2.6482   0.00    0.0
2018/03/20 09:49:48.000   45.062377580    7.663917604   294.3620   5   6   3.4072   2.5657  10.0148   0.4717  -2.7600   2.6456   0.00    0.0
2018/03/20 09:49:49.000   45.062377555    7.663917668   294.3694   5   6   3.4070   2.5655  10.0134   0.4721  -2.7586   2.6430   0.00    0.0
2018/03/20 09:49:50.000   45.062377411    7.663917359   294.3757   5   6   3.4067   2.5653  10.0119   0.4725  -2.7572   2.6405   0.00    0.0
2018/03/20 09:49:51.000   45.062377305    7.663917205   294.3946   5   6   3.4065   2.5651  10.0104   0.4729  -2.7557   2.6379   0.00    0.0
2018/03/20 09:49:52.000   45.062377125    7.663916831   294.3887   5   6   3.4062   2.5650  10.0089   0.4733  -2.7543   2.6353   0.00    0.0
2018/03/20 09:49:53.000   45.062377193    7.663916567   294.3886   5   6   3.4060   2.5648  10.0075   0.4737  -2.7529   2.6327   0.00    0.0
2018/03/20 09:49:54.000   45.062377124    7.663916365   294.3797   5   6   3.4058   2.5646  10.0060   0.4741  -2.7515   2.6302   0.00    0.0
2018/03/20 09:49:55.000   45.062376916    7.663916077   294.3811   5   6   3.4055   2.5644  10.0045   0.4745  -2.7500   2.6276   0.00    0.0
2018/03/20 09:49:56.000   45.062376854    7.663916032   294.3471   5   6   3.4053   2.5642  10.0031   0.4748  -2.7486   2.6250   0.00    0.0
2018/03/20 09:49:57.000   45.062376856    7.663915848   294.3976   5   6   3.4051   2.5640  10.0016   0.4752  -2.7472   2.6224   0.00    0.0
2018/03/20 09:49:58.000   45.062376719    7.663915731   294.3564   5   6   3.4048   2.5639  10.0001   0.4756  -2.7458   2.6198   0.00    0.0
2018/03/20 09:49:59.000   45.062376632    7.663915483   294.3277   5   6   3.4046   2.5637   9.9987   0.4760  -2.7443   2.6172   0.00    0.0
2018/03/20 09:50:00.000   45.062376485    7.663915362   294.3596   5   6   3.4044   2.5635   9.9972   0.4764  -2.7429   2.6147   0.00    0.0
2018/03/20 09:50:01.000   45.062376465    7.663915197   294.3627   5   6   3.4041   2.5633   9.9957   0.4768  -2.7415   2.6121   0.00    0.0
2018/03/20 09:50:02.000   45.062376198    7.663914790   294.3308   5   6   3.4039   2.5631   9.9942   0.4771  -2.7400   2.6095   0.00    0.0
2018/03/20 09:50:03.000   45.062376147    7.663914774   294.3138   5   6   3.4037   2.5629   9.9928   0.4775  -2.7386   2.6069   0.00    0.0
2018/03/20 09:50:04.000   45.062375914    7.663914733   294.3229   5   6   3.4034   2.5628   9.9913   0.4779  -2.7372   2.6043   0.00    0.0
2018/03/20 09:50:05.000   45.062375899    7.663914580   294.3531   5   6   3.4032   2.5626   9.9898   0.4783  -2.7358   2.6017   0.00    0.0
2018/03/20 09:50:06.000   45.062375758    7.663914493   294.2941   5   6   3.4030   2.5624   9.9884   0.4786  -2.7343   2.5991   0.00    0.0
2018/03/20 09:50:07.000   45.062375493    7.663914312   294.3176   5   6   3.4028   2.5622   9.9869   0.4790  -2.7329   2.5965   0.00    0.0
2018/03/20 09:50:08.000   45.062375356    7.663914371   294.3148   5   6   3.4025   2.5620   9.9854   0.4794  -2.7315   2.5939   0.00    0.0
2018/03/20 09:50:09.000   45.062375260    7.663914295   294.3227   5   6   3.4023   2.5618   9.9840   0.4797  -2.7301   2.5913   0.00    0.0
2018/03/20 09:50:10.000   45.062375172    7.663914153   294.2760   5   6   3.4021   2.5617   9.9825   0.4801  -2.7286   2.5887   0.00    0.0
2018/03/20 09:50:11.000   45.062374961    7.663913915   294.3120   5   6   3.4019   2.5615   9.9810   0.4804  -2.7272   2.5861   0.00    0.0
2018/03/20 09:50:12.000   45.062374779    7.663913765   294.2783   5   6   3.4016   2.5613   9.9795   0.4808  -2.7258   2.5835   0.00    0.0
2018/03/20 09:50:13.000   45.062374616    7.663913828   294.2642   5   6   3.4014   2.5611   9.9781   0.4812  -2.7243   2.5809   0.00    0.0
2018/03/20 09:50:14.000   45.062374254    7.663913581   294.2828   5   6   3.4012   2.5609   9.9766   0.4815  -2.7229   2.5783   0.00    0.0
2018/03/20 09:50:15.000   45.062374041    7.663913640   294.2776   5   6   3.4010   2.5608   9.9751   0.4819  -2.7215   2.5757   0.00    0.0
2018/03/20 09:50:16.000   45.062373752    7.663913472   294.3288   5   6   3.4007   2.5606   9.9737   0.4822  -2.7201   2.5730   0.00    0.0
2018/03/20 09:50:17.000   45.062373549    7.663913321   294.2844   5   6   3.4005   2.5604   9.9722   0.4825  -2.7186   2.5704   0.00    0.0
2018/03/20 09:50:18.000   45.062373245    7.663913082   294.3273   5   6   3.4003   2.5602   9.9707   0.4829  -2.7172   2.5678   0.00    0.0
2018/03/20 09:50:19.000   45.062373050    7.663913075   294.3395   5   6   3.4001   2.5600   9.9693   0.4832  -2.7158   2.5652   0.00    0.0
2018/03/20 09:50:20.000   45.062372765    7.663912913   294.3479   5   6   3.3999   2.5599   9.9678   0.4836  -2.7143   2.5626   0.00    0.0
2018/03/20 09:50:21.000   45.062372468    7.663912745   294.3912   5   6   3.3996   2.5597   9.9663   0.4839  -2.7129   2.5600   0.00    0.0
2018/03/20 09:50:22.000   45.062372248    7.663912658   294.4302   5   6   3.3994   2.5595   9.9649   0.4842  -2.7115   2.5573   0.00    0.0
2018/03/20 09:50:23.000   45.062371874    7.663912414   294.3960   5   6   3.3992   2.5593   9.9634   0.4846  -2.7100   2.5547   0.00    0.0
2018/03/20 09:50:24.000   45.062371565    7.663912316   294.4485   5   6   3.3990   2.5592   9.9619   0.4849  -2.7086   2.5521   0.00    0.0
2018/03/20 09:50:25.000   45.062371214    7.663912148   294.3803   5   6   3.3988   2.5590   9.9605   0.4852  -2.7072   2.5495   0.00    0.0
2018/03/20 09:50:26.000   45.062371015    7.663912059   294.4485   5   6   3.3986   2.5588   9.9590   0.4856  -2.7057   2.5468   0.00    0.0
2018/03/20 09:50:27.000   45.062370818    7.663911835   294.4629   5   6   3.3983   2.5586   9.9575   0.4859  -2.7043   2.5442   0.00    0.0
2018/03/20 09:50:28.000   45.062370543    7.663911736   294.4652   5   6   3.3981   2.5585   9.9560   0.4862  -2.7029   2.5416   0.00    0.0
2018/03/20 09:50:29.000   45.062370323    7.663911937   294.4631   5   6   3.3979   2.5583   9.9546   0.4865  -2.7014   2.5389   0.00    0.0
2018/03/20 09:50:30.000   45.062370084    7.663911848   294.4227   5   6   3.3977   2.5581   9.9531   0.4869  -2.7000   2.5363   0.00    0.0
2018/03/20 09:50:31.000   45.062369945    7.663911619   294.4607   5   6   3.3975   2.5579   9.9516   0.4872  -2.6986   2.5337   0.00    0.0
2018/03/20 09:50:32.000   45.062369653    7.663911734   294.4191   5   6   3.3973   2.5577   9.9502   0.4875  -2.6971   2.5310   0.00    0.0
2018/03/20 09:50:33.000   45.062369473    7.663911645   294.4470   5   6   3.3971   2.5576   9.9487   0.4878  -2.6957   2.5284   0.00    0.0
2018/03/20 09:50:34.000   45.062369250    7.663911613   294.4456   5   6   3.3968   2.5574   9.9472   0.4881  -2.6943   2.5257   0.00    0.0
2018/03/20 09:50:35.000   45.062369130    7.663911529   294.4226   5   6   3.3966   2.5572   9.9458   0.4884  -2.6928   2.5231   0.00    0.0
2018/03/20 09:50:36.000   45.062368789    7.663911550   294.4527   5   6   3.3964   2.5570   9.9443   0.4887  -2.6914   2.5204   0.00    0.0
2018/03/20 09:50:37.000   45.062368794    7.663911473   294.4484   5   6   3.3962   2.5569   9.9428   0.4890  -2.6900   2.5178   0.00    0.0
2018/03/20 09:50:38.000   45.062368581    7.663911215   294.4950   5   6   3.3960   2.5567   9.9414   0.4893  -2.6885   2.5151   0.00    0.0
2018/03/20 09:50:39.000   45.062368325    7.663911387   294.4965   5   6   3.3958   2.5565   9.9399   0.4896  -2.6871   2.5125   0.00    0.0
2018/03/20 09:50:40.000   45.062368151    7.663911352   294.4919   5   6   3.3956   2.5564   9.9384   0.4899  -2.6857   2.5098   0.00    0.0
2018/03/20 09:50:41.000   45.062367871    7.663911221   294.4909   5   6   3.3954   2.5562   9.9370   0.4902  -2.6842   2.5072   0.00    0.0
2018/03/20 09:50:42.000   45.062367759    7.663911256   294.4473   5   6   3.3952   2.5560   9.9355   0.4905  -2.6828   2.5045   0.00    0.0
2018/03/20 09:50:43.000   45.062367661    7.663911435   294.4233   5   6   3.3950   2.5558   9.9340   0.4908  -2.6814   2.5019   0.00    0.0
2018/03/20 09:50:44.000   45.062367600    7.663911538   294.4196   5   6   3.3948   2.5557   9.9326   0.4911  -2.6799   2.4992   0.00    0.0
2018/03/20 09:50:45.000   45.062367365    7.663911612   294.4431   5   6   3.3946   2.5555   9.9311   0.4914  -2.6785   2.4966   0.00    0.0
2018/03/20 09:50:46.000   45.062367302    7.663911634   294.4332   5   6   3.3944   2.5553   9.9296   0.4917  -2.6771   2.4939   0.00    0.0
2018/03/20 09:50:47.000   45.062367145    7.663911643   294.3975   5   6   3.3942   2.5551   9.9282   0.4920  -2.6756   2.4912   0.00    0.0
2018/03/20 09:50:48.000   45.062367133    7.663911732   294.4277   5   6   3.3940   2.5550   9.9267   0.4923  -2.6742   2.4886   0.00    0.0
2018/03/20 09:50:49.000   45.062366787    7.663911920   294.3751   5   6   3.3938   2.5548   9.9252   0.4925  -2.6728   2.4859   0.00    0.0
2018/03/20 09:50:50.000   45.062366798    7.663911855   294.3793   5   6   3.3936   2.5546   9.9238   0.4928  -2.6713   2.4832   0.00    0.0
2018/03/20 09:50:51.000   45.062366913    7.663912021   294.3644   5   6   3.3934   2.5545   9.9223   0.4931  -2.6699   2.4805   0.00    0.0
2018/03/20 09:50:52.000   45.062366748    7.663912068   294.3429   5   6   3.3932   2.5543   9.9208   0.4934  -2.6684   2.4779   0.00    0.0
2018/03/20 09:50:53.000   45.062366699    7.663912124   294.3006   5   6   3.3930   2.5541   9.9194   0.4937  -2.6670   2.4752   0.00    0.0
2018/03/20 09:50:54.000   45.062366731    7.663912040   294.3452   5   6   3.3928   2.5540   9.9179   0.4939  -2.6656   2.4725   0.00    0.0
2018/03/20 09:50:55.000   45.062366861    7.663912031   294.3079   5   6   3.3926   2.5538   9.9164   0.4942  -2.6641   2.4698   0.00    0.0
2018/03/20 09:50:56.000   45.062366849    7.663911927   294.3618   5   6   3.3924   2.5536   9.9150   0.4945  -2.6627   2.4672   0.00    0.0
2018/03/20 09:50:57.000   45.062367033    7.663911982   294.3650   5   6   3.3922   2.5534   9.9135   0.4947  -2.6613   2.4645   0.00    0.0
2018/03/20 09:50:58.000   45.062367126    7.663911874   294.3636   5   6   3.3920   2.5533   9.9120   0.4950  -2.6598   2.4618   0.00    0.0
2018/03/20 09:50:59.000   45.062367235    7.663911908   294.3820   5   6   3.3918   2.5531   9.9106   0.4953  -2.6584   2.4591   0.00    0.0
2018/03/20 09:51:00.000   45.062367332    7.663911861   294.3543   5   6   3.3916   2.5529   9.9091   0.4955  -2.6569   2.4564   0.00    0.0
2018/03/20 09:51:01.000   45.062367543    7.663911676   294.4079   5   6   3.3914   2.5528   9.9076   0.4958  -2.6555   2.4537   0.00    0.0
2018/03/20 09:51:02.000   45.062367796    7.663911843   294.3827   5   6   3.3912   2.5526   9.9062   0.4960  -2.6541   2.4510   0.00    0.0
2018/03/20 09:51:03.000   45.062368046    7.663911719   294.4045   5   6   3.3910   2.5524   9.9047   0.4963  -2.6526   2.4483   0.00    0.0
2018/03/20 09:51:04.000   45.062368271    7.663911797   294.3800   5   6   3.3908   2.5523   9.9033   0.4965  -2.6512   2.4456   0.00    0.0
2018/03/20 09:51:05.000   45.062368425    7.663911711   294.4236   5   6   3.3906   2.5521   9.9018   0.4968  -2.6497   2.4430   0.00    0.0
2018/03/20 09:51:06.000   45.062368624    7.663911700   294.3999   5   6   3.3904   2.5519   9.9003   0.4970  -2.6483   2.4403   0.00    0.0
2018/03/20 09:51:07.000   45.062368818    7.663911674   294.4119   5   6   3.3902   2.5518   9.8989   0.4973  -2.6469   2.4376   0.00    0.0
2018/03/20 09:51:08.000   45.062368945    7.663911638   294.4037   5   6   3.3901   2.5516   9.8974   0.4975  -2.6454   2.4348   0.00    0.0
2018/03/20 09:51:09.000   45.062369231    7.663911673   294.4511   5   6   3.3899   2.5514   9.8959   0.4978  -2.6440   2.4321   0.00    0.0
2018/03/20 09:51:10.000   45.062369360    7.663911611   294.5171   5   6   3.3897   2.5513   9.8945   0.4980  -2.6425   2.4294   0.00    0.0
2018/03/20 09:51:11.000   45.062369525    7.663911619   294.5133   5   6   3.3895   2.5511   9.8930   0.4983  -2.6411   2.4267   0.00    0.0
2018/03/20 09:51:12.000   45.062369794    7.663911552   294.6002   5   6   3.3893   2.5509   9.8915   0.4985  -2.6396   2.4240   0.00    0.0
2018/03/20 09:51:13.000   45.062369945    7.663911531   294.5984   5   6   3.3891   2.5508   9.8901   0.4987  -2.6382   2.4213   0.00    0.0
2018/03/20 09:51:14.000   45.062370211    7.663911586   294.6687   5   6   3.3889   2.5506   9.8886   0.4990  -2.6368   2.4186   0.00    0.0
2018/03/20 09:51:15.000   45.062370356    7.663911475   294.7405   5   6   3.3887   2.5504   9.8872   0.4992  -2.6353   2.4159   0.00    0.0
2018/03/20 09:51:16.000   45.062370435    7.663911481   294.8025   5   6   3.3886   2.5503   9.8857   0.4994  -2.6339   2.4132   0.00    0.0
2018/03/20 09:51:17.000   45.062370624    7.663911425   294.8432   5   6   3.3884   2.5501   9.8842   0.4997  -2.6324   2.4104   0.00    0.0
2018/03/20 09:51:18.000   45.062370663    7.663911483   294.8129   5   6   3.3882   2.5500   9.8828   0.4999  -2.6310   2.4077   0.00    0.0
2018/03/20 09:51:19.000   45.062370762    7.663911531   294.8880   5   6   3.3880   2.5498   9.8813   0.5001  -2.6296   2.4050   0.00    0.0
2018/03/20 09:51:20.000   45.062371003    7.663911735   294.9269   5   6   3.3878   2.5496   9.8798   0.5003  -2.6281   2.4023   0.00    0.0
2018/03/20 09:51:21.000   45.062371148    7.663911838   294.9713   5   6   3.3876   2.5495   9.8784   0.5006  -2.6267   2.3995   0.00    0.0
2018/03/20 09:51:22.000   45.062371263    7.663911858   294.9785   5   6   3.3875   2.5493   9.8769   0.5008  -2.6252   2.3968   0.00    0.0
2018/03/20 09:51:23.000   45.062371324    7.663912145   294.9574   5   6   3.3873   2.5491   9.8755   0.5010  -2.6238   2.3941   0.00    0.0
2018/03/20 09:51:24.000   45.062371458    7.663912070   295.0303   5   6   3.3871   2.5490   9.8740   0.5012  -2.6223   2.3913   0.00    0.0
2018/03/20 09:51:25.000   45.062371664    7.663912278   295.0187   5   6   3.3869   2.5488   9.8725   0.5014  -2.6209   2.3886   0.00    0.0
2018/03/20 09:51:26.000   45.062371739    7.663912383   295.0182   5   6   3.3867   2.5486   9.8711   0.5016  -2.6194   2.3859   0.00    0.0
2018/03/20 09:51:27.000   45.062371999    7.663912496   295.0671   5   6   3.3866   2.5485   9.8696   0.5019  -2.6180   2.3831   0.00    0.0
2018/03/20 09:51:28.000   45.062372231    7.663912525   295.0791   5   6   3.3864   2.5483   9.8681   0.5021  -2.6166   2.3804   0.00    0.0
2018/03/20 09:51:29.000   45.062372366    7.663912667   295.0872   5   6   3.3862   2.5482   9.8667   0.5023  -2.6151   2.3776   0.00    0.0
2018/03/20 09:51:30.000   45.062372725    7.663913046   295.0176   5   6   3.3860   2.5480   9.8652   0.5025  -2.6137   2.3749   0.00    0.0
2018/03/20 09:51:31.000   45.062372866    7.663913088   295.0197   5   6   3.3859   2.5478   9.8638   0.5027  -2.6122   2.3722   0.00    0.0
2018/03/20 09:51:32.000   45.062373215    7.663913221   295.0432   5   6   3.3857   2.5477   9.8623   0.5029  -2.6108   2.3694   0.00    0.0
2018/03/20 09:51:33.000   45.062373583    7.663913263   295.0137   5   6   3.3855   2.5475   9.8608   0.5031  -2.6093   2.3667   0.00    0.0
2018/03/20 09:51:34.000   45.062373717    7.663913339   295.0352   5   6   3.3853   2.5474   9.8594   0.5033  -2.6079   2.3639   0.00    0.0
2018/03/20 09:51:35.000   45.062374103    7.663913498   294.9931   5   6   3.3852   2.5472   9.8579   0.5035  -2.6064   2.3611   0.00    0.0
2018/03/20 09:51:36.000   45.062374460    7.663913790   294.9045   5   6   3.3850   2.5470   9.8565   0.5037  -2.6050   2.3584   0.00    0.0
2018/03/20 09:51:37.000   45.062374727    7.663914047   294.9030   5   6   3.3848   2.5469   9.8550   0.5039  -2.6035   2.3556   0.00    0.0
2018/03/20 09:51:38.000   45.062375110    7.663914022   294.8904   5   6   3.3847   2.5467   9.8535   0.5041  -2.6021   2.3529   0.00    0.0
2018/03/20 09:51:39.000   45.062375442    7.663914260   294.8498   5   6   3.3845   2.5466   9.8521   0.5042  -2.6006   2.3501   0.00    0.0
2018/03/20 09:51:40.000   45.062375832    7.663914633   294.8242   5   6   3.3843   2.5464   9.8506   0.5044  -2.5992   2.3473   0.00    0.0
2018/03/20 09:51:41.000   45.062376024    7.663914742   294.7598   5   6   3.3841   2.5462   9.8492   0.5046  -2.5977   2.3446   0.00    0.0
2018/03/20 09:51:42.000   45.062376389    7.663915010   294.7340   5   6   3.3840   2.5461   9.8477   0.5048  -2.5963   2.3418   0.00    0.0
2018/03/20 09:51:43.000   45.062376825    7.663915131   294.7239   5   6   3.3838   2.5459   9.8463   0.5050  -2.5948   2.3390   0.00    0.0
2018/03/20 09:51:44.000   45.062377270    7.663915440   294.6606   5   6   3.3836   2.5458   9.8448   0.5052  -2.5934   2.3363   0.00    0.0
2018/03/20 09:51:45.000   45.062377390    7.663915627   294.6063   5   6   3.3835   2.5456   9.8433   0.5053  -2.5920   2.3335   0.00    0.0
2018/03/20 09:51:46.000   45.062377650    7.663915812   294.5355   5   6   3.3833   2.5455   9.8419   0.5055  -2.5905   2.3307   0.00    0.0
2018/03/20 09:51:47.000   45.062378053    7.663915782   294.5266   5   6   3.3831   2.5453   9.8404   0.5057  -2.5891   2.3279   0.00    0.0
2018/03/20 09:51:48.000   45.062378313    7.663916143   294.4503   5   6   3.3830   2.5451   9.8390   0.5059  -2.5876   2.3251   0.00    0.0
2018/03/20 09:51:49.000   45.062378346    7.663916033   294.4328   5   6   3.3828   2.5450   9.8375   0.5060  -2.5862   2.3223   0.00    0.0
2018/03/20 09:51:50.000   45.062378600    7.663916075   294.4380   5   6   3.3827   2.5448   9.8360   0.5062  -2.5847   2.3196   0.00    0.0
2018/03/20 09:51:51.000   45.062378725    7.663916224   294.3766   5   6   3.3825   2.5447   9.8346   0.5064  -2.5833   2.3168   0.00    0.0
2018/03/20 09:51:52.000   45.062379004    7.663916377   294.3702   5   6   3.3823   2.5445   9.8331   0.5065  -2.5818   2.3140   0.00    0.0
2018/03/20 09:51:53.000   45.062379031    7.663916337   294.3507   5   6   3.3822   2.5444   9.8317   0.5067  -2.5804   2.3112   0.00    0.0
2018/03/20 09:51:54.000   45.062379066    7.663916641   294.2700   5   6   3.3820   2.5442   9.8302   0.5069  -2.5789   2.3084   0.00    0.0
2018/03/20 09:51:55.000   45.062379187    7.663916857   294.2068   5   6   3.3819   2.5441   9.8288   0.5070  -2.5775   2.3056   0.00    0.0
2018/03/20 09:51:56.000   45.062379299    7.663916991   294.1787   5   6   3.3817   2.5439   9.8273   0.5072  -2.5760   2.3028   0.00    0.0
2018/03/20 09:51:57.000   45.062379148    7.663916996   294.1472   5   6   3.3815   2.5438   9.8259   0.5073  -2.5745   2.3000   0.00    0.0
2018/03/20 09:51:58.000   45.062379231    7.663917155   294.1416   5   6   3.3814   2.5436   9.8244   0.5075  -2.5731   2.2972   0.00    0.0
2018/03/20 09:51:59.000   45.062379191    7.663917205   294.1480   5   6   3.3812   2.5434   9.8229   0.5077  -2.5716   2.2944   0.00    0.0
2018/03/20 09:52:00.000   45.062379116    7.663917449   294.1176   5   6   3.3811   2.5433   9.8215   0.5078  -2.5702   2.2916   0.00    0.0
2018/03/20 09:52:01.000   45.062378953    7.663917456   294.0834   5   6   3.3809   2.5431   9.8200   0.5080  -2.5687   2.2888   0.00    0.0
2018/03/20 09:52:02.000   45.062378782    7.663917507   294.0954   5   6   3.3807   2.5430   9.8186   0.5081  -2.5673   2.2859   0.00    0.0
2018/03/20 09:52:03.000   45.062378755    7.663917554   294.0915   5   6   3.3806   2.5428   9.8171   0.5083  -2.5658   2.2831   0.00    0.0
2018/03/20 09:52:04.000   45.062378663    7.663917646   294.0784   5   6   3.3804   2.5427   9.8157   0.5084  -2.5644   2.2803   0.00    0.0
2018/03/20 09:52:05.000   45.062378492    7.663917780   294.0531   5   6   3.3803   2.5425   9.8142   0.5085  -2.5629   2.2775   0.00    0.0
2018/03/20 09:52:06.000   45.062378381    7.663917976   294.0307   5   6   3.3801   2.5424   9.8128   0.5087  -2.5615   2.2747   0.00    0.0
2018/03/20 09:52:07.000   45.062378242    7.663918216   293.9946   5   6   3.3800   2.5422   9.8113   0.5088  -2.5600   2.2718   0.00    0.0
2018/03/20 09:52:08.000   45.062377995    7.663918137   294.0520   5   6   3.3798   2.5421   9.8099   0.5090  -2.5586   2.2690   0.00    0.0
2018/03/20 09:52:09.000   45.062377798    7.663918113   294.0414   5   6   3.3797   2.5419   9.8084   0.5091  -2.5571   2.2662   0.00    0.0
2018/03/20 09:52:10.000   45.062377512    7.663918195   294.0282   5   6   3.3795   2.5418   9.8069   0.5092  -2.5557   2.2634   0.00    0.0
2018/03/20 09:52:11.000   45.062377277    7.663918347   294.0290   5   6   3.3794   2.5416   9.8055   0.5094  -2.5542   2.2605   0.00    0.0
2018/03/20 09:52:12.000   45.062376933    7.663918451   294.0438   5   6   3.3792   2.5415   9.8040   0.5095  -2.5527   2.2577   0.00    0.0
2018/03/20 09:52:13.000   45.062376711    7.663918552   294.0509   5   6   3.3791   2.5413   9.8026   0.5096  -2.5513   2.2549   0.00    0.0
2018/03/20 09:52:14.000   45.062376554    7.663918498   294.0713   5   6   3.3789   2.5412   9.8011   0.5098  -2.5498   2.2520   0.00    0.0
2018/03/20 09:52:15.000   45.062376319    7.663918770   294.0821   5   6   3.3788   2.5410   9.7997   0.5099  -2.5484   2.2492   0.00    0.0
2018/03/20 09:52:16.000   45.062375930    7.663918716   294.1202   5   6   3.3786   2.5409   9.7982   0.5100  -2.5469   2.2463   0.00    0.0
2018/03/20 09:52:17.000   45.062375684    7.663918871   294.1325   5   6   3.3785   2.5407   9.7968   0.5101  -2.5455   2.2435   0.00    0.0
2018/03/20 09:52:18.000   45.062375414    7.663918857   294.2094   5   6   3.3783   2.5406   9.7953   0.5103  -2.5440   2.2406   0.00    0.0
2018/03/20 09:52:19.000   45.062375058    7.663918873   294.2039   5   6   3.3782   2.5404   9.7939   0.5104  -2.5426   2.2378   0.00    0.0
2018/03/20 09:52:20.000   45.062374815    7.663918740   294.2780   5   6   3.3781   2.5403   9.7924   0.5105  -2.5411   2.2349   0.00    0.0
2018/03/20 09:52:21.000   45.062374405    7.663918775   294.3010   5   6   3.3779   2.5401   9.7910   0.5106  -2.5396   2.2321   0.00    0.0
2018/03/20 09:52:22.000   45.062374162    7.663918744   294.3697   5   6   3.3778   2.5400   9.7895   0.5107  -2.5382   2.2292   0.00    0.0
2018/03/20 09:52:23.000   45.062373927    7.663918901   294.3978   5   6   3.3776   2.5398   9.7881   0.5108  -2.5367   2.2263   0.00    0.0
2018/03/20 09:52:24.000   45.062373540    7.663918731   294.4534   5   6   3.3775   2.5397   9.7866   0.5109  -2.5353   2.2235   0.00    0.0
2018/03/20 09:52:25.000   45.062373160    7.663918747   294.4685   5   6   3.3773   2.5395   9.7852   0.5110  -2.5338   2.2206   0.00    0.0
2018/03/20 09:52:26.000   45.062372809    7.663918893   294.5040   5   6   3.3772   2.5394   9.7837   0.5112  -2.5324   2.2177   0.00    0.0
2018/03/20 09:52:27.000   45.062372412    7.663918855   294.5306   5   6   3.3771   2.5392   9.7823   0.5113  -2.5309   2.2149   0.00    0.0
2018/03/20 09:52:28.000   45.062372105    7.663918884   294.5672   5   6   3.3769   2.5391   9.7808   0.5114  -2.5294   2.2120   0.00    0.0
2018/03/20 09:52:29.000   45.062371792    7.663918884   294.6376   5   6   3.3768   2.5390   9.7794   0.5115  -2.5280   2.2091   0.00    0.0
2018/03/20 09:52:30.000   45.062371537    7.663919002   294.6537   5   6   3.3766   2.5388   9.7779   0.5116  -2.5265   2.2062   0.00    0.0
2018/03/20 09:52:31.000   45.062371117    7.663919017   294.6980   5   6   3.3765   2.5387   9.7765   0.5117  -2.5251   2.2034   0.00    0.0
2018/03/20 09:52:32.000   45.062370740    7.663918937   294.7624   5   6   3.3764   2.5385   9.7750   0.5118  -2.5236   2.2005   0.00    0.0
2018/03/20 09:52:33.000   45.062370293    7.663918962   294.8282   5   6   3.3762   2.5384   9.7736   0.5119  -2.5221   2.1976   0.00    0.0
2018/03/20 09:52:34.000   45.062369914    7.663918829   294.9078   5   6   3.3761   2.5382   9.7721   0.5120  -2.5207   2.1947   0.00    0.0
2018/03/20 09:52:35.000   45.062369372    7.663918861   294.9368   5   6   3.3760   2.5381   9.7707   0.5120  -2.5192   2.1918   0.00    0.0
2018/03/20 09:52:36.000   45.062368850    7.663918801   294.9935   5   6   3.3758   2.5379   9.7692   0.5121  -2.5178   2.1889   0.00    0.0
2018/03/20 09:52:37.000   45.062368688    7.663918678   295.0287   5   6   3.3757   2.5378   9.7678   0.5122  -2.5163   2.1860   0.00    0.0
2018/03/20 09:52:38.000   45.062368259    7.663918645   295.0627   5   6   3.3756   2.5376   9.7664   0.5123  -2.5148   2.1831   0.00    0.0
2018/03/20 09:52:39.000   45.062367726    7.663918491   295.0987   5   6   3.3754   2.5375   9.7649   0.5124  -2.5134   2.1802   0.00    0.0
2018/03/20 09:52:40.000   45.062367503    7.663918569   295.1309   5   6   3.3753   2.5374   9.7635   0.5125  -2.5119   2.1773   0.00    0.0
2018/03/20 09:52:41.000   45.062367127    7.663918535   295.1804   5   6   3.3752   2.5372   9.7620   0.5126  -2.5105   2.1744   0.00    0.0
2018/03/20 09:52:42.000   45.062366883    7.663918474   295.1418   5   6   3.3750   2.5371   9.7606   0.5126  -2.5090   2.1715   0.00    0.0
2018/03/20 09:52:43.000   45.062366708    7.663918399   295.2100   5   6   3.3749   2.5369   9.7591   0.5127  -2.5075   2.1686   0.00    0.0
2018/03/20 09:52:44.000   45.062366438    7.663918364   295.2746   5   6   3.3748   2.5368   9.7577   0.5128  -2.5061   2.1657   0.00    0.0
2018/03/20 09:52:45.000   45.062366321    7.663918315   295.3247   5   6   3.3746   2.5366   9.7562   0.5129  -2.5046   2.1627   0.00    0.0
2018/03/20 09:52:46.000   45.062366030    7.663918426   295.3210   5   6   3.3745   2.5365   9.7548   0.5129  -2.5031   2.1598   0.00    0.0
2018/03/20 09:52:47.000   45.062365774    7.663918446   295.3487   5   6   3.3744   2.5364   9.7533   0.5130  -2.5017   2.1569   0.00    0.0
2018/03/20 09:52:48.000   45.062365696    7.663918447   295.3545   5   6   3.3743   2.5362   9.7519   0.5131  -2.5002   2.1540   0.00    0.0
2018/03/20 09:52:49.000   45.062365516    7.663918266   295.3640   5   6   3.3741   2.5361   9.7505   0.5132  -2.4988   2.1510   0.00    0.0
2018/03/20 09:52:50.000   45.062365441    7.663918139   295.3729   5   6   3.3740   2.5359   9.7490   0.5132  -2.4973   2.1481   0.00    0.0
2018/03/20 09:52:51.000   45.062365390    7.663917988   295.4229   5   6   3.3739   2.5358   9.7476   0.5133  -2.4958   2.1452   0.00    0.0
2018/03/20 09:52:52.000   45.062365317    7.663918018   295.4373   5   6   3.3738   2.5357   9.7461   0.5134  -2.4944   2.1422   0.00    0.0
2018/03/20 09:52:53.000   45.062365215    7.663917794   295.4344   5   6   3.3736   2.5355   9.7447   0.5134  -2.4929   2.1393   0.00    0.0
2018/03/20 09:52:54.000   45.062365254    7.663917550   295.4137   5   6   3.3735   2.5354   9.7432   0.5135  -2.4914   2.1364   0.00    0.0
2018/03/20 09:52:55.000   45.062365384    7.663917446   295.4831   5   6   3.3734   2.5352   9.7418   0.5135  -2.4900   2.1334   0.00    0.0
2018/03/20 09:52:56.000   45.062365475    7.663917290   295.4546   5   6   3.3733   2.5351   9.7404   0.5136  -2.4885   2.1305   0.00    0.0
2018/03/20 09:52:57.000   45.062365674    7.663917187   295.4257   5   6   3.3731   2.5350   9.7389   0.5136  -2.4870   2.1275   0.00    0.0
2018/03/20 09:52:58.000   45.062365700    7.663917044   295.4351   5   6   3.3730   2.5348   9.7375   0.5137  -2.4856   2.1246   0.00    0.0
2018/03/20 09:52:59.000   45.062365695    7.663916861   295.4164   5   6   3.3729   2.5347   9.7360   0.5138  -2.4841   2.1216   0.00    0.0
2018/03/20 09:53:00.000   45.062366064    7.663916691   295.4600   5   6   3.3728   2.5345   9.7346   0.5138  -2.4826   2.1187   0.00    0.0
2018/03/20 09:53:01.000   45.062366088    7.663916657   295.4399   5   6   3.3727   2.5344   9.7332   0.5139  -2.4812   2.1157   0.00    0.0
2018/03/20 09:53:02.000   45.062366245    7.663916612   295.4134   5   6   3.3725   2.5343   9.7317   0.5139  -2.4797   2.1127   0.00    0.0
2018/03/20 09:53:03.000   45.062366500    7.663916396   295.3938   5   6   3.3724   2.5341   9.7303   0.5139  -2.4782   2.1098   0.00    0.0
2018/03/20 09:53:04.000   45.062366574    7.663916208   295.4226   5   6   3.3723   2.5340   9.7288   0.5140  -2.4768   2.1068   0.00    0.0
2018/03/20 09:53:05.000   45.062366835    7.663916145   295.4093   5   6   3.3722   2.5339   9.7274   0.5140  -2.4753   2.1038   0.00    0.0
2018/03/20 09:53:06.000   45.062367037    7.663915897   295.3964   5   6   3.3721   2.5337   9.7260   0.5141  -2.4738   2.1008   0.00    0.0
2018/03/20 09:53:07.000   45.062367162    7.663915746   295.3826   5   6   3.3720   2.5336   9.7245   0.5141  -2.4724   2.0979   0.00    0.0
2018/03/20 09:53:08.000   45.062367326    7.663915502   295.4006   5   6   3.3718   2.5334   9.7231   0.5141  -2.4709   2.0949   0.00    0.0
2018/03/20 09:53:09.000   45.062367555    7.663915296   295.3528   5   6   3.3717   2.5333   9.7216   0.5142  -2.4694   2.0919   0.00    0.0
2018/03/20 09:53:10.000   45.062367778    7.663915135   295.3638   5   6   3.3716   2.5332   9.7202   0.5142  -2.4680   2.0889   0.00    0.0
2018/03/20 09:53:11.000   45.062367971    7.663914931   295.3471   5   6   3.3715   2.5330   9.7188   0.5142  -2.4665   2.0859   0.00    0.0
2018/03/20 09:53:12.000   45.062368144    7.663914769   295.3856   5   6   3.3714   2.5329   9.7173   0.5143  -2.4650   2.0829   0.00    0.0
2018/03/20 09:53:13.000   45.062368397    7.663914648   295.3621   5   6   3.3713   2.5328   9.7159   0.5143  -2.4636   2.0799   0.00    0.0
2018/03/20 09:53:14.000   45.062368537    7.663914624   295.3415   5   6   3.3712   2.5326   9.7144   0.5143  -2.4621   2.0769   0.00    0.0
2018/03/20 09:53:15.000   45.062368836    7.663914580   295.3075   5   6   3.3711   2.5325   9.7130   0.5144  -2.4606   2.0739   0.00    0.0
2018/03/20 09:53:16.000   45.062368992    7.663914489   295.3050   5   6   3.3709   2.5324   9.7116   0.5144  -2.4592   2.0709   0.00    0.0
2018/03/20 09:53:17.000   45.062369248    7.663914226   295.3098   5   6   3.3708   2.5322   9.7101   0.5144  -2.4577   2.0679   0.00    0.0
2018/03/20 09:53:18.000   45.062369431    7.663914001   295.3155   5   6   3.3707   2.5321   9.7087   0.5144  -2.4562   2.0649   0.00    0.0
2018/03/20 09:53:19.000   45.062369667    7.663914095   295.2542   5   6   3.3706   2.5320   9.7073   0.5144  -2.4547   2.0619   0.00    0.0
2018/03/20 09:53:20.000   45.062369889    7.663913726   295.2571   5   6   3.3705   2.5318   9.7058   0.5145  -2.4533   2.0589   0.00    0.0
2018/03/20 09:53:21.000   45.062370092    7.663913819   295.2275   5   6   3.3704   2.5317   9.7044   0.5145  -2.4518   2.0559   0.00    0.0
2018/03/20 09:53:22.000   45.062370363    7.663913524   295.2202   5   6   3.3703   2.5316   9.7030   0.5145  -2.4503   2.0528   0.00    0.0
2018/03/20 09:53:23.000   45.062370551    7.663913334   295.2238   5   6   3.3702   2.5314   9.7015   0.5145  -2.4489   2.0498   0.00    0.0
2018/03/20 09:53:24.000   45.062370705    7.663913301   295.1196   5   6   3.3701   2.5313   9.7001   0.5145  -2.4474   2.0468   0.00    0.0
2018/03/20 09:53:25.000   45.062371021    7.663913124   295.1615   5   6   3.3700   2.5312   9.6987   0.5145  -2.4459   2.0437   0.00    0.0
2018/03/20 09:53:26.000   45.062371354    7.663913034   295.0825   5   6   3.3699   2.5310   9.6972   0.5145  -2.4444   2.0407   0.00    0.0
2018/03/20 09:53:27.000   45.062371693    7.663912922   295.0529   5   6   3.3698   2.5309   9.6958   0.5145  -2.4430   2.0377   0.00    0.0
2018/03/20 09:53:28.000   45.062372014    7.663912849   295.0787   5   6   3.3697   2.5308   9.6944   0.5145  -2.4415   2.0346   0.00    0.0
2018/03/20 09:53:29.000   45.062372232    7.663912790   295.0290   5   6   3.3696   2.5306   9.6929   0.5145  -2.4400   2.0316   0.00    0.0
2018/03/20 09:53:30.000   45.062372518    7.663912629   295.0042   5   6   3.3695   2.5305   9.6915   0.5145  -2.4386   2.0285   0.00    0.0
2018/03/20 09:53:31.000   45.062372906    7.663912523   294.9910   5   6   3.3694   2.5304   9.6901   0.5145  -2.4371   2.0255   0.00    0.0
2018/03/20 09:53:32.000   45.062373121    7.663912632   294.9353   5   6   3.3693   2.5302   9.6886   0.5145  -2.4356   2.0224   0.00    0.0
2018/03/20 09:53:33.000   45.062373643    7.663912672   294.8707   5   6   3.3692   2.5301   9.6872   0.5145  -2.4341   2.0194   0.00    0.0
2018/03/20 09:53:34.000   45.062374025    7.663912662   294.8379   5   6   3.3691   2.5300   9.6858   0.5145  -2.4327   2.0163   0.00    0.0
2018/03/20 09:53:35.000   45.062374206    7.663912437   294.7891   5   6   3.3690   2.5298   9.6843   0.5145  -2.4312   2.0132   0.00    0.0
2018/03/20 09:53:36.000   45.062374473    7.663912549   294.7504   5   6   3.3689   2.5297   9.6829   0.5145  -2.4297   2.0102   0.00    0.0
2018/03/20 09:53:37.000   45.062374898    7.663912431   294.7752   5   6   3.3688   2.5296   9.6815   0.5145  -2.4282   2.0071   0.00    0.0
2018/03/20 09:53:38.000   45.062375100    7.663912539   294.7724   5   6   3.3687   2.5295   9.6800   0.5145  -2.4268   2.0040   0.00    0.0
2018/03/20 09:53:39.000   45.062375501    7.663912836   294.7421   5   6   3.3686   2.5293   9.6786   0.5145  -2.4253   2.0009   0.00    0.0
2018/03/20 09:53:40.000   45.062375765    7.663912797   294.7414   5   6   3.3685   2.5292   9.6772   0.5145  -2.4238   1.9979   0.00    0.0
2018/03/20 09:53:41.000   45.062376136    7.663913001   294.6612   5   6   3.3684   2.5291   9.6758   0.5144  -2.4223   1.9948   0.00    0.0
2018/03/20 09:53:42.000   45.062376432    7.663913036   294.6586   5   6   3.3683   2.5289   9.6743   0.5144  -2.4209   1.9917   0.00    0.0
2018/03/20 09:53:43.000   45.062376658    7.663913161   294.6563   5   6   3.3682   2.5288   9.6729   0.5144  -2.4194   1.9886   0.00    0.0
2018/03/20 09:53:44.000   45.062376878    7.663913242   294.6310   5   6   3.3681   2.5287   9.6715   0.5144  -2.4179   1.9855   0.00    0.0
2018/03/20 09:53:45.000   45.062377000    7.663913270   294.6348   5   6   3.3680   2.5286   9.6700   0.5144  -2.4164   1.9824   0.00    0.0
2018/03/20 09:53:46.000   45.062377192    7.663913558   294.6310   5   6   3.3679   2.5284   9.6686   0.5143  -2.4150   1.9793   0.00    0.0
2018/03/20 09:53:47.000   45.062377373    7.663913651   294.6259   5   6   3.3678   2.5283   9.6672   0.5143  -2.4135   1.9762   0.00    0.0
2018/03/20 09:53:48.000   45.062377518    7.663913635   294.5913   5   6   3.3678   2.5282   9.6658   0.5143  -2.4120   1.9731   0.00    0.0
2018/03/20 09:53:49.000   45.062377804    7.663913940   294.5528   5   6   3.3677   2.5281   9.6643   0.5143  -2.4105   1.9700   0.00    0.0
2018/03/20 09:53:50.000   45.062377988    7.663914121   294.5295   5   6   3.3676   2.5279   9.6629   0.5142  -2.4090   1.9669   0.00    0.0
2018/03/20 09:53:51.000   45.062378151    7.663914483   294.4831   5   6   3.3675   2.5278   9.6615   0.5142  -2.4076   1.9637   0.00    0.0
2018/03/20 09:53:52.000   45.062378198    7.663914716   294.4480   5   6   3.3674   2.5277   9.6601   0.5142  -2.4061   1.9606   0.00    0.0
2018/03/20 09:53:53.000   45.062378357    7.663914841   294.4354   5   6   3.3673   2.5276   9.6586   0.5141  -2.4046   1.9575   0.00    0.0
2018/03/20 09:53:54.000   45.062378391    7.663914848   294.4452   5   6   3.3672   2.5274   9.6572   0.5141  -2.4031   1.9544   0.00    0.0
2018/03/20 09:53:55.000   45.062378369    7.663914877   294.4456   5   6   3.3671   2.5273   9.6558   0.5140  -2.4016   1.9512   0.00    0.0
2018/03/20 09:53:56.000   45.062378332    7.663914925   294.4337   5   6   3.3671   2.5272   9.6544   0.5140  -2.4002   1.9481   0.00    0.0
2018/03/20 09:53:57.000   45.062378557    7.663914969   294.4261   5   6   3.3670   2.5271   9.6529   0.5140  -2.3987   1.9449   0.00    0.0
2018/03/20 09:53:58.000   45.062378285    7.663914840   294.4621   5   6   3.3669   2.5269   9.6515   0.5139  -2.3972   1.9418   0.00    0.0
2018/03/20 09:53:59.000   45.062378293    7.663914898   294.4154   5   6   3.3668   2.5268   9.6501   0.5139  -2.3957   1.9386   0.00    0.0
2018/03/20 09:54:00.000   45.062378269    7.663914783   294.4436   5   6   3.3667   2.5267   9.6487   0.5138  -2.3942   1.9355   0.00    0.0
2018/03/20 09:54:01.000   45.062378017    7.663914670   294.4522   5   6   3.3666   2.5266   9.6472   0.5138  -2.3928   1.9323   0.00    0.0
2018/03/20 09:54:02.000   45.062377717    7.663914649   294.4658   5   6   3.3666   2.5264   9.6458   0.5137  -2.3913   1.9292   0.00    0.0
2018/03/20 09:54:03.000   45.062377755    7.663914546   294.4637   5   6   3.3665   2.5263   9.6444   0.5137  -2.3898   1.9260   0.00    0.0
2018/03/20 09:54:04.000   45.062377485    7.663914372   294.4840   5   6   3.3664   2.5262   9.6430   0.5136  -2.3883   1.9229   0.00    0.0
2018/03/20 09:54:05.000   45.062377279    7.663914157   294.5403   5   6   3.3663   2.5261   9.6416   0.5135  -2.3868   1.9197   0.00    0.0
2018/03/20 09:54:06.000   45.062377076    7.663914042   294.5527   5   6   3.3662   2.5259   9.6401   0.5135  -2.3854   1.9165   0.00    0.0
2018/03/20 09:54:07.000   45.062376820    7.663913947   294.5561   5   6   3.3662   2.5258   9.6387   0.5134  -2.3839   1.9133   0.00    0.0
2018/03/20 09:54:08.000   45.062376680    7.663913741   294.5826   5   6   3.3661   2.5257   9.6373   0.5134  -2.3824   1.9101   0.00    0.0
2018/03/20 09:54:09.000   45.062376407    7.663913483   294.6420   5   6   3.3660   2.5256   9.6359   0.5133  -2.3809   1.9070   0.00    0.0
2018/03/20 09:54:10.000   45.062376273    7.663913416   294.6850   5   6   3.3659   2.5255   9.6345   0.5132  -2.3794   1.9038   0.00    0.0
2018/03/20 09:54:11.000   45.062376078    7.663913148   294.7267   5   6   3.3658   2.5253   9.6330   0.5132  -2.3779   1.9006   0.00    0.0
2018/03/20 09:54:12.000   45.062375840    7.663913119   294.7518   5   6   3.3658   2.5252   9.6316   0.5131  -2.3765   1.8974   0.00    0.0
2018/03/20 09:54:13.000   45.062375584    7.663912887   294.7729   5   6   3.3657   2.5251   9.6302   0.5130  -2.3750   1.8942   0.00    0.0
2018/03/20 09:54:14.000   45.062375562    7.663912940   294.8078   5   6   3.3656   2.5250   9.6288   0.5130  -2.3735   1.8910   0.00    0.0
2018/03/20 09:54:15.000   45.062375341    7.663912551   294.8361   5   6   3.3655   2.5249   9.6274   0.5129  -2.3720   1.8878   0.00    0.0
2018/03/20 09:54:16.000   45.062375157    7.663912758   294.8085   5   6   3.3655   2.5247   9.6259   0.5128  -2.3705   1.8845   0.00    0.0
2018/03/20 09:54:17.000   45.062375071    7.663912378   294.8887   5   6   3.3654   2.5246   9.6245   0.5127  -2.3690   1.8813   0.00    0.0
2018/03/20 09:54:18.000   45.062374940    7.663912432   294.8727   5   6   3.3653   2.5245   9.6231   0.5127  -2.3675   1.8781   0.00    0.0
2018/03/20 09:54:19.000   45.062374961    7.663912318   294.9309   5   6   3.3653   2.5244   9.6217   0.5126  -2.3661   1.8749   0.00    0.0
2018/03/20 09:54:20.000   45.062374638    7.663912116   294.9470   5   6   3.3652   2.5243   9.6203   0.5125  -2.3646   1.8717   0.00    0.0
2018/03/20 09:54:21.000   45.062374499    7.663912100   294.9442   5   6   3.3651   2.5241   9.6189   0.5124  -2.3631   1.8684   0.00    0.0
2018/03/20 09:54:22.000   45.062374532    7.663912414   294.8961   5   6   3.3650   2.5240   9.6174   0.5123  -2.3616   1.8652   0.00    0.0
