% program   : RTKPOST ver.2.4.3 b33
% inp file  : C:\Users\Francesco Conforte\Documents\UNIVERSITA'\Magistrale\ICT for geomatics\Geomatics\LAB\Lab3\GNSS data\GNSS Kinematic\SnowGroomer\20200120_COM3_165803.20o
% inp file  : C:\Users\Francesco Conforte\Documents\UNIVERSITA'\Magistrale\ICT for geomatics\Geomatics\LAB\Lab3\GNSS data\GNSS Kinematic\MONV\monv020i00.20o
% inp file  : C:\Users\Francesco Conforte\Documents\UNIVERSITA'\Magistrale\ICT for geomatics\Geomatics\LAB\Lab3\GNSS data\GNSS Kinematic\SnowGroomer\*
% obs start : 2020/01/20 15:58:19.0 GPST (week2089 143899.0s)
% obs end   : 2020/01/20 18:38:30.0 GPST (week2089 153510.0s)
% pos mode  : kinematic
% freqs     : L1+L2
% solution  : forward
% elev mask : 15.0 deg
% dynamics  : off
% tidecorr  : off
% ionos opt : broadcast
% tropo opt : saastamoinen
% ephemeris : broadcast
% amb res   : fix and hold
% val thres : 3.0
% antenna1  :                       ( 0.0000  0.0000  0.0000)
% antenna2  :                       ( 0.0000  0.0000  0.0000)
% ref pos   : 44.390356851    7.828955133   637.6965
%
% (lat/lon/height=WGS84/ellipsoidal,Q=1:fix,2:float,3:sbas,4:dgps,5:single,6:ppp,ns=# of satellites)
%  GPST                  latitude(deg) longitude(deg)  height(m)   Q  ns   sdn(m)   sde(m)   sdu(m)  sdne(m)  sdeu(m)  sdun(m) age(s)  ratio
2020/01/20 15:58:19.000   44.166047440    7.569438794  1448.4069   2   5   1.2509   0.5988   1.5601  -0.6232  -0.6971   1.1651   4.00    1.0
2020/01/20 15:58:20.000   44.166046985    7.569438770  1448.3902   2   5   0.8882   0.4252   1.1069  -0.4424  -0.4947   0.8268   0.00    1.1
2020/01/20 15:58:21.000   44.166046930    7.569438609  1448.3910   2   5   0.7260   0.3476   0.9047  -0.3615  -0.4043   0.6758   1.00    1.1
2020/01/20 15:58:22.000   44.166046969    7.569438489  1448.3989   2   5   0.6289   0.3012   0.7839  -0.3131  -0.3502   0.5854   2.00    1.1
2020/01/20 15:58:23.000   44.166047044    7.569438529  1448.4036   2   5   0.5625   0.2695   0.7014  -0.2800  -0.3132   0.5236   3.00    1.1
2020/01/20 15:58:24.000   44.166047290    7.569438441  1448.4280   2   5   0.5134   0.2460   0.6404  -0.2555  -0.2859   0.4779   4.00    1.1
2020/01/20 15:58:25.000   44.166047060    7.569438541  1448.4151   2   5   0.4747   0.2277   0.5926  -0.2361  -0.2644   0.4419   0.00    1.2
2020/01/20 15:58:26.000   44.166047039    7.569438590  1448.4157   2   5   0.4435   0.2129   0.5541  -0.2206  -0.2471   0.4129   1.00    1.2
2020/01/20 15:58:27.000   44.166047074    7.569438638  1448.4241   2   5   0.4177   0.2007   0.5223  -0.2077  -0.2328   0.3890   2.00    1.2
2020/01/20 15:58:28.000   44.166047176    7.569438649  1448.4422   2   5   0.3959   0.1904   0.4954  -0.1969  -0.2208   0.3687   3.00    1.2
2020/01/20 15:58:29.000   44.166047327    7.569438640  1448.4645   2   5   0.3773   0.1815   0.4723  -0.1876  -0.2104   0.3514   4.00    1.2
2020/01/20 15:58:30.000   44.166047357    7.569438658  1448.4737   2   5   0.3602   0.1736   0.4516  -0.1790  -0.2010   0.3355   0.00    1.2
2020/01/20 15:58:31.000   44.166047593    7.569438675  1448.5025   2   5   0.3453   0.1667   0.4336  -0.1716  -0.1928   0.3217   1.00    1.2
2020/01/20 15:58:32.000   44.166047996    7.569438701  1448.5350   2   5   0.3321   0.1606   0.4176  -0.1650  -0.1856   0.3095   2.00    1.2
2020/01/20 15:58:33.000   44.166048372    7.569438606  1448.5774   2   5   0.3204   0.1551   0.4033  -0.1592  -0.1792   0.2986   3.00    1.1
2020/01/20 15:58:34.000   44.166048776    7.569438595  1448.6143   2   5   0.3100   0.1501   0.3904  -0.1540  -0.1734   0.2889   4.00    1.1
2020/01/20 15:58:35.000   44.166048778    7.569438622  1448.6364   2   5   0.2994   0.1454   0.3780  -0.1487  -0.1677   0.2792   0.00    1.1
2020/01/20 15:58:36.000   44.166048658    7.569438726  1448.6356   2   5   0.2901   0.1412   0.3669  -0.1441  -0.1626   0.2706   1.00    1.1
2020/01/20 15:58:37.000   44.166048737    7.569438798  1448.6423   2   5   0.2817   0.1374   0.3568  -0.1399  -0.1581   0.2628   2.00    1.1
2020/01/20 15:58:38.000   44.166048930    7.569438759  1448.6652   2   5   0.2741   0.1339   0.3476  -0.1361  -0.1539   0.2557   3.00    1.1
2020/01/20 15:58:39.000   44.166049271    7.569438635  1448.6983   2   5   0.2671   0.1306   0.3392  -0.1327  -0.1501   0.2493   4.00    1.1
2020/01/20 15:58:40.000   44.166049293    7.569438702  1448.6988   2   5   0.2596   0.1274   0.3305  -0.1289  -0.1461   0.2423   0.00    1.1
2020/01/20 15:58:41.000   44.166049415    7.569438659  1448.7099   2   5   0.2529   0.1245   0.3228  -0.1256  -0.1425   0.2361   1.00    1.1
2020/01/20 15:58:42.000   44.166049638    7.569438592  1448.7339   2   5   0.2469   0.1218   0.3156  -0.1226  -0.1393   0.2305   2.00    1.1
2020/01/20 15:58:43.000   44.166049887    7.569438487  1448.7653   2   5   0.2413   0.1193   0.3091  -0.1198  -0.1363   0.2254   3.00    1.1
2020/01/20 15:58:44.000   44.166050078    7.569438492  1448.7762   2   5   0.2363   0.1170   0.3030  -0.1173  -0.1335   0.2208   4.00    1.1
2020/01/20 15:58:45.000   44.166050009    7.569438544  1448.7866   2   5   0.2304   0.1145   0.2964  -0.1144  -0.1304   0.2153   0.00    1.1
2020/01/20 15:58:46.000   44.166049942    7.569438610  1448.7800   2   5   0.2252   0.1123   0.2906  -0.1118  -0.1277   0.2105   1.00    1.1
2020/01/20 15:58:47.000   44.166049984    7.569438588  1448.7910   2   5   0.2205   0.1103   0.2852  -0.1095  -0.1252   0.2062   2.00    1.1
2020/01/20 15:58:48.000   44.166050103    7.569438498  1448.8036   2   5   0.2163   0.1084   0.2802  -0.1074  -0.1230   0.2023   3.00    1.1
2020/01/20 15:58:49.000   44.166050272    7.569438446  1448.8209   2   5   0.2124   0.1066   0.2756  -0.1055  -0.1209   0.1987   4.00    1.1
2020/01/20 15:58:50.000   44.166050188    7.569438484  1448.8231   2   5   0.2075   0.1047   0.2702  -0.1030  -0.1183   0.1942   0.00    1.2
2020/01/20 15:58:51.000   44.166050222    7.569438449  1448.8331   2   5   0.2033   0.1030   0.2656  -0.1009  -0.1162   0.1903   1.00    1.2
2020/01/20 15:58:52.000   44.166050233    7.569438418  1448.8415   2   5   0.1995   0.1014   0.2613  -0.0991  -0.1142   0.1868   2.00    1.2
2020/01/20 15:58:53.000   44.166050249    7.569438391  1448.8451   2   5   0.1961   0.0999   0.2574  -0.0974  -0.1124   0.1836   3.00    1.2
2020/01/20 15:58:54.000   44.166050315    7.569438315  1448.8560   2   5   0.1930   0.0985   0.2537  -0.0959  -0.1107   0.1808   4.00    1.2
2020/01/20 15:58:55.000   44.166050202    7.569438357  1448.8341   2   5   0.1888   0.0969   0.2492  -0.0937  -0.1086   0.1769   0.00    1.3
2020/01/20 15:58:56.000   44.166050300    7.569438283  1448.8486   2   5   0.1852   0.0955   0.2454  -0.0920  -0.1068   0.1736   1.00    1.3
2020/01/20 15:58:57.000   44.166050439    7.569438160  1448.8617   2   5   0.1821   0.0942   0.2419  -0.0904  -0.1051   0.1707   2.00    1.3
2020/01/20 15:58:58.000   44.166050614    7.569438059  1448.8841   2   5   0.1792   0.0930   0.2387  -0.0891  -0.1037   0.1681   3.00    1.3
2020/01/20 15:58:59.000   44.166050866    7.569437936  1448.9112   2   5   0.1767   0.0919   0.2357  -0.0878  -0.1023   0.1658   4.00    1.3
2020/01/20 15:59:00.000   44.166050724    7.569438029  1448.8962   2   5   0.1730   0.0905   0.2319  -0.0859  -0.1004   0.1623   0.00    1.3
2020/01/20 15:59:01.000   44.166050787    7.569437970  1448.9044   2   5   0.1699   0.0893   0.2287  -0.0844  -0.0989   0.1596   1.00    1.3
2020/01/20 15:59:02.000   44.166050977    7.569437852  1448.9218   2   5   0.1672   0.0882   0.2257  -0.0831  -0.0976   0.1571   2.00    1.2
2020/01/20 15:59:03.000   44.166051190    7.569437699  1448.9449   2   5   0.1648   0.0872   0.2230  -0.0820  -0.0963   0.1549   3.00    1.2
2020/01/20 15:59:04.000   44.166051412    7.569437573  1448.9691   2   5   0.1627   0.0863   0.2206  -0.0809  -0.0952   0.1530   4.00    1.2
2020/01/20 15:59:05.000   44.166051262    7.569437657  1448.9662   2   5   0.1594   0.0851   0.2172  -0.0792  -0.0935   0.1498   0.00    1.2
2020/01/20 15:59:06.000   44.166051496    7.569437525  1448.9884   2   5   0.1567   0.0841   0.2144  -0.0779  -0.0922   0.1474   1.00    1.2
2020/01/20 15:59:07.000   44.166051844    7.569437380  1449.0137   2   5   0.1543   0.0832   0.2119  -0.0768  -0.0911   0.1452   2.00    1.2
2020/01/20 15:59:08.000   44.166052139    7.569437235  1449.0412   2   5   0.1523   0.0823   0.2097  -0.0758  -0.0900   0.1434   3.00    1.2
2020/01/20 15:59:09.000   44.166052445    7.569437038  1449.0839   2   5   0.1505   0.0815   0.2076  -0.0750  -0.0891   0.1418   4.00    1.2
2020/01/20 15:59:10.000   44.166052200    7.569437115  1449.0804   2   5   0.1475   0.0805   0.2046  -0.0734  -0.0876   0.1389   0.00    1.2
2020/01/20 15:59:11.000   44.166052041    7.569437117  1449.0643   2   5   0.1451   0.0796   0.2022  -0.0722  -0.0864   0.1368   1.00    1.2
2020/01/20 15:59:12.000   44.166051786    7.569437137  1449.0402   2   5   0.1431   0.0788   0.2000  -0.0713  -0.0854   0.1349   2.00    1.2
2020/01/20 15:59:13.000   44.166051528    7.569437203  1449.0133   2   5   0.1413   0.0781   0.1981  -0.0704  -0.0845   0.1333   3.00    1.2
2020/01/20 15:59:14.000   44.166051266    7.569437220  1448.9916   2   5   0.1398   0.0774   0.1963  -0.0697  -0.0837   0.1319   4.00    1.2
2020/01/20 15:59:15.000   44.166051288    7.569437049  1449.0184   2   5   0.1370   0.0765   0.1935  -0.0682  -0.0823   0.1293   0.00    1.2
2020/01/20 15:59:16.000   44.166051357    7.569436963  1449.0152   2   5   0.1349   0.0757   0.1915  -0.0672  -0.0813   0.1274   1.00    1.1
2020/01/20 15:59:17.000   44.166051491    7.569436823  1449.0212   2   5   0.1330   0.0750   0.1896  -0.0663  -0.0805   0.1257   2.00    1.1
2020/01/20 15:59:18.000   44.166051688    7.569436623  1449.0344   2   5   0.1315   0.0744   0.1879  -0.0656  -0.0797   0.1243   3.00    1.1
2020/01/20 15:59:19.000   44.166051966    7.569436525  1449.0524   2   5   0.1302   0.0738   0.1864  -0.0650  -0.0790   0.1232   4.00    1.1
2020/01/20 15:59:20.000   44.166051716    7.569436526  1449.0685   2   5   0.1276   0.0729   0.1839  -0.0636  -0.0777   0.1207   0.00    1.1
2020/01/20 15:59:21.000   44.166051690    7.569436496  1449.0629   2   5   0.1257   0.0723   0.1820  -0.0627  -0.0769   0.1190   1.00    1.1
2020/01/20 15:59:22.000   44.166051551    7.569436504  1449.0507   2   5   0.1241   0.0717   0.1804  -0.0620  -0.0761   0.1175   2.00    1.1
2020/01/20 15:59:23.000   44.166051433    7.569436528  1449.0299   2   5   0.1228   0.0711   0.1789  -0.0614  -0.0754   0.1163   3.00    1.1
2020/01/20 15:59:24.000   44.166051235    7.569436535  1449.0064   2   5   0.1216   0.0707   0.1776  -0.0608  -0.0748   0.1153   4.00    1.1
2020/01/20 15:59:25.000   44.166051252    7.569436401  1449.0304   2   5   0.1192   0.0698   0.1753  -0.0595  -0.0736   0.1130   0.00    1.1
2020/01/20 15:59:26.000   44.166051014    7.569436439  1449.0035   2   5   0.1175   0.0693   0.1736  -0.0587  -0.0729   0.1115   1.00    1.1
2020/01/20 15:59:27.000   44.166050774    7.569436421  1448.9763   2   5   0.1161   0.0687   0.1722  -0.0581  -0.0722   0.1102   2.00    1.1
2020/01/20 15:59:28.000   44.166050625    7.569436411  1448.9588   2   5   0.1149   0.0683   0.1709  -0.0575  -0.0716   0.1091   3.00    1.1
2020/01/20 15:59:29.000   44.166050520    7.569436427  1448.9396   2   5   0.1139   0.0678   0.1698  -0.0571  -0.0711   0.1083   4.00    1.1
2020/01/20 15:59:30.000   44.166050555    7.569436286  1448.9713   2   5   0.1116   0.0671   0.1676  -0.0559  -0.0700   0.1061   0.00    1.1
2020/01/20 15:59:31.000   44.166050605    7.569436260  1448.9714   2   5   0.1101   0.0665   0.1661  -0.0551  -0.0693   0.1047   1.00    1.1
2020/01/20 15:59:32.000   44.166050599    7.569436211  1448.9694   2   5   0.1088   0.0661   0.1648  -0.0545  -0.0687   0.1035   2.00    1.1
2020/01/20 15:59:33.000   44.166050582    7.569436165  1448.9655   2   5   0.1078   0.0656   0.1637  -0.0541  -0.0682   0.1026   3.00    1.1
2020/01/20 15:59:34.000   44.166050575    7.569436113  1448.9624   2   5   0.1070   0.0653   0.1627  -0.0537  -0.0677   0.1019   4.00    1.1
2020/01/20 15:59:35.000   44.166050573    7.569436060  1448.9750   2   5   0.1048   0.0646   0.1607  -0.0525  -0.0667   0.0998   0.00    1.1
2020/01/20 15:59:36.000   44.166050552    7.569436039  1448.9701   2   5   0.1034   0.0641   0.1593  -0.0519  -0.0661   0.0986   1.00    1.1
2020/01/20 15:59:37.000   44.166050641    7.569435996  1448.9690   2   5   0.1022   0.0637   0.1582  -0.0513  -0.0655   0.0975   2.00    1.1
2020/01/20 15:59:38.000   44.166050639    7.569435940  1448.9706   2   5   0.1013   0.0633   0.1572  -0.0509  -0.0651   0.0968   3.00    1.1
2020/01/20 15:59:39.000   44.166050636    7.569435914  1448.9659   2   5   0.1006   0.0630   0.1564  -0.0506  -0.0647   0.0961   4.00    1.1
2020/01/20 15:59:40.000   44.166050693    7.569435870  1448.9807   2   5   0.0985   0.0623   0.1544  -0.0495  -0.0637   0.0942   0.00    1.1
2020/01/20 15:59:41.000   44.166050637    7.569435869  1448.9763   2   5   0.0973   0.0619   0.1532  -0.0489  -0.0632   0.0930   1.00    1.1
2020/01/20 15:59:42.000   44.166050533    7.569435872  1448.9689   2   5   0.0963   0.0615   0.1522  -0.0485  -0.0627   0.0921   2.00    1.1
2020/01/20 15:59:43.000   44.166050374    7.569435897  1448.9543   2   5   0.0955   0.0612   0.1513  -0.0481  -0.0623   0.0914   3.00    1.1
2020/01/20 15:59:44.000   44.166050272    7.569435893  1448.9483   2   5   0.0949   0.0609   0.1506  -0.0479  -0.0620   0.0909   4.00    1.1
2020/01/20 15:59:45.000   44.166050363    7.569435795  1448.9501   2   5   0.0929   0.0603   0.1488  -0.0468  -0.0610   0.0890   0.00    1.1
2020/01/20 15:59:46.000   44.166050344    7.569435786  1448.9438   2   5   0.0917   0.0599   0.1477  -0.0463  -0.0605   0.0880   1.00    1.0
2020/01/20 15:59:47.000   44.166050341    7.569435751  1448.9480   2   5   0.0908   0.0595   0.1468  -0.0459  -0.0601   0.0872   2.00    1.0
2020/01/20 15:59:48.000   44.166050293    7.569435802  1448.9430   2   5   0.0901   0.0592   0.1460  -0.0456  -0.0598   0.0865   3.00    1.0
2020/01/20 15:59:49.000   44.166050312    7.569435806  1448.9478   2   5   0.0896   0.0590   0.1454  -0.0453  -0.0595   0.0861   4.00    1.0
2020/01/20 15:59:50.000   44.166050409    7.569435757  1448.9405   2   5   0.0877   0.0584   0.1436  -0.0443  -0.0586   0.0843   0.00    1.0
2020/01/20 15:59:51.000   44.166050466    7.569435745  1448.9418   2   5   0.0867   0.0580   0.1426  -0.0438  -0.0581   0.0834   1.00    1.0
2020/01/20 15:59:52.000   44.166050425    7.569435765  1448.9406   2   5   0.0858   0.0577   0.1418  -0.0435  -0.0577   0.0826   2.00    1.0
2020/01/20 15:59:53.000   44.166050444    7.569435757  1448.9374   2   5   0.0852   0.0575   0.1411  -0.0432  -0.0574   0.0821   3.00    1.0
2020/01/20 15:59:54.000   44.166050543    7.569435704  1448.9433   2   5   0.0848   0.0572   0.1406  -0.0430  -0.0572   0.0818   4.00    1.0
2020/01/20 15:59:55.000   44.166050531    7.569435756  1448.9336   2   5   0.0830   0.0567   0.1389  -0.0420  -0.0563   0.0800   0.00    1.0
2020/01/20 15:59:56.000   44.166050606    7.569435754  1448.9359   2   5   0.0820   0.0564   0.1380  -0.0416  -0.0559   0.0791   1.00    1.0
2020/01/20 15:59:57.000   44.166050665    7.569435714  1448.9397   2   5   0.0813   0.0561   0.1372  -0.0413  -0.0556   0.0785   2.00    1.0
2020/01/20 15:59:58.000   44.166050732    7.569435663  1448.9405   2   5   0.0808   0.0559   0.1367  -0.0411  -0.0553   0.0780   3.00    1.0
2020/01/20 15:59:59.000   44.166050802    7.569435653  1448.9438   2   5   0.0804   0.0556   0.1362  -0.0409  -0.0551   0.0778   4.00    1.0
2020/01/20 16:00:00.000   44.166050825    7.569435793  1448.9328   2   5   0.0786   0.0551   0.1346  -0.0400  -0.0543   0.0761   0.00    1.0
2020/01/20 16:00:01.000   44.166050803    7.569435818  1448.9325   2   5   0.0778   0.0548   0.1337  -0.0396  -0.0539   0.0753   1.00    1.0
2020/01/20 16:00:02.000   44.166050741    7.569435829  1448.9298   2   5   0.0771   0.0546   0.1331  -0.0393  -0.0536   0.0747   2.00    1.0
2020/01/20 16:00:03.000   44.166050736    7.569435823  1448.9246   2   5   0.0767   0.0544   0.1326  -0.0391  -0.0534   0.0743   3.00    1.0
2020/01/20 16:00:04.000   44.166050709    7.569435842  1448.9151   2   5   0.0764   0.0542   0.1322  -0.0390  -0.0532   0.0741   4.00    1.0
2020/01/20 16:00:05.000   44.166050735    7.569435907  1448.8976   2   5   0.0746   0.0536   0.1306  -0.0381  -0.0524   0.0724   0.00    1.0
2020/01/20 16:00:06.000   44.166050776    7.569435894  1448.8985   2   5   0.0738   0.0534   0.1298  -0.0377  -0.0521   0.0717   1.00    1.0
2020/01/20 16:00:07.000   44.166050780    7.569435914  1448.8992   2   5   0.0733   0.0531   0.1292  -0.0374  -0.0518   0.0712   2.00    1.0
2020/01/20 16:00:08.000   44.166050834    7.569435915  1448.9040   2   5   0.0729   0.0530   0.1288  -0.0373  -0.0516   0.0709   3.00    1.0
2020/01/20 16:00:09.000   44.166050837    7.569435937  1448.8998   2   5   0.0727   0.0528   0.1284  -0.0372  -0.0515   0.0707   4.00    1.0
2020/01/20 16:00:10.000   44.166050940    7.569435936  1448.8803   2   5   0.0710   0.0523   0.1269  -0.0363  -0.0507   0.0691   0.00    1.1
2020/01/20 16:00:11.000   44.166050970    7.569435952  1448.8864   2   5   0.0702   0.0520   0.1262  -0.0360  -0.0504   0.0685   1.00    1.1
2020/01/20 16:00:12.000   44.166050915    7.569435962  1448.8896   2   5   0.0697   0.0518   0.1257  -0.0358  -0.0501   0.0680   2.00    1.1
2020/01/20 16:00:13.000   44.166050889    7.569435982  1448.8883   2   5   0.0694   0.0517   0.1253  -0.0356  -0.0500   0.0677   3.00    1.1
2020/01/20 16:00:14.000   44.166050845    7.569435963  1448.8874   2   5   0.0693   0.0515   0.1250  -0.0356  -0.0499   0.0676   4.00    1.1
2020/01/20 16:00:15.000   44.166050940    7.569436080  1448.8453   2   5   0.0676   0.0511   0.1235  -0.0347  -0.0491   0.0660   0.00    1.1
2020/01/20 16:00:16.000   44.166050995    7.569436037  1448.8518   2   5   0.0669   0.0508   0.1229  -0.0344  -0.0488   0.0654   1.00    1.1
2020/01/20 16:00:17.000   44.166051030    7.569436037  1448.8591   2   5   0.0665   0.0506   0.1224  -0.0342  -0.0486   0.0650   2.00    1.1
2020/01/20 16:00:18.000   44.166050992    7.569436085  1448.8597   2   5   0.0662   0.0505   0.1220  -0.0341  -0.0485   0.0648   3.00    1.1
2020/01/20 16:00:19.000   44.166051082    7.569436086  1448.8634   2   5   0.0661   0.0503   0.1218  -0.0341  -0.0484   0.0648   4.00    1.1
2020/01/20 16:00:20.000   44.166051167    7.569436178  1448.8413   2   5   0.0645   0.0499   0.1203  -0.0332  -0.0476   0.0632   0.00    1.1
2020/01/20 16:00:21.000   44.166051232    7.569436214  1448.8440   2   5   0.0638   0.0497   0.1197  -0.0330  -0.0474   0.0627   1.00    1.1
2020/01/20 16:00:22.000   44.166051333    7.569436240  1448.8504   2   5   0.0634   0.0495   0.1193  -0.0328  -0.0472   0.0623   2.00    1.1
2020/01/20 16:00:23.000   44.166051306    7.569436268  1448.8553   2   5   0.0632   0.0493   0.1190  -0.0327  -0.0471   0.0621   3.00    1.1
2020/01/20 16:00:24.000   44.166051306    7.569436342  1448.8560   2   5   0.0632   0.0492   0.1188  -0.0327  -0.0470   0.0621   4.00    1.1
2020/01/20 16:00:25.000   44.166051394    7.569436356  1448.8320   2   5   0.0616   0.0488   0.1174  -0.0318  -0.0463   0.0606   0.00    1.1
2020/01/20 16:00:26.000   44.166051523    7.569436351  1448.8407   2   5   0.0610   0.0486   0.1169  -0.0316  -0.0460   0.0601   1.00    1.1
2020/01/20 16:00:27.000   44.166051716    7.569436319  1448.8516   2   5   0.0606   0.0484   0.1165  -0.0315  -0.0459   0.0598   2.00    1.2
2020/01/20 16:00:28.000   44.166051826    7.569436303  1448.8628   2   5   0.0605   0.0483   0.1162  -0.0314  -0.0458   0.0597   3.00    1.2
2020/01/20 16:00:29.000   44.166052009    7.569436291  1448.8735   2   5   0.0605   0.0482   0.1161  -0.0314  -0.0457   0.0597   4.00    1.2
2020/01/20 16:00:30.000   44.166051935    7.569436489  1448.8538   2   5   0.0589   0.0478   0.1147  -0.0306  -0.0450   0.0582   0.00    1.2
2020/01/20 16:00:31.000   44.166051964    7.569436529  1448.8519   2   5   0.0584   0.0476   0.1142  -0.0304  -0.0448   0.0577   1.00    1.2
2020/01/20 16:00:32.000   44.166052020    7.569436610  1448.8512   2   5   0.0581   0.0474   0.1138  -0.0303  -0.0446   0.0574   2.00    1.2
2020/01/20 16:00:33.000   44.166052104    7.569436612  1448.8627   2   5   0.0579   0.0473   0.1136  -0.0302  -0.0445   0.0574   3.00    1.2
2020/01/20 16:00:34.000   44.166052214    7.569436606  1448.8658   2   5   0.0580   0.0472   0.1135  -0.0303  -0.0445   0.0574   4.00    1.2
2020/01/20 16:00:35.000   44.166052260    7.569436686  1448.8423   2   5   0.0564   0.0468   0.1121  -0.0294  -0.0438   0.0559   0.00    1.2
2020/01/20 16:00:36.000   44.166052315    7.569436695  1448.8451   2   5   0.0559   0.0466   0.1116  -0.0292  -0.0436   0.0555   1.00    1.2
2020/01/20 16:00:37.000   44.166052462    7.569436665  1448.8528   2   5   0.0557   0.0465   0.1113  -0.0291  -0.0435   0.0553   2.00    1.3
2020/01/20 16:00:38.000   44.166052587    7.569436658  1448.8591   2   5   0.0556   0.0464   0.1111  -0.0291  -0.0434   0.0552   3.00    1.3
2020/01/20 16:00:39.000   44.166052671    7.569436716  1448.8625   2   5   0.0557   0.0463   0.1111  -0.0292  -0.0434   0.0554   4.00    1.3
2020/01/20 16:00:40.000   44.166052720    7.569436738  1448.8581   2   5   0.0541   0.0459   0.1097  -0.0283  -0.0427   0.0538   0.00    1.3
2020/01/20 16:00:41.000   44.166052749    7.569436761  1448.8633   2   5   0.0536   0.0457   0.1093  -0.0282  -0.0425   0.0534   1.00    1.3
2020/01/20 16:00:42.000   44.166052798    7.569436825  1448.8607   2   5   0.0534   0.0456   0.1090  -0.0281  -0.0424   0.0533   2.00    1.3
2020/01/20 16:00:43.000   44.166052965    7.569436819  1448.8639   2   5   0.0534   0.0455   0.1088  -0.0281  -0.0424   0.0532   3.00    1.3
2020/01/20 16:00:44.000   44.166053085    7.569436729  1448.8826   2   5   0.0535   0.0454   0.1088  -0.0281  -0.0424   0.0534   4.00    1.3
2020/01/20 16:00:45.000   44.166053142    7.569436882  1448.8721   2   5   0.0519   0.0450   0.1074  -0.0273  -0.0417   0.0519   0.00    1.3
2020/01/20 16:00:46.000   44.166053300    7.569436838  1448.8832   2   5   0.0515   0.0449   0.1070  -0.0271  -0.0415   0.0515   1.00    1.4
2020/01/20 16:00:47.000   44.166053495    7.569436771  1448.9039   2   5   0.0514   0.0448   0.1068  -0.0271  -0.0414   0.0514   2.00    1.4
2020/01/20 16:00:48.000   44.166053594    7.569436767  1448.9123   2   5   0.0513   0.0447   0.1067  -0.0271  -0.0414   0.0514   3.00    1.4
2020/01/20 16:00:49.000   44.166053719    7.569436817  1448.9212   2   5   0.0515   0.0446   0.1067  -0.0272  -0.0414   0.0516   4.00    1.4
2020/01/20 16:00:50.000   44.166053682    7.569436996  1448.9060   2   5   0.0499   0.0442   0.1053  -0.0264  -0.0407   0.0501   0.00    1.4
2020/01/20 16:00:51.000   44.166053768    7.569437000  1448.9105   2   5   0.0496   0.0441   0.1049  -0.0262  -0.0405   0.0497   1.00    1.4
2020/01/20 16:00:52.000   44.166053821    7.569436973  1448.9219   2   5   0.0494   0.0440   0.1047  -0.0262  -0.0405   0.0496   2.00    1.4
2020/01/20 16:00:53.000   44.166053843    7.569437037  1448.9136   2   5   0.0494   0.0439   0.1046  -0.0262  -0.0404   0.0497   3.00    1.4
2020/01/20 16:00:54.000   44.166053914    7.569437057  1448.9117   2   5   0.0496   0.0439   0.1047  -0.0263  -0.0405   0.0499   4.00    1.4
2020/01/20 16:00:55.000   44.166053942    7.569437031  1448.9265   2   5   0.0480   0.0435   0.1033  -0.0255  -0.0398   0.0484   0.00    1.5
2020/01/20 16:00:56.000   44.166053922    7.569437088  1448.9238   2   5   0.0477   0.0433   0.1030  -0.0254  -0.0397   0.0481   1.00    1.5
2020/01/20 16:00:57.000   44.166053868    7.569437114  1448.9236   2   5   0.0476   0.0432   0.1028  -0.0253  -0.0396   0.0480   2.00    1.5
2020/01/20 16:00:58.000   44.166053845    7.569437172  1448.9173   2   5   0.0477   0.0432   0.1027  -0.0254  -0.0396   0.0481   3.00    1.5
2020/01/20 16:00:59.000   44.166053837    7.569437235  1448.9159   2   5   0.0479   0.0431   0.1028  -0.0255  -0.0396   0.0483   4.00    1.5
2020/01/20 16:01:00.000   44.166053951    7.569437181  1448.9149   2   5   0.0463   0.0427   0.1014  -0.0247  -0.0390   0.0468   0.00    1.5
2020/01/20 16:01:01.000   44.166054030    7.569437218  1448.9158   2   5   0.0460   0.0426   0.1011  -0.0246  -0.0388   0.0465   1.00    1.5
2020/01/20 16:01:02.000   44.166054039    7.569437280  1448.9121   2   5   0.0459   0.0425   0.1009  -0.0245  -0.0388   0.0465   2.00    1.5
2020/01/20 16:01:03.000   44.166054078    7.569437344  1448.9126   2   5   0.0460   0.0425   0.1009  -0.0246  -0.0388   0.0466   3.00    1.5
2020/01/20 16:01:04.000   44.166054061    7.569437383  1448.9096   2   5   0.0463   0.0424   0.1010  -0.0248  -0.0388   0.0469   4.00    1.5
2020/01/20 16:01:05.000   44.166054080    7.569437240  1448.9264   2   5   0.0447   0.0420   0.0996  -0.0239  -0.0381   0.0453   0.00    1.5
2020/01/20 16:01:06.000   44.166054090    7.569437268  1448.9238   2   5   0.0444   0.0419   0.0993  -0.0238  -0.0380   0.0451   1.00    1.5
2020/01/20 16:01:07.000   44.166054112    7.569437388  1448.9148   2   5   0.0443   0.0418   0.0992  -0.0238  -0.0380   0.0450   2.00    1.5
2020/01/20 16:01:08.000   44.166054053    7.569437397  1448.9201   2   5   0.0445   0.0418   0.0992  -0.0239  -0.0380   0.0452   3.00    1.5
2020/01/20 16:01:09.000   44.166053923    7.569437479  1448.9183   2   5   0.0447   0.0418   0.0993  -0.0240  -0.0380   0.0455   4.00    1.5
2020/01/20 16:01:10.000   44.166054122    7.569437320  1448.9199   2   5   0.0431   0.0414   0.0980  -0.0232  -0.0374   0.0439   0.00    1.5
2020/01/20 16:01:11.000   44.166054104    7.569437365  1448.9247   2   5   0.0429   0.0412   0.0977  -0.0231  -0.0373   0.0437   1.00    1.5
2020/01/20 16:01:12.000   44.166054070    7.569437400  1448.9177   2   5   0.0428   0.0412   0.0975  -0.0231  -0.0372   0.0437   2.00    1.5
2020/01/20 16:01:13.000   44.166054119    7.569437386  1448.9220   2   5   0.0430   0.0411   0.0975  -0.0232  -0.0373   0.0439   3.00    1.5
2020/01/20 16:01:14.000   44.166054113    7.569437416  1448.9131   2   5   0.0433   0.0411   0.0977  -0.0234  -0.0373   0.0442   4.00    1.5
2020/01/20 16:01:15.000   44.166054146    7.569437376  1448.9118   2   5   0.0417   0.0407   0.0963  -0.0226  -0.0367   0.0426   0.00    1.6
2020/01/20 16:01:16.000   44.166054094    7.569437450  1448.9043   2   5   0.0415   0.0406   0.0961  -0.0224  -0.0366   0.0424   1.00    1.6
2020/01/20 16:01:17.000   44.166054049    7.569437436  1448.9092   2   5   0.0415   0.0406   0.0960  -0.0225  -0.0365   0.0425   2.00    1.6
2020/01/20 16:01:18.000   44.166054054    7.569437457  1448.9067   2   5   0.0416   0.0405   0.0960  -0.0226  -0.0365   0.0427   3.00    1.6
2020/01/20 16:01:19.000   44.166054115    7.569437460  1448.9061   2   5   0.0420   0.0405   0.0961  -0.0227  -0.0367   0.0430   4.00    1.6
2020/01/20 16:01:20.000   44.166054122    7.569437386  1448.9084   2   5   0.0403   0.0401   0.0948  -0.0219  -0.0360   0.0414   0.00    1.6
2020/01/20 16:01:21.000   44.166054185    7.569437341  1448.9153   2   5   0.0401   0.0400   0.0946  -0.0218  -0.0359   0.0413   1.00    1.6
2020/01/20 16:01:22.000   44.166054223    7.569437336  1448.9111   2   5   0.0402   0.0400   0.0945  -0.0219  -0.0359   0.0413   2.00    1.6
2020/01/20 16:01:23.000   44.166054359    7.569437260  1448.9260   2   5   0.0404   0.0399   0.0945  -0.0220  -0.0359   0.0415   3.00    1.6
2020/01/20 16:01:24.000   44.166054369    7.569437286  1448.9201   2   5   0.0407   0.0399   0.0947  -0.0222  -0.0360   0.0419   4.00    1.6
2020/01/20 16:01:25.000   44.166054318    7.569437331  1448.9213   2   5   0.0391   0.0396   0.0934  -0.0213  -0.0354   0.0403   0.00    1.6
2020/01/20 16:01:26.000   44.166054325    7.569437347  1448.9187   2   5   0.0389   0.0395   0.0931  -0.0213  -0.0353   0.0401   1.00    1.6
2020/01/20 16:01:27.000   44.166054243    7.569437410  1448.9071   2   5   0.0389   0.0394   0.0931  -0.0213  -0.0352   0.0402   2.00    1.6
2020/01/20 16:01:28.000   44.166054084    7.569437510  1448.8806   2   5   0.0392   0.0394   0.0931  -0.0214  -0.0353   0.0404   3.00    1.6
2020/01/20 16:01:29.000   44.166053888    7.569437626  1448.8583   2   5   0.0396   0.0394   0.0933  -0.0216  -0.0354   0.0408   4.00    1.6
2020/01/20 16:01:30.000   44.166054198    7.569437354  1448.9215   2   5   0.0379   0.0390   0.0920  -0.0208  -0.0348   0.0392   0.00    1.6
2020/01/20 16:01:31.000   44.166054023    7.569437507  1448.8945   2   5   0.0377   0.0389   0.0918  -0.0207  -0.0347   0.0391   1.00    1.6
2020/01/20 16:01:32.000   44.166053817    7.569437584  1448.8766   2   5   0.0378   0.0389   0.0917  -0.0207  -0.0347   0.0391   2.00    1.6
2020/01/20 16:01:33.000   44.166053614    7.569437687  1448.8500   2   5   0.0380   0.0388   0.0918  -0.0209  -0.0347   0.0394   3.00    1.5
2020/01/20 16:01:34.000   44.166053468    7.569437750  1448.8320   2   5   0.0385   0.0389   0.0920  -0.0211  -0.0348   0.0398   4.00    1.5
2020/01/20 16:01:35.000   44.166053826    7.569437353  1448.9005   2   5   0.0368   0.0385   0.0907  -0.0203  -0.0342   0.0382   0.00    1.5
2020/01/20 16:01:36.000   44.166053784    7.569437343  1448.8925   2   5   0.0366   0.0384   0.0905  -0.0202  -0.0341   0.0381   1.00    1.5
2020/01/20 16:01:37.000   44.166053755    7.569437490  1448.8689   2   5   0.0367   0.0384   0.0904  -0.0203  -0.0341   0.0382   2.00    1.5
2020/01/20 16:01:38.000   44.166053736    7.569437387  1448.8690   2   5   0.0370   0.0383   0.0905  -0.0204  -0.0341   0.0384   3.00    1.5
2020/01/20 16:01:39.000   44.166053687    7.569437398  1448.8591   2   5   0.0374   0.0384   0.0907  -0.0206  -0.0343   0.0389   4.00    1.5
2020/01/20 16:01:40.000   44.166053781    7.569437259  1448.9112   2   5   0.0357   0.0380   0.0894  -0.0198  -0.0336   0.0372   0.00    1.5
2020/01/20 16:01:41.000   44.166053759    7.569437311  1448.8991   2   5   0.0356   0.0379   0.0892  -0.0197  -0.0336   0.0371   1.00    1.5
2020/01/20 16:01:42.000   44.166053659    7.569437297  1448.8974   2   5   0.0357   0.0379   0.0892  -0.0198  -0.0335   0.0372   2.00    1.5
2020/01/20 16:01:43.000   44.166053597    7.569437423  1448.8743   2   5   0.0360   0.0378   0.0893  -0.0199  -0.0336   0.0375   3.00    1.5
2020/01/20 16:01:44.000   44.166052797    7.569436776  1448.8679   2   5   0.0364   0.0379   0.0895  -0.0201  -0.0337   0.0380   4.00    1.5
2020/01/20 16:01:45.000   44.166050549    7.569432996  1448.9611   2   5   0.0347   0.0375   0.0882  -0.0193  -0.0331   0.0363   0.00    1.5
2020/01/20 16:01:46.000   44.166047881    7.569428120  1448.9798   2   5   0.0346   0.0374   0.0880  -0.0193  -0.0330   0.0362   1.00    1.5
2020/01/20 16:01:47.000   44.166043909    7.569421090  1449.0314   2   5   0.0347   0.0374   0.0880  -0.0193  -0.0330   0.0364   2.00    1.5
2020/01/20 16:01:48.000   44.166039427    7.569412132  1449.1053   2   5   0.0350   0.0374   0.0881  -0.0195  -0.0331   0.0367   3.00    1.5
2020/01/20 16:01:49.000   44.166031518    7.569396846  1449.2432   2   5   0.0355   0.0374   0.0884  -0.0197  -0.0332   0.0372   4.00    1.5
2020/01/20 16:01:50.000   44.166021327    7.569377958  1449.4342   2   5   0.0338   0.0370   0.0871  -0.0189  -0.0326   0.0355   0.00    1.5
2020/01/20 16:01:51.000   44.166011273    7.569359272  1449.5957   2   5   0.0336   0.0370   0.0869  -0.0188  -0.0325   0.0354   1.00    1.5
2020/01/20 16:01:52.000   44.166000490    7.569340609  1449.7394   2   5   0.0338   0.0369   0.0869  -0.0189  -0.0325   0.0355   2.00    1.5
2020/01/20 16:01:53.000   44.165987682    7.569322230  1449.8693   2   5   0.0341   0.0369   0.0870  -0.0191  -0.0326   0.0359   3.00    1.5
2020/01/20 16:01:54.000   44.165972636    7.569306834  1450.0803   2   5   0.0346   0.0370   0.0873  -0.0193  -0.0328   0.0364   4.00    1.5
2020/01/20 16:01:55.000   44.165955326    7.569293688  1450.3428   2   5   0.0329   0.0366   0.0859  -0.0185  -0.0321   0.0347   0.00    1.5
2020/01/20 16:01:56.000   44.165938590    7.569282682  1450.6099   2   5   0.0328   0.0366   0.0858  -0.0184  -0.0321   0.0346   1.00    1.5
2020/01/20 16:01:57.000   44.165920927    7.569273046  1450.8698   2   5   0.0329   0.0365   0.0858  -0.0185  -0.0321   0.0348   2.00    1.5
2020/01/20 16:01:58.000   44.165902049    7.569265068  1451.1503   2   5   0.0333   0.0365   0.0859  -0.0187  -0.0322   0.0351   3.00    1.5
2020/01/20 16:01:59.000   44.165881225    7.569257647  1451.4146   2   5   0.0338   0.0365   0.0862  -0.0189  -0.0323   0.0357   4.00    1.5
2020/01/20 16:02:00.000   44.165859895    7.569251193  1451.7003   2   5   0.0320   0.0362   0.0849  -0.0181  -0.0317   0.0339   0.00    1.5
2020/01/20 16:02:01.000   44.165839511    7.569244822  1451.9019   2   5   0.0320   0.0361   0.0847  -0.0181  -0.0316   0.0339   1.00    1.5
2020/01/20 16:02:02.000   44.165820178    7.569239315  1452.1540   2   5   0.0321   0.0361   0.0847  -0.0182  -0.0316   0.0340   2.00    1.5
2020/01/20 16:02:03.000   44.165800008    7.569233467  1452.4061   2   5   0.0325   0.0361   0.0849  -0.0183  -0.0317   0.0344   3.00    1.5
2020/01/20 16:02:04.000   44.165779439    7.569227455  1452.6909   2   5   0.0330   0.0361   0.0852  -0.0186  -0.0318   0.0349   4.00    1.5
2020/01/20 16:02:05.000   44.165758701    7.569221635  1452.9583   2   5   0.0312   0.0358   0.0839  -0.0177  -0.0312   0.0332   0.00    1.5
2020/01/20 16:02:06.000   44.165739079    7.569216106  1453.3386   2   5   0.0312   0.0357   0.0837  -0.0177  -0.0312   0.0332   1.00    1.5
2020/01/20 16:02:07.000   44.165719307    7.569210574  1453.7543   2   5   0.0313   0.0356   0.0837  -0.0178  -0.0312   0.0333   2.00    1.5
2020/01/20 16:02:08.000   44.165699557    7.569205138  1454.1847   2   5   0.0317   0.0357   0.0839  -0.0180  -0.0313   0.0337   3.00    1.5
2020/01/20 16:02:09.000   44.165680828    7.569198206  1454.6279   2   5   0.0323   0.0357   0.0842  -0.0182  -0.0314   0.0343   4.00    1.5
2020/01/20 16:02:10.000   44.165662648    7.569187886  1454.9824   2   5   0.0305   0.0353   0.0829  -0.0174  -0.0308   0.0325   0.00    1.5
2020/01/20 16:02:11.000   44.165645750    7.569171936  1455.2616   2   5   0.0304   0.0353   0.0828  -0.0173  -0.0308   0.0325   1.00    1.5
2020/01/20 16:02:12.000   44.165630285    7.569152248  1455.4968   2   5   0.0306   0.0353   0.0828  -0.0174  -0.0308   0.0327   2.00    1.5
2020/01/20 16:02:13.000   44.165616654    7.569130632  1455.7228   2   5   0.0310   0.0353   0.0830  -0.0176  -0.0309   0.0331   3.00    1.5
2020/01/20 16:02:14.000   44.165605248    7.569105833  1455.8817   2   5   0.0316   0.0353   0.0833  -0.0179  -0.0310   0.0337   4.00    1.5
2020/01/20 16:02:15.000   44.165595749    7.569078280  1455.9495   2   5   0.0297   0.0349   0.0819  -0.0170  -0.0304   0.0319   0.00    1.5
2020/01/20 16:02:16.000   44.165588492    7.569048473  1456.0433   2   5   0.0297   0.0349   0.0818  -0.0171  -0.0303   0.0319   1.00    1.5
2020/01/20 16:02:17.000   44.165583261    7.569015850  1456.1286   2   5   0.0299   0.0349   0.0819  -0.0171  -0.0304   0.0320   2.00    1.4
2020/01/20 16:02:18.000   44.165579441    7.568983421  1456.2073   2   5   0.0304   0.0349   0.0820  -0.0173  -0.0305   0.0325   3.00    1.4
2020/01/20 16:02:19.000   44.165577053    7.568950797  1456.2849   2   5   0.0310   0.0349   0.0824  -0.0176  -0.0306   0.0331   4.00    1.4
2020/01/20 16:02:20.000   44.165574860    7.568917869  1456.4035   2   5   0.0291   0.0346   0.0810  -0.0167  -0.0300   0.0313   0.00    1.4
2020/01/20 16:02:21.000   44.165572852    7.568883991  1456.4994   2   5   0.0290   0.0345   0.0809  -0.0167  -0.0300   0.0312   1.00    1.4
2020/01/20 16:02:22.000   44.165571362    7.568850717  1456.6073   2   5   0.0293   0.0345   0.0810  -0.0168  -0.0300   0.0314   2.00    1.4
2020/01/20 16:02:23.000   44.165570406    7.568818043  1456.7534   2   5   0.0297   0.0345   0.0812  -0.0170  -0.0301   0.0319   3.00    1.4
2020/01/20 16:02:24.000   44.165569285    7.568785908  1456.8930   2   5   0.0303   0.0346   0.0815  -0.0173  -0.0303   0.0325   4.00    1.4
2020/01/20 16:02:25.000   44.165568457    7.568755079  1457.0658   2   5   0.0284   0.0342   0.0802  -0.0164  -0.0296   0.0307   0.00    1.4
2020/01/20 16:02:26.000   44.165568302    7.568724495  1457.2853   2   5   0.0284   0.0342   0.0801  -0.0164  -0.0296   0.0306   1.00    1.4
2020/01/20 16:02:27.000   44.165568764    7.568694165  1457.5695   2   5   0.0286   0.0342   0.0801  -0.0165  -0.0296   0.0309   2.00    1.4
2020/01/20 16:02:28.000   44.165570524    7.568664128  1457.7856   2   5   0.0291   0.0342   0.0803  -0.0167  -0.0297   0.0313   3.00    1.4
2020/01/20 16:02:29.000   44.165573118    7.568634379  1458.0983   2   5   0.0298   0.0342   0.0807  -0.0170  -0.0299   0.0320   4.00    1.4
2020/01/20 16:02:30.000   44.165575323    7.568604359  1458.4415   2   5   0.0278   0.0338   0.0793  -0.0162  -0.0293   0.0301   0.00    1.4
2020/01/20 16:02:31.000   44.165577492    7.568574642  1458.8700   2   5   0.0278   0.0338   0.0792  -0.0161  -0.0292   0.0301   1.00    1.4
2020/01/20 16:02:32.000   44.165579672    7.568545546  1459.3520   2   5   0.0280   0.0338   0.0793  -0.0163  -0.0293   0.0304   2.00    1.4
2020/01/20 16:02:33.000   44.165581561    7.568515732  1459.8537   2   5   0.0285   0.0338   0.0795  -0.0165  -0.0294   0.0308   3.00    1.4
2020/01/20 16:02:34.000   44.165582938    7.568486758  1460.4266   2   5   0.0292   0.0339   0.0799  -0.0167  -0.0296   0.0315   4.00    1.3
2020/01/20 16:02:35.000   44.165583490    7.568457698  1460.9997   2   5   0.0272   0.0335   0.0785  -0.0159  -0.0289   0.0296   0.00    1.3
2020/01/20 16:02:36.000   44.165583062    7.568428379  1461.6374   2   5   0.0272   0.0335   0.0784  -0.0159  -0.0289   0.0296   1.00    1.3
2020/01/20 16:02:37.000   44.165581962    7.568399834  1462.3348   2   5   0.0275   0.0335   0.0785  -0.0160  -0.0289   0.0298   2.00    1.3
2020/01/20 16:02:38.000   44.165580816    7.568371397  1463.0364   2   5   0.0280   0.0335   0.0787  -0.0162  -0.0291   0.0303   3.00    1.3
2020/01/20 16:02:39.000   44.165580029    7.568342447  1463.7500   2   5   0.0287   0.0336   0.0791  -0.0165  -0.0292   0.0310   4.00    1.3
2020/01/20 16:02:40.000   44.165578934    7.568313755  1464.4142   2   5   0.0267   0.0332   0.0777  -0.0156  -0.0286   0.0291   0.00    1.3
2020/01/20 16:02:41.000   44.165577744    7.568285993  1465.1445   2   5   0.0267   0.0331   0.0776  -0.0156  -0.0286   0.0291   1.00    1.3
2020/01/20 16:02:42.000   44.165576211    7.568258428  1465.8889   2   5   0.0270   0.0331   0.0777  -0.0157  -0.0286   0.0293   2.00    1.3
2020/01/20 16:02:43.000   44.165574563    7.568230938  1466.6444   2   5   0.0275   0.0332   0.0779  -0.0160  -0.0287   0.0298   3.00    1.3
2020/01/20 16:02:44.000   44.165572250    7.568202908  1467.3984   2   5   0.0282   0.0332   0.0783  -0.0162  -0.0289   0.0305   4.00    1.3
2020/01/20 16:02:45.000   44.165569760    7.568175472  1468.1268   2   5   0.0261   0.0328   0.0769  -0.0154  -0.0283   0.0286   0.00    1.2
2020/01/20 16:02:46.000   44.165568413    7.568148195  1468.9309   2   4   0.0383   0.0331   0.0842  -0.0110  -0.0256   0.0422   1.00    3.0
2020/01/20 16:02:47.000   44.165566310    7.568120850  1469.6980   2   4   0.0278   0.0328   0.0777  -0.0152  -0.0281   0.0304   2.00    1.5
2020/01/20 16:02:48.000   44.165564564    7.568094160  1470.4741   2   4   0.0286   0.0329   0.0780  -0.0154  -0.0282   0.0312   3.00    1.5
2020/01/20 16:02:49.000   44.165563135    7.568067311  1471.2993   2   6   0.0278   0.0329   0.0776  -0.0160  -0.0285   0.0301   4.00    1.0
2020/01/20 16:02:50.000   44.165561411    7.568040234  1472.1277   2   6   0.0255   0.0325   0.0758  -0.0148  -0.0275   0.0277   0.00    1.0
2020/01/20 16:02:51.000   44.165559780    7.568013338  1473.0094   2   6   0.0252   0.0323   0.0755  -0.0146  -0.0272   0.0274   1.00    1.1
2020/01/20 16:02:52.000   44.165557583    7.567985664  1473.8582   2   6   0.0253   0.0323   0.0753  -0.0145  -0.0271   0.0273   2.00    1.1
2020/01/20 16:02:53.000   44.165555880    7.567958670  1474.7197   2   6   0.0255   0.0322   0.0753  -0.0145  -0.0269   0.0273   3.00    1.1
2020/01/20 16:02:54.000   44.165554101    7.567931926  1475.5965   2   6   0.0259   0.0322   0.0753  -0.0145  -0.0268   0.0275   4.00    1.1
2020/01/20 16:02:55.000   44.165551926    7.567905098  1476.4337   2   6   0.0246   0.0319   0.0745  -0.0142  -0.0266   0.0266   0.00    1.1
2020/01/20 16:02:56.000   44.165550294    7.567878738  1477.2790   2   6   0.0245   0.0319   0.0743  -0.0141  -0.0265   0.0265   1.00    1.2
2020/01/20 16:02:57.000   44.165548134    7.567853686  1478.1917   2   6   0.0246   0.0319   0.0742  -0.0141  -0.0263   0.0265   2.00    1.2
2020/01/20 16:02:58.000   44.165546483    7.567827878  1479.0936   2   6   0.0249   0.0318   0.0742  -0.0141  -0.0262   0.0266   3.00    1.2
2020/01/20 16:02:59.000   44.165544377    7.567801648  1480.0230   2   6   0.0253   0.0318   0.0742  -0.0140  -0.0261   0.0268   4.00    1.1
2020/01/20 16:03:00.000   44.165541889    7.567774984  1480.9315   2   5   0.0250   0.0317   0.0735  -0.0147  -0.0257   0.0255   0.00    1.8
2020/01/20 16:03:01.000   44.165539404    7.567748530  1481.8420   2   6   0.0241   0.0315   0.0733  -0.0138  -0.0258   0.0259   1.00    1.1
2020/01/20 16:03:02.000   44.165537539    7.567722459  1482.7156   2   6   0.0242   0.0314   0.0732  -0.0137  -0.0257   0.0260   2.00    1.1
2020/01/20 16:03:03.000   44.165535953    7.567696854  1483.5984   2   6   0.0245   0.0314   0.0732  -0.0138  -0.0256   0.0261   3.00    1.1
2020/01/20 16:03:04.000   44.165534086    7.567670849  1484.5085   2   6   0.0249   0.0314   0.0732  -0.0137  -0.0254   0.0263   4.00    1.1
2020/01/20 16:03:05.000   44.165532822    7.567645031  1485.3843   2   6   0.0236   0.0311   0.0725  -0.0135  -0.0253   0.0255   0.00    1.1
2020/01/20 16:03:06.000   44.165530602    7.567619062  1486.2778   2   6   0.0236   0.0311   0.0724  -0.0135  -0.0252   0.0254   1.00    1.1
2020/01/20 16:03:07.000   44.165527782    7.567593308  1487.1516   2   6   0.0237   0.0311   0.0723  -0.0135  -0.0251   0.0254   2.00    1.1
2020/01/20 16:03:08.000   44.165525413    7.567567751  1488.0473   2   6   0.0240   0.0311   0.0723  -0.0134  -0.0250   0.0256   3.00    1.1
2020/01/20 16:03:09.000   44.165523046    7.567542454  1488.9290   2   6   0.0244   0.0310   0.0723  -0.0134  -0.0249   0.0257   4.00    1.1
2020/01/20 16:03:10.000   44.165521266    7.567517087  1489.8585   2   6   0.0231   0.0308   0.0716  -0.0132  -0.0248   0.0249   0.00    1.1
2020/01/20 16:03:11.000   44.165519438    7.567491283  1490.7925   2   6   0.0231   0.0308   0.0715  -0.0132  -0.0247   0.0249   1.00    1.1
2020/01/20 16:03:12.000   44.165517536    7.567465672  1491.7045   2   6   0.0233   0.0307   0.0714  -0.0132  -0.0246   0.0249   2.00    1.1
2020/01/20 16:03:13.000   44.165515841    7.567441744  1492.6174   2   6   0.0236   0.0307   0.0714  -0.0132  -0.0244   0.0251   3.00    1.1
2020/01/20 16:03:14.000   44.165514209    7.567417606  1493.5309   2   6   0.0240   0.0307   0.0715  -0.0132  -0.0243   0.0253   4.00    1.1
2020/01/20 16:03:15.000   44.165512123    7.567391594  1494.4763   2   6   0.0227   0.0304   0.0708  -0.0130  -0.0243   0.0245   0.00    1.0
2020/01/20 16:03:16.000   44.165509986    7.567365060  1495.4169   2   6   0.0239   0.0306   0.0707  -0.0119  -0.0243   0.0240   1.00    1.1
2020/01/20 16:03:17.000   44.165507260    7.567338462  1496.2706   2   6   0.0237   0.0304   0.0706  -0.0123  -0.0241   0.0243   2.00    1.4
2020/01/20 16:03:18.000   44.165505172    7.567314633  1497.0788   2   6   0.0239   0.0304   0.0706  -0.0125  -0.0240   0.0245   3.00    1.7
2020/01/20 16:03:19.000   44.165503070    7.567291300  1497.9051   2   6   0.0243   0.0304   0.0706  -0.0125  -0.0238   0.0247   4.00    1.9
2020/01/20 16:03:20.000   44.165500869    7.567267330  1498.8186   2   6   0.0229   0.0302   0.0699  -0.0124  -0.0238   0.0239   0.00    2.1
2020/01/20 16:03:21.000   44.165498341    7.567242778  1499.7103   2   6   0.0229   0.0301   0.0698  -0.0124  -0.0236   0.0239   1.00    2.4
2020/01/20 16:03:22.000   44.165495419    7.567219448  1500.5569   2   6   0.0231   0.0300   0.0697  -0.0124  -0.0235   0.0240   2.00    2.7
2020/01/20 16:03:23.000   44.165491623    7.567196134  1501.3656   2   6   0.0234   0.0300   0.0698  -0.0124  -0.0234   0.0241   3.00    2.9
2020/01/20 16:03:24.000   44.165488042    7.567167437  1502.5651   1   6   0.0127   0.0055   0.0147  -0.0035  -0.0022   0.0100   4.00    3.1
2020/01/20 16:03:25.000   44.165486234    7.567142001  1503.4789   1   6   0.0105   0.0047   0.0119  -0.0031  -0.0029   0.0083   0.00    3.2
2020/01/20 16:03:26.000   44.165484172    7.567116038  1504.3276   1   6   0.0108   0.0048   0.0122  -0.0032  -0.0028   0.0084   1.00    3.3
2020/01/20 16:03:27.000   44.165481509    7.567090440  1505.0903   1   6   0.0111   0.0051   0.0127  -0.0032  -0.0027   0.0088   2.00    3.5
2020/01/20 16:03:28.000   44.165478476    7.567064230  1505.8076   1   6   0.0118   0.0051   0.0136  -0.0033  -0.0025   0.0093   3.00    3.6
2020/01/20 16:03:29.000   44.165476247    7.567039059  1506.4705   1   6   0.0127   0.0053   0.0146  -0.0035  -0.0018   0.0100   4.00    3.6
2020/01/20 16:03:30.000   44.165475177    7.567013106  1507.1192   1   6   0.0105   0.0048   0.0119  -0.0030  -0.0029   0.0083   0.00    3.7
2020/01/20 16:03:31.000   44.165473951    7.566986189  1507.7522   1   6   0.0107   0.0045   0.0121  -0.0033  -0.0026   0.0084   1.00    3.7
2020/01/20 16:03:32.000   44.165472055    7.566958666  1508.3588   1   6   0.0111   0.0050   0.0127  -0.0033  -0.0028   0.0088   2.00    3.7
2020/01/20 16:03:33.000   44.165470261    7.566930872  1508.9256   1   6   0.0118   0.0051   0.0136  -0.0033  -0.0026   0.0093   3.00    3.7
2020/01/20 16:03:34.000   44.165468345    7.566903517  1509.4661   1   6   0.0127   0.0055   0.0147  -0.0034  -0.0021   0.0100   4.00    9.8
2020/01/20 16:03:35.000   44.165466409    7.566876497  1510.0367   1   6   0.0105   0.0049   0.0120  -0.0030  -0.0031   0.0083   0.00   12.9
2020/01/20 16:03:36.000   44.165464685    7.566848916  1510.5700   1   6   0.0106   0.0047   0.0121  -0.0030  -0.0029   0.0085   1.00   16.1
2020/01/20 16:03:37.000   44.165461866    7.566820699  1511.1155   1   6   0.0112   0.0049   0.0127  -0.0032  -0.0025   0.0088   2.00   19.2
2020/01/20 16:03:38.000   44.165459473    7.566793109  1511.6318   1   6   0.0118   0.0051   0.0136  -0.0033  -0.0024   0.0094   3.00   22.2
2020/01/20 16:03:39.000   44.165457084    7.566765490  1512.1667   1   6   0.0127   0.0055   0.0147  -0.0033  -0.0020   0.0100   4.00   25.0
2020/01/20 16:03:40.000   44.165454030    7.566736867  1512.7654   1   6   0.0105   0.0046   0.0119  -0.0031  -0.0026   0.0083   0.00   27.6
2020/01/20 16:03:41.000   44.165450956    7.566707356  1513.3581   1   6   0.0107   0.0047   0.0121  -0.0032  -0.0028   0.0084   1.00   30.0
2020/01/20 16:03:42.000   44.165447550    7.566677667  1513.9333   1   6   0.0111   0.0048   0.0127  -0.0032  -0.0027   0.0088   2.00   32.3
2020/01/20 16:03:43.000   44.165444130    7.566648319  1514.4776   1   6   0.0119   0.0052   0.0136  -0.0032  -0.0025   0.0093   3.00   35.0
2020/01/20 16:03:44.000   44.165440876    7.566619374  1514.9991   1   6   0.0127   0.0055   0.0147  -0.0034  -0.0020   0.0100   4.00   37.7
2020/01/20 16:03:45.000   44.165438328    7.566590808  1515.5656   1   6   0.0104   0.0046   0.0119  -0.0031  -0.0028   0.0084   0.00   40.0
2020/01/20 16:03:46.000   44.165435740    7.566562482  1516.1079   1   6   0.0107   0.0047   0.0121  -0.0030  -0.0027   0.0085   1.00   42.3
2020/01/20 16:03:47.000   44.165432972    7.566534253  1516.6753   1   6   0.0111   0.0050   0.0127  -0.0032  -0.0026   0.0088   2.00   44.6
2020/01/20 16:03:48.000   44.165429955    7.566505427  1517.2485   1   6   0.0119   0.0052   0.0136  -0.0034  -0.0023   0.0093   3.00   47.0
2020/01/20 16:03:49.000   44.165427017    7.566475903  1517.8062   1   6   0.0127   0.0056   0.0147  -0.0035  -0.0018   0.0100   4.00   49.3
2020/01/20 16:03:50.000   44.165424575    7.566446354  1518.4026   1   6   0.0105   0.0047   0.0120  -0.0031  -0.0030   0.0083   0.00   51.3
2020/01/20 16:03:51.000   44.165422285    7.566416494  1518.9443   1   6   0.0107   0.0045   0.0122  -0.0032  -0.0027   0.0084   1.00   53.3
2020/01/20 16:03:52.000   44.165419782    7.566386126  1519.4897   1   6   0.0112   0.0047   0.0127  -0.0033  -0.0026   0.0088   2.00   55.0
2020/01/20 16:03:53.000   44.165417804    7.566356261  1520.0592   1   6   0.0118   0.0054   0.0137  -0.0032  -0.0026   0.0094   3.00   57.0
2020/01/20 16:03:54.000   44.165416093    7.566326614  1520.6548   1   6   0.0128   0.0056   0.0147  -0.0033  -0.0020   0.0100   4.00   58.8
2020/01/20 16:03:55.000   44.165414419    7.566296630  1521.2794   1   6   0.0104   0.0046   0.0119  -0.0031  -0.0026   0.0083   0.00   60.4
2020/01/20 16:03:56.000   44.165412593    7.566266164  1521.8800   1   6   0.0106   0.0047   0.0121  -0.0030  -0.0026   0.0085   1.00   62.1
2020/01/20 16:03:57.000   44.165409833    7.566234176  1522.4653   1   6   0.0111   0.0050   0.0128  -0.0031  -0.0026   0.0088   2.00   64.2
2020/01/20 16:03:58.000   44.165406825    7.566201580  1523.1031   1   6   0.0118   0.0051   0.0136  -0.0034  -0.0024   0.0094   3.00   66.0
2020/01/20 16:03:59.000   44.165404123    7.566169477  1523.7459   1   6   0.0127   0.0056   0.0147  -0.0033  -0.0021   0.0100   4.00   67.9
2020/01/20 16:04:00.000   44.165400989    7.566137288  1524.4585   1   6   0.0105   0.0045   0.0119  -0.0031  -0.0028   0.0083   0.00   69.0
2020/01/20 16:04:01.000   44.165397963    7.566105214  1525.1772   1   6   0.0106   0.0046   0.0122  -0.0031  -0.0027   0.0085   1.00   70.1
2020/01/20 16:04:02.000   44.165394481    7.566072596  1525.9279   1   6   0.0112   0.0051   0.0128  -0.0030  -0.0029   0.0088   2.00   71.2
2020/01/20 16:04:03.000   44.165390971    7.566039864  1526.6624   1   6   0.0118   0.0053   0.0136  -0.0032  -0.0026   0.0094   3.00   72.5
2020/01/20 16:04:04.000   44.165387151    7.566007634  1527.3861   1   6   0.0127   0.0054   0.0147  -0.0034  -0.0017   0.0100   4.00   74.1
2020/01/20 16:04:05.000   44.165383612    7.565975046  1528.1170   1   6   0.0104   0.0049   0.0120  -0.0029  -0.0032   0.0084   0.00   75.4
2020/01/20 16:04:06.000   44.165380071    7.565942940  1528.8434   1   6   0.0106   0.0048   0.0122  -0.0030  -0.0029   0.0084   1.00   76.6
2020/01/20 16:04:07.000   44.165376332    7.565910515  1529.5633   1   6   0.0111   0.0048   0.0127  -0.0032  -0.0026   0.0089   2.00   78.3
2020/01/20 16:04:08.000   44.165372090    7.565877183  1530.2621   1   6   0.0118   0.0051   0.0136  -0.0033  -0.0022   0.0094   3.00   79.9
2020/01/20 16:04:09.000   44.165367073    7.565843289  1530.9242   1   6   0.0127   0.0054   0.0147  -0.0033  -0.0018   0.0100   4.00   82.0
2020/01/20 16:04:10.000   44.165362715    7.565810995  1531.6468   1   6   0.0105   0.0048   0.0119  -0.0030  -0.0027   0.0084   0.00   82.9
2020/01/20 16:04:11.000   44.165359085    7.565779863  1532.4006   1   6   0.0107   0.0046   0.0122  -0.0030  -0.0027   0.0085   1.00   83.7
2020/01/20 16:04:12.000   44.165355089    7.565749597  1533.2374   1   6   0.0111   0.0049   0.0127  -0.0031  -0.0027   0.0088   2.00   85.0
2020/01/20 16:04:13.000   44.165351327    7.565719897  1534.1274   1   6   0.0119   0.0053   0.0136  -0.0032  -0.0024   0.0094   3.00   86.7
2020/01/20 16:04:14.000   44.165347244    7.565688774  1535.0163   1   6   0.0128   0.0057   0.0147  -0.0033  -0.0019   0.0100   4.00   88.1
2020/01/20 16:04:15.000   44.165343093    7.565657056  1535.8725   1   6   0.0105   0.0046   0.0120  -0.0030  -0.0027   0.0084   0.00   88.8
2020/01/20 16:04:16.000   44.165339459    7.565625791  1536.7267   1   6   0.0107   0.0048   0.0122  -0.0031  -0.0027   0.0085   1.00   89.3
2020/01/20 16:04:17.000   44.165334850    7.565593127  1537.5403   1   6   0.0112   0.0050   0.0128  -0.0030  -0.0027   0.0088   2.00   90.0
2020/01/20 16:04:18.000   44.165329560    7.565558453  1538.1803   1   6   0.0118   0.0052   0.0137  -0.0031  -0.0024   0.0094   3.00   91.3
2020/01/20 16:04:19.000   44.165324056    7.565523114  1538.6353   1   6   0.0127   0.0057   0.0148  -0.0033  -0.0022   0.0100   4.00   93.6
2020/01/20 16:04:20.000   44.165318738    7.565490055  1539.1158   1   6   0.0105   0.0044   0.0120  -0.0032  -0.0026   0.0084   0.00   95.1
2020/01/20 16:04:21.000   44.165313330    7.565458358  1539.6393   1   6   0.0107   0.0045   0.0121  -0.0031  -0.0027   0.0085   1.00   96.1
2020/01/20 16:04:22.000   44.165307684    7.565426392  1540.2032   1   6   0.0111   0.0049   0.0128  -0.0031  -0.0024   0.0089   2.00   97.1
2020/01/20 16:04:23.000   44.165301931    7.565396024  1540.8315   1   6   0.0118   0.0051   0.0136  -0.0032  -0.0023   0.0095   3.00   98.4
2020/01/20 16:04:24.000   44.165296286    7.565366400  1541.5552   1   6   0.0127   0.0055   0.0148  -0.0032  -0.0019   0.0100   4.00   99.8
2020/01/20 16:04:25.000   44.165288704    7.565335567  1542.3127   1   6   0.0105   0.0046   0.0120  -0.0029  -0.0028   0.0083   0.00  101.0
2020/01/20 16:04:26.000   44.165281071    7.565304705  1543.0537   1   6   0.0106   0.0047   0.0122  -0.0030  -0.0025   0.0085   1.00  102.4
2020/01/20 16:04:27.000   44.165272487    7.565273054  1543.7771   1   6   0.0111   0.0048   0.0128  -0.0032  -0.0024   0.0089   2.00  103.8
2020/01/20 16:04:28.000   44.165263284    7.565242116  1544.4673   1   6   0.0118   0.0051   0.0136  -0.0031  -0.0024   0.0094   3.00  106.0
2020/01/20 16:04:29.000   44.165254108    7.565211463  1545.1616   1   6   0.0127   0.0055   0.0148  -0.0032  -0.0020   0.0101   4.00  108.1
2020/01/20 16:04:30.000   44.165245273    7.565180298  1545.8267   1   6   0.0104   0.0047   0.0120  -0.0029  -0.0026   0.0084   0.00  110.2
2020/01/20 16:04:31.000   44.165236728    7.565150416  1546.6000   1   6   0.0107   0.0047   0.0122  -0.0031  -0.0023   0.0085   1.00  111.4
2020/01/20 16:04:32.000   44.165228057    7.565120970  1547.4085   1   6   0.0112   0.0050   0.0128  -0.0030  -0.0025   0.0088   2.00  113.0
2020/01/20 16:04:33.000   44.165219644    7.565092430  1548.2605   1   6   0.0119   0.0053   0.0137  -0.0031  -0.0026   0.0094   3.00  113.9
2020/01/20 16:04:34.000   44.165211031    7.565063529  1549.1260   1   6   0.0128   0.0055   0.0147  -0.0032  -0.0018   0.0101   4.00  114.6
2020/01/20 16:04:35.000   44.165201980    7.565034842  1549.9737   1   6   0.0105   0.0048   0.0120  -0.0029  -0.0028   0.0083   0.00  116.3
2020/01/20 16:04:36.000   44.165192740    7.565006702  1550.8515   1   6   0.0106   0.0046   0.0122  -0.0030  -0.0026   0.0085   1.00  117.6
2020/01/20 16:04:37.000   44.165183258    7.564979072  1551.7699   1   6   0.0111   0.0049   0.0128  -0.0030  -0.0025   0.0089   2.00  118.8
2020/01/20 16:04:38.000   44.165174037    7.564952051  1552.7114   1   6   0.0118   0.0052   0.0137  -0.0032  -0.0023   0.0094   3.00  120.2
2020/01/20 16:04:39.000   44.165164887    7.564923760  1553.6204   1   6   0.0127   0.0056   0.0148  -0.0033  -0.0021   0.0101   4.00  122.0
2020/01/20 16:04:40.000   44.165155539    7.564895358  1554.5027   1   6   0.0105   0.0048   0.0120  -0.0030  -0.0027   0.0084   0.00  123.3
2020/01/20 16:04:41.000   44.165145967    7.564866538  1555.3542   1   6   0.0107   0.0045   0.0122  -0.0030  -0.0025   0.0085   1.00  124.4
2020/01/20 16:04:42.000   44.165136195    7.564837431  1556.1881   1   6   0.0111   0.0050   0.0128  -0.0031  -0.0025   0.0089   2.00  125.6
2020/01/20 16:04:43.000   44.165126529    7.564808484  1557.0043   1   6   0.0118   0.0051   0.0137  -0.0033  -0.0022   0.0094   3.00  127.5
2020/01/20 16:04:44.000   44.165116598    7.564779877  1557.8252   1   6   0.0127   0.0055   0.0148  -0.0032  -0.0019   0.0101   4.00  129.4
2020/01/20 16:04:45.000   44.165106468    7.564751221  1558.6496   1   6   0.0104   0.0046   0.0120  -0.0029  -0.0026   0.0084   0.00  131.2
2020/01/20 16:04:46.000   44.165095973    7.564722874  1559.4861   1   6   0.0107   0.0044   0.0122  -0.0031  -0.0024   0.0085   1.00  132.9
2020/01/20 16:04:47.000   44.165085887    7.564695040  1560.3067   1   6   0.0111   0.0048   0.0128  -0.0030  -0.0026   0.0089   2.00  133.9
2020/01/20 16:04:48.000   44.165076071    7.564667598  1561.1582   1   6   0.0119   0.0050   0.0137  -0.0031  -0.0022   0.0094   3.00  134.9
2020/01/20 16:04:49.000   44.165066031    7.564639942  1562.0373   1   6   0.0127   0.0054   0.0148  -0.0033  -0.0016   0.0101   4.00  135.9
2020/01/20 16:04:50.000   44.165056246    7.564612667  1562.9322   1   6   0.0105   0.0046   0.0120  -0.0028  -0.0024   0.0084   0.00  136.3
2020/01/20 16:04:51.000   44.165047102    7.564586299  1563.8470   1   6   0.0107   0.0045   0.0122  -0.0031  -0.0025   0.0085   1.00  137.0
2020/01/20 16:04:52.000   44.165038104    7.564559979  1564.8055   1   6   0.0111   0.0050   0.0128  -0.0030  -0.0027   0.0089   2.00  138.0
2020/01/20 16:04:53.000   44.165029089    7.564533866  1565.8138   1   6   0.0118   0.0050   0.0137  -0.0031  -0.0022   0.0094   3.00  139.0
2020/01/20 16:04:54.000   44.165020177    7.564508155  1566.8168   1   6   0.0128   0.0055   0.0148  -0.0031  -0.0016   0.0101   4.00  140.1
2020/01/20 16:04:55.000   44.165011054    7.564482357  1567.8481   1   6   0.0105   0.0045   0.0120  -0.0030  -0.0026   0.0084   0.00  140.7
2020/01/20 16:04:56.000   44.165002184    7.564457282  1568.8595   1   6   0.0106   0.0047   0.0122  -0.0031  -0.0025   0.0085   1.00  141.2
2020/01/20 16:04:57.000   44.164993744    7.564432708  1569.8375   1   6   0.0111   0.0047   0.0128  -0.0032  -0.0024   0.0089   2.00  142.2
2020/01/20 16:04:58.000   44.164985892    7.564407351  1570.8231   1   6   0.0118   0.0050   0.0137  -0.0030  -0.0023   0.0095   3.00  143.4
2020/01/20 16:04:59.000   44.164977827    7.564381715  1571.8054   1   6   0.0128   0.0055   0.0148  -0.0032  -0.0016   0.0101   4.00  144.4
2020/01/20 16:05:00.000   44.164970187    7.564356450  1572.7912   1   6   0.0105   0.0047   0.0120  -0.0029  -0.0029   0.0084   0.00  144.6
2020/01/20 16:05:01.000   44.164962637    7.564330612  1573.7593   1   6   0.0106   0.0045   0.0122  -0.0030  -0.0026   0.0085   1.00  144.6
2020/01/20 16:05:02.000   44.164955291    7.564304849  1574.7993   1   6   0.0110   0.0048   0.0129  -0.0030  -0.0024   0.0089   2.00  144.9
2020/01/20 16:05:03.000   44.164947185    7.564278244  1575.7953   1   6   0.0119   0.0051   0.0136  -0.0031  -0.0022   0.0094   3.00  145.3
2020/01/20 16:05:04.000   44.164939657    7.564252285  1576.7871   1   6   0.0128   0.0054   0.0148  -0.0031  -0.0018   0.0101   4.00  146.4
2020/01/20 16:05:05.000   44.164932575    7.564225892  1577.7543   1   6   0.0104   0.0047   0.0120  -0.0030  -0.0025   0.0084   0.00  145.6
2020/01/20 16:05:06.000   44.164925513    7.564199313  1578.7699   1   6   0.0107   0.0047   0.0122  -0.0029  -0.0024   0.0085   1.00  145.2
2020/01/20 16:05:07.000   44.164917259    7.564172357  1579.8288   1   6   0.0111   0.0047   0.0128  -0.0031  -0.0023   0.0089   2.00  144.4
2020/01/20 16:05:08.000   44.164909283    7.564145638  1580.8570   1   6   0.0119   0.0051   0.0137  -0.0030  -0.0024   0.0095   3.00  143.9
2020/01/20 16:05:09.000   44.164901881    7.564119585  1581.8400   1   6   0.0128   0.0055   0.0148  -0.0032  -0.0016   0.0101   4.00  144.1
2020/01/20 16:05:10.000   44.164895503    7.564092903  1582.8157   1   6   0.0105   0.0047   0.0120  -0.0028  -0.0026   0.0084   0.00  144.2
2020/01/20 16:05:11.000   44.164889169    7.564065622  1583.8231   1   6   0.0107   0.0046   0.0122  -0.0030  -0.0027   0.0085   1.00  143.6
2020/01/20 16:05:12.000   44.164883571    7.564038883  1584.7891   1   6   0.0111   0.0047   0.0128  -0.0030  -0.0023   0.0089   2.00  143.4
2020/01/20 16:05:13.000   44.164878940    7.564013346  1585.7202   1   6   0.0119   0.0051   0.0137  -0.0032  -0.0020   0.0095   3.00  143.3
2020/01/20 16:05:14.000   44.164874782    7.563986390  1586.6833   1   6   0.0128   0.0055   0.0148  -0.0032  -0.0016   0.0101   4.00  143.6
