% program   : RTKPOST ver.2.4.3 b33
% inp file  : C:\Users\Francesco Conforte\Documents\UNIVERSITA'\Magistrale\ICT for geomatics\Geomatics\LAB\Lab3\GNSS data\GNSS Kinematic\SnowGroomer\20200120_COM3_165803.20o
% inp file  : C:\Users\Francesco Conforte\Documents\UNIVERSITA'\Magistrale\ICT for geomatics\Geomatics\LAB\Lab3\GNSS data\GNSS Kinematic\MONV\monv020i00.20o
% inp file  : C:\Users\Francesco Conforte\Documents\UNIVERSITA'\Magistrale\ICT for geomatics\Geomatics\LAB\Lab3\GNSS data\GNSS Kinematic\SnowGroomer\*
% obs start : 2020/01/20 15:58:19.0 GPST (week2089 143899.0s)
% obs end   : 2020/01/20 18:38:30.0 GPST (week2089 153510.0s)
% pos mode  : kinematic
% freqs     : L1+L2
% solution  : forward
% elev mask : 15.0 deg
% dynamics  : off
% tidecorr  : off
% ionos opt : broadcast
% tropo opt : saastamoinen
% ephemeris : broadcast
% navi sys  : gps glonass
% amb res   : continuous
% amb glo   : on
% val thres : 3.0
% antenna1  :                       ( 0.0000  0.0000  0.0000)
% antenna2  :                       ( 0.0000  0.0000  0.0000)
% ref pos   : 44.390356851    7.828955133   637.6965
%
% (lat/lon/height=WGS84/ellipsoidal,Q=1:fix,2:float,3:sbas,4:dgps,5:single,6:ppp,ns=# of satellites)
%  GPST                  latitude(deg) longitude(deg)  height(m)   Q  ns   sdn(m)   sde(m)   sdu(m)  sdne(m)  sdeu(m)  sdun(m) age(s)  ratio
2020/01/20 15:58:19.000   44.166048551    7.569437133  1449.3381   2  11   1.0098   0.4291   1.3653  -0.4266  -0.5188   0.9493   4.00    1.8
2020/01/20 15:58:20.000   44.166048340    7.569437099  1449.3271   2  11   0.7183   0.3054   0.9697  -0.3035  -0.3690   0.6741   0.00    1.7
2020/01/20 15:58:21.000   44.166048337    7.569437068  1449.3250   2  11   0.5874   0.2499   0.7927  -0.2482  -0.3017   0.5509   1.00    1.5
2020/01/20 15:58:22.000   44.166048503    7.569437019  1449.3503   2  11   0.5089   0.2166   0.6867  -0.2150  -0.2614   0.4770   2.00    1.5
2020/01/20 15:58:23.000   44.166048634    7.569437062  1449.3619   2  11   0.4551   0.1939   0.6142  -0.1922  -0.2338   0.4264   3.00    1.4
2020/01/20 15:58:24.000   44.166048811    7.569437043  1449.3773   2  11   0.4153   0.1770   0.5606  -0.1754  -0.2133   0.3890   4.00    1.4
2020/01/20 15:58:25.000   44.166048612    7.569437140  1449.3563   2  11   0.3837   0.1638   0.5183  -0.1619  -0.1971   0.3592   0.00    1.3
2020/01/20 15:58:26.000   44.166048552    7.569437264  1449.3434   2  11   0.3583   0.1532   0.4843  -0.1512  -0.1841   0.3352   1.00    1.3
2020/01/20 15:58:27.000   44.166048725    7.569437306  1449.3662   2  11   0.3372   0.1444   0.4560  -0.1422  -0.1733   0.3153   2.00    1.3
2020/01/20 15:58:28.000   44.166049067    7.569437274  1449.4137   2  11   0.3193   0.1370   0.4322  -0.1347  -0.1642   0.2985   3.00    1.3
2020/01/20 15:58:29.000   44.166049458    7.569437226  1449.4616   2  11   0.3040   0.1306   0.4117  -0.1282  -0.1564   0.2840   4.00    1.3
2020/01/20 15:58:30.000   44.166049446    7.569437238  1449.4546   2  11   0.2900   0.1249   0.3931  -0.1221  -0.1492   0.2706   0.00    1.3
2020/01/20 15:58:31.000   44.166049608    7.569437305  1449.4657   2  11   0.2776   0.1199   0.3768  -0.1169  -0.1429   0.2589   1.00    1.3
2020/01/20 15:58:32.000   44.166049755    7.569437416  1449.4609   2  11   0.2667   0.1155   0.3624  -0.1123  -0.1374   0.2485   2.00    1.3
2020/01/20 15:58:33.000   44.166049853    7.569437443  1449.4630   2  11   0.2570   0.1115   0.3495  -0.1081  -0.1324   0.2393   3.00    1.4
2020/01/20 15:58:34.000   44.166049968    7.569437511  1449.4596   2  11   0.2483   0.1079   0.3379  -0.1045  -0.1280   0.2310   4.00    1.4
2020/01/20 15:58:35.000   44.166050055    7.569437585  1449.4833   2  11   0.2396   0.1046   0.3265  -0.1007  -0.1235   0.2226   0.00    1.4
2020/01/20 15:58:36.000   44.166049974    7.569437694  1449.4782   2  11   0.2317   0.1015   0.3164  -0.0973  -0.1196   0.2150   1.00    1.4
2020/01/20 15:58:37.000   44.166050063    7.569437782  1449.4825   2  11   0.2246   0.0987   0.3071  -0.0943  -0.1160   0.2082   2.00    1.3
2020/01/20 15:58:38.000   44.166050254    7.569437794  1449.5061   2  11   0.2182   0.0962   0.2986  -0.0915  -0.1127   0.2020   3.00    1.3
2020/01/20 15:58:39.000   44.166050469    7.569437782  1449.5259   2  11   0.2123   0.0938   0.2908  -0.0891  -0.1097   0.1964   4.00    1.3
2020/01/20 15:58:40.000   44.166050513    7.569437776  1449.5201   2  11   0.2060   0.0915   0.2828  -0.0863  -0.1066   0.1902   0.00    1.3
2020/01/20 15:58:41.000   44.166050550    7.569437780  1449.5132   2  11   0.2003   0.0894   0.2755  -0.0838  -0.1037   0.1847   1.00    1.3
2020/01/20 15:58:42.000   44.166050746    7.569437733  1449.5288   2  11   0.1951   0.0874   0.2688  -0.0816  -0.1011   0.1796   2.00    1.3
2020/01/20 15:58:43.000   44.166050967    7.569437672  1449.5519   2  11   0.1904   0.0856   0.2627  -0.0796  -0.0987   0.1750   3.00    1.3
2020/01/20 15:58:44.000   44.166051152    7.569437693  1449.5584   2  11   0.1861   0.0839   0.2570  -0.0778  -0.0965   0.1709   4.00    1.3
2020/01/20 15:58:45.000   44.166051194    7.569437716  1449.5717   2  11   0.1811   0.0821   0.2508  -0.0756  -0.0940   0.1659   0.00    1.3
2020/01/20 15:58:46.000   44.166051085    7.569437831  1449.5532   2  11   0.1767   0.0806   0.2452  -0.0736  -0.0918   0.1615   1.00    1.2
2020/01/20 15:58:47.000   44.166051063    7.569437897  1449.5518   2  11   0.1726   0.0791   0.2400  -0.0719  -0.0898   0.1575   2.00    1.2
2020/01/20 15:58:48.000   44.166051111    7.569437913  1449.5525   2  11   0.1690   0.0777   0.2353  -0.0703  -0.0880   0.1539   3.00    1.2
2020/01/20 15:58:49.000   44.166051195    7.569437949  1449.5553   2  11   0.1656   0.0764   0.2309  -0.0689  -0.0863   0.1507   4.00    1.2
2020/01/20 15:58:50.000   44.166051113    7.569437952  1449.5545   2  11   0.1615   0.0750   0.2258  -0.0671  -0.0842   0.1465   0.00    1.2
2020/01/20 15:58:51.000   44.166051177    7.569437951  1449.5625   2  11   0.1579   0.0737   0.2213  -0.0655  -0.0824   0.1429   1.00    1.2
2020/01/20 15:58:52.000   44.166051348    7.569437918  1449.5885   2  11   0.1546   0.0726   0.2172  -0.0640  -0.0808   0.1396   2.00    1.2
2020/01/20 15:58:53.000   44.166051530    7.569437879  1449.6100   2  11   0.1516   0.0715   0.2133  -0.0628  -0.0793   0.1366   3.00    1.2
2020/01/20 15:58:54.000   44.166051720    7.569437815  1449.6313   2  11   0.1489   0.0704   0.2098  -0.0616  -0.0780   0.1340   4.00    1.2
2020/01/20 15:58:55.000   44.166051712    7.569437824  1449.6194   2  11   0.1454   0.0693   0.2056  -0.0600  -0.0762   0.1304   0.00    1.2
2020/01/20 15:58:56.000   44.166051657    7.569437851  1449.6108   2  11   0.1423   0.0683   0.2018  -0.0587  -0.0747   0.1273   1.00    1.2
2020/01/20 15:58:57.000   44.166051654    7.569437851  1449.6030   2  11   0.1396   0.0673   0.1984  -0.0575  -0.0734   0.1245   2.00    1.2
2020/01/20 15:58:58.000   44.166051695    7.569437847  1449.6021   2  11   0.1371   0.0664   0.1952  -0.0565  -0.0722   0.1221   3.00    1.1
2020/01/20 15:58:59.000   44.166051809    7.569437828  1449.6065   2  11   0.1349   0.0656   0.1924  -0.0555  -0.0711   0.1199   4.00    1.1
2020/01/20 15:59:00.000   44.166051749    7.569437885  1449.6022   2  11   0.1319   0.0646   0.1887  -0.0541  -0.0695   0.1167   0.00    1.1
2020/01/20 15:59:01.000   44.166051782    7.569437912  1449.6089   2  11   0.1292   0.0637   0.1855  -0.0530  -0.0683   0.1141   1.00    1.1
2020/01/20 15:59:02.000   44.166051990    7.569437870  1449.6362   2  11   0.1269   0.0630   0.1826  -0.0520  -0.0671   0.1117   2.00    1.1
2020/01/20 15:59:03.000   44.166052231    7.569437789  1449.6659   2  11   0.1248   0.0623   0.1800  -0.0511  -0.0661   0.1096   3.00    1.1
2020/01/20 15:59:04.000   44.166052472    7.569437730  1449.6953   2  11   0.1230   0.0615   0.1776  -0.0503  -0.0652   0.1077   4.00    1.1
2020/01/20 15:59:05.000   44.166052301    7.569437714  1449.6908   2  11   0.1203   0.0607   0.1744  -0.0490  -0.0638   0.1049   0.00    1.1
2020/01/20 15:59:06.000   44.166052336    7.569437694  1449.6880   2  11   0.1180   0.0600   0.1716  -0.0481  -0.0627   0.1026   1.00    1.1
2020/01/20 15:59:07.000   44.166052508    7.569437652  1449.6938   2  11   0.1160   0.0593   0.1691  -0.0472  -0.0617   0.1005   2.00    1.1
2020/01/20 15:59:08.000   44.166052641    7.569437611  1449.7016   2  11   0.1142   0.0587   0.1669  -0.0464  -0.0609   0.0987   3.00    1.1
2020/01/20 15:59:09.000   44.166052763    7.569437524  1449.7210   2  11   0.1127   0.0581   0.1649  -0.0458  -0.0601   0.0971   4.00    1.1
2020/01/20 15:59:10.000   44.166052589    7.569437551  1449.7223   2  11   0.1102   0.0573   0.1620  -0.0446  -0.0589   0.0946   0.00    1.1
2020/01/20 15:59:11.000   44.166052394    7.569437604  1449.6965   2  11   0.1083   0.0567   0.1596  -0.0438  -0.0579   0.0925   1.00    1.1
2020/01/20 15:59:12.000   44.166052201    7.569437659  1449.6769   2  11   0.1065   0.0562   0.1575  -0.0430  -0.0571   0.0907   2.00    1.1
2020/01/20 15:59:13.000   44.166052056    7.569437728  1449.6601   2  11   0.1050   0.0556   0.1556  -0.0424  -0.0563   0.0892   3.00    1.1
2020/01/20 15:59:14.000   44.166051912    7.569437752  1449.6500   2  11   0.1037   0.0551   0.1538  -0.0419  -0.0557   0.0878   4.00    1.1
2020/01/20 15:59:15.000   44.166051918    7.569437585  1449.6763   2  11   0.1015   0.0545   0.1513  -0.0408  -0.0546   0.0855   0.00    1.1
2020/01/20 15:59:16.000   44.166051931    7.569437590  1449.6697   2  11   0.0998   0.0539   0.1492  -0.0401  -0.0538   0.0837   1.00    1.1
2020/01/20 15:59:17.000   44.166051992    7.569437531  1449.6731   2  11   0.0982   0.0534   0.1473  -0.0394  -0.0530   0.0821   2.00    1.1
2020/01/20 15:59:18.000   44.166052139    7.569437415  1449.6895   2  11   0.0969   0.0530   0.1456  -0.0389  -0.0524   0.0807   3.00    1.1
2020/01/20 15:59:19.000   44.166052352    7.569437363  1449.7075   2  11   0.0958   0.0525   0.1441  -0.0384  -0.0518   0.0796   4.00    1.1
2020/01/20 15:59:20.000   44.166052298    7.569437292  1449.7386   2  11   0.0938   0.0519   0.1418  -0.0374  -0.0508   0.0775   0.00    1.1
2020/01/20 15:59:21.000   44.166052223    7.569437285  1449.7277   2  11   0.0923   0.0514   0.1400  -0.0368  -0.0501   0.0758   1.00    1.0
2020/01/20 15:59:22.000   44.166052018    7.569437317  1449.7032   2  11   0.0909   0.0510   0.1384  -0.0362  -0.0495   0.0744   2.00    1.0
2020/01/20 15:59:23.000   44.166051799    7.569437347  1449.6649   2  11   0.0898   0.0506   0.1369  -0.0357  -0.0489   0.0733   3.00    1.0
2020/01/20 15:59:24.000   44.166051563    7.569437373  1449.6332   2  11   0.0889   0.0502   0.1356  -0.0353  -0.0484   0.0723   4.00    1.0
2020/01/20 15:59:25.000   44.166051566    7.569437331  1449.6587   2  11   0.0870   0.0497   0.1335  -0.0344  -0.0475   0.0703   0.00    1.0
2020/01/20 15:59:26.000   44.166051399    7.569437361  1449.6439   2  11   0.0857   0.0493   0.1319  -0.0338  -0.0469   0.0688   1.00    1.0
2020/01/20 15:59:27.000   44.166051262    7.569437342  1449.6346   2  11   0.0845   0.0489   0.1304  -0.0333  -0.0463   0.0676   2.00    1.0
2020/01/20 15:59:28.000   44.166051202    7.569437323  1449.6352   2  11   0.0835   0.0485   0.1292  -0.0329  -0.0458   0.0666   3.00    1.0
2020/01/20 15:59:29.000   44.166051190    7.569437297  1449.6362   2  11   0.0827   0.0482   0.1281  -0.0326  -0.0454   0.0658   4.00    1.0
2020/01/20 15:59:30.000   44.166051270    7.569437121  1449.6752   2  11   0.0810   0.0477   0.1261  -0.0317  -0.0446   0.0639   0.00    1.0
2020/01/20 15:59:31.000   44.166051324    7.569437107  1449.6783   2  11   0.0798   0.0473   0.1247  -0.0312  -0.0440   0.0626   1.00    1.0
2020/01/20 15:59:32.000   44.166051377    7.569437088  1449.6894   2  11   0.0788   0.0469   0.1234  -0.0308  -0.0435   0.0615   2.00    1.0
2020/01/20 15:59:33.000   44.166051362    7.569437088  1449.6931   2  11   0.0779   0.0466   0.1223  -0.0305  -0.0431   0.0606   3.00    1.0
2020/01/20 15:59:34.000   44.166051330    7.569437071  1449.6933   2  11   0.0772   0.0463   0.1213  -0.0302  -0.0427   0.0599   4.00    1.0
2020/01/20 15:59:35.000   44.166051345    7.569436964  1449.7100   2  11   0.0756   0.0459   0.1195  -0.0294  -0.0419   0.0581   0.00    1.0
2020/01/20 15:59:36.000   44.166051340    7.569436922  1449.7103   2  11   0.0746   0.0456   0.1182  -0.0289  -0.0414   0.0570   1.00    1.0
2020/01/20 15:59:37.000   44.166051403    7.569436874  1449.7100   2  11   0.0737   0.0452   0.1170  -0.0286  -0.0410   0.0560   2.00    1.0
2020/01/20 15:59:38.000   44.166051392    7.569436806  1449.7110   2  11   0.0729   0.0450   0.1161  -0.0283  -0.0406   0.0552   3.00    1.0
2020/01/20 15:59:39.000   44.166051405    7.569436775  1449.7083   2  11   0.0723   0.0446   0.1152  -0.0280  -0.0403   0.0546   4.00    1.0
2020/01/20 15:59:40.000   44.166051521    7.569436735  1449.7358   2  11   0.0708   0.0443   0.1135  -0.0273  -0.0396   0.0529   0.00    1.0
2020/01/20 15:59:41.000   44.166051423    7.569436764  1449.7287   2  11   0.0699   0.0440   0.1124  -0.0269  -0.0391   0.0519   1.00    1.0
2020/01/20 15:59:42.000   44.166051303    7.569436800  1449.7236   2  11   0.0691   0.0436   0.1113  -0.0266  -0.0387   0.0510   2.00    1.0
2020/01/20 15:59:43.000   44.166051133    7.569436855  1449.7113   2  11   0.0684   0.0434   0.1105  -0.0263  -0.0384   0.0504   3.00    1.0
2020/01/20 15:59:44.000   44.166051019    7.569436883  1449.7036   2  11   0.0679   0.0432   0.1097  -0.0261  -0.0382   0.0499   4.00    1.0
2020/01/20 15:59:45.000   44.166051071    7.569436774  1449.7000   2  11   0.0665   0.0428   0.1081  -0.0254  -0.0374   0.0482   0.00    1.0
2020/01/20 15:59:46.000   44.166051036    7.569436755  1449.6956   2  11   0.0657   0.0424   0.1071  -0.0251  -0.0370   0.0473   1.00    1.0
2020/01/20 15:59:47.000   44.166051040    7.569436706  1449.7050   2  11   0.0650   0.0422   0.1062  -0.0247  -0.0367   0.0466   2.00    1.0
2020/01/20 15:59:48.000   44.166051071    7.569436707  1449.7172   2  11   0.0644   0.0420   0.1054  -0.0245  -0.0364   0.0460   3.00    1.0
2020/01/20 15:59:49.000   44.166051135    7.569436687  1449.7331   2  11   0.0640   0.0417   0.1048  -0.0244  -0.0362   0.0456   4.00    1.0
2020/01/20 15:59:50.000   44.166051245    7.569436624  1449.7354   2  11   0.0626   0.0414   0.1032  -0.0237  -0.0356   0.0440   0.00    1.0
2020/01/20 15:59:51.000   44.166051248    7.569436626  1449.7318   2  11   0.0619   0.0412   0.1023  -0.0233  -0.0352   0.0432   1.00    1.0
2020/01/20 15:59:52.000   44.166051193    7.569436631  1449.7265   2  11   0.0613   0.0409   0.1015  -0.0231  -0.0349   0.0425   2.00    1.0
2020/01/20 15:59:53.000   44.166051134    7.569436645  1449.7114   2  11   0.0608   0.0407   0.1008  -0.0229  -0.0346   0.0420   3.00    1.0
2020/01/20 15:59:54.000   44.166051106    7.569436656  1449.7008   2  11   0.0604   0.0405   0.1003  -0.0228  -0.0344   0.0417   4.00    1.0
2020/01/20 15:59:55.000   44.166051191    7.569436638  1449.7094   2  11   0.0591   0.0402   0.0988  -0.0222  -0.0338   0.0401   0.00    1.0
2020/01/20 15:59:56.000   44.166051271    7.569436635  1449.7170   2  11   0.0584   0.0399   0.0979  -0.0219  -0.0335   0.0394   1.00    1.0
2020/01/20 15:59:57.000   44.166051356    7.569436598  1449.7296   2  11   0.0579   0.0397   0.0972  -0.0216  -0.0332   0.0388   2.00    1.0
2020/01/20 15:59:58.000   44.166051437    7.569436556  1449.7378   2  11   0.0575   0.0396   0.0966  -0.0215  -0.0330   0.0384   3.00    1.0
2020/01/20 15:59:59.000   44.166051523    7.569436527  1449.7483   2  11   0.0572   0.0394   0.0961  -0.0214  -0.0329   0.0382   4.00    1.0
2020/01/20 16:00:00.000   44.166051573    7.569436563  1449.7467   2  11   0.0560   0.0390   0.0947  -0.0208  -0.0322   0.0366   0.00    1.0
2020/01/20 16:00:01.000   44.166051550    7.569436571  1449.7480   2  11   0.0553   0.0388   0.0939  -0.0205  -0.0319   0.0359   1.00    1.0
2020/01/20 16:00:02.000   44.166051511    7.569436581  1449.7504   2  11   0.0549   0.0386   0.0933  -0.0203  -0.0317   0.0354   2.00    1.0
2020/01/20 16:00:03.000   44.166051504    7.569436613  1449.7499   2  11   0.0545   0.0384   0.0928  -0.0202  -0.0315   0.0351   3.00    1.0
2020/01/20 16:00:04.000   44.166051511    7.569436634  1449.7508   2  11   0.0543   0.0382   0.0924  -0.0201  -0.0314   0.0349   4.00    1.0
2020/01/20 16:00:05.000   44.166051516    7.569436582  1449.7377   2  11   0.0531   0.0379   0.0910  -0.0195  -0.0308   0.0334   0.00    1.1
2020/01/20 16:00:06.000   44.166051528    7.569436582  1449.7386   2  11   0.0525   0.0377   0.0903  -0.0193  -0.0305   0.0327   1.00    1.1
2020/01/20 16:00:07.000   44.166051498    7.569436613  1449.7338   2  11   0.0521   0.0375   0.0897  -0.0191  -0.0303   0.0323   2.00    1.1
2020/01/20 16:00:08.000   44.166051525    7.569436636  1449.7328   2  11   0.0518   0.0374   0.0892  -0.0190  -0.0301   0.0321   3.00    1.1
2020/01/20 16:00:09.000   44.166051523    7.569436685  1449.7262   2  11   0.0516   0.0373   0.0889  -0.0190  -0.0300   0.0320   4.00    1.1
2020/01/20 16:00:10.000   44.166051720    7.569436604  1449.7234   2  11   0.0505   0.0370   0.0875  -0.0184  -0.0295   0.0304   0.00    1.1
2020/01/20 16:00:11.000   44.166051748    7.569436619  1449.7326   2  11   0.0499   0.0368   0.0869  -0.0182  -0.0292   0.0298   1.00    1.1
2020/01/20 16:00:12.000   44.166051721    7.569436623  1449.7416   2  11   0.0496   0.0366   0.0863  -0.0180  -0.0290   0.0295   2.00    1.1
2020/01/20 16:00:13.000   44.166051731    7.569436622  1449.7476   2  11   0.0493   0.0364   0.0859  -0.0180  -0.0289   0.0293   3.00    1.1
2020/01/20 16:00:14.000   44.166051679    7.569436618  1449.7503   2  11   0.0492   0.0363   0.0857  -0.0179  -0.0288   0.0293   4.00    1.1
2020/01/20 16:00:15.000   44.166051746    7.569436660  1449.7136   2  11   0.0481   0.0359   0.0843  -0.0173  -0.0282   0.0277   0.00    1.1
2020/01/20 16:00:16.000   44.166051803    7.569436644  1449.7223   2  11   0.0476   0.0357   0.0837  -0.0172  -0.0280   0.0272   1.00    1.1
2020/01/20 16:00:17.000   44.166051856    7.569436644  1449.7311   2  11   0.0473   0.0357   0.0833  -0.0171  -0.0278   0.0269   2.00    1.1
2020/01/20 16:00:18.000   44.166051845    7.569436656  1449.7346   2  11   0.0471   0.0356   0.0829  -0.0170  -0.0277   0.0267   3.00    1.1
2020/01/20 16:00:19.000   44.166051894    7.569436627  1449.7343   2  11   0.0470   0.0354   0.0827  -0.0170  -0.0277   0.0268   4.00    1.1
2020/01/20 16:00:20.000   44.166051992    7.569436673  1449.7199   2  11   0.0458   0.0351   0.0814  -0.0163  -0.0271   0.0252   0.00    1.1
2020/01/20 16:00:21.000   44.166052066    7.569436693  1449.7220   2  11   0.0454   0.0349   0.0808  -0.0163  -0.0269   0.0247   1.00    1.1
2020/01/20 16:00:22.000   44.166052204    7.569436707  1449.7331   2  11   0.0452   0.0348   0.0804  -0.0162  -0.0268   0.0244   2.00    1.1
2020/01/20 16:00:23.000   44.166052285    7.569436716  1449.7543   2  11   0.0450   0.0347   0.0801  -0.0161  -0.0267   0.0244   3.00    1.1
2020/01/20 16:00:24.000   44.166052390    7.569436752  1449.7763   2  11   0.0449   0.0346   0.0799  -0.0161  -0.0266   0.0245   4.00    1.1
2020/01/20 16:00:25.000   44.166052421    7.569436651  1449.7535   2  11   0.0438   0.0343   0.0786  -0.0156  -0.0261   0.0228   0.00    1.1
2020/01/20 16:00:26.000   44.166052453    7.569436661  1449.7477   2  11   0.0435   0.0341   0.0781  -0.0154  -0.0259   0.0224   1.00    1.1
2020/01/20 16:00:27.000   44.166052556    7.569436627  1449.7447   2  11   0.0432   0.0340   0.0777  -0.0153  -0.0257   0.0222   2.00    1.1
2020/01/20 16:00:28.000   44.166052645    7.569436590  1449.7497   2  11   0.0431   0.0339   0.0775  -0.0153  -0.0257   0.0222   3.00    1.1
2020/01/20 16:00:29.000   44.166052786    7.569436566  1449.7565   2  11   0.0430   0.0338   0.0773  -0.0154  -0.0257   0.0224   4.00    1.1
2020/01/20 16:00:30.000   44.166052823    7.569436640  1449.7516   2  11   0.0420   0.0335   0.0761  -0.0148  -0.0251   0.0206   0.00    1.1
2020/01/20 16:00:31.000   44.166052780    7.569436670  1449.7335   2  11   0.0416   0.0333   0.0756  -0.0147  -0.0249   0.0202   1.00    1.1
2020/01/20 16:00:32.000   44.166052748    7.569436709  1449.7103   2  11   0.0414   0.0333   0.0752  -0.0146  -0.0248   0.0201   2.00    1.1
2020/01/20 16:00:33.000   44.166052731    7.569436704  1449.6960   2  11   0.0413   0.0332   0.0750  -0.0146  -0.0248   0.0202   3.00    1.1
2020/01/20 16:00:34.000   44.166052714    7.569436731  1449.6713   2  11   0.0413   0.0331   0.0749  -0.0146  -0.0248   0.0205   4.00    1.1
2020/01/20 16:00:35.000   44.166052854    7.569436789  1449.6592   2  11   0.0403   0.0328   0.0737  -0.0140  -0.0242   0.0186   0.00    1.1
2020/01/20 16:00:36.000   44.166052892    7.569436831  1449.6574   2  11   0.0400   0.0327   0.0732  -0.0139  -0.0241   0.0182   1.00    1.1
2020/01/20 16:00:37.000   44.166052994    7.569436835  1449.6573   2  11   0.0398   0.0326   0.0729  -0.0139  -0.0240   0.0181   2.00    1.1
2020/01/20 16:00:38.000   44.166053063    7.569436834  1449.6542   2  11   0.0397   0.0325   0.0727  -0.0139  -0.0239   0.0183   3.00    1.1
2020/01/20 16:00:39.000   44.166053077    7.569436890  1449.6477   2  11   0.0397   0.0324   0.0726  -0.0140  -0.0239   0.0187   4.00    1.1
2020/01/20 16:00:40.000   44.166053109    7.569436868  1449.6417   2  11   0.0387   0.0321   0.0714  -0.0133  -0.0234   0.0166   0.00    1.1
2020/01/20 16:00:41.000   44.166053112    7.569436914  1449.6405   2  11   0.0384   0.0320   0.0710  -0.0133  -0.0232   0.0164   1.00    1.1
2020/01/20 16:00:42.000   44.166053162    7.569436975  1449.6357   2  11   0.0382   0.0319   0.0707  -0.0132  -0.0232   0.0163   2.00    1.1
2020/01/20 16:00:43.000   44.166053248    7.569437004  1449.6251   2  11   0.0382   0.0318   0.0705  -0.0133  -0.0231   0.0165   3.00    1.1
2020/01/20 16:00:44.000   44.166053302    7.569436951  1449.6295   2  11   0.0383   0.0317   0.0705  -0.0133  -0.0232   0.0169   4.00    1.1
2020/01/20 16:00:45.000   44.166053405    7.569436985  1449.6281   2  11   0.0372   0.0314   0.0693  -0.0128  -0.0227   0.0149   0.00    1.1
2020/01/20 16:00:46.000   44.166053485    7.569436979  1449.6270   2  11   0.0369   0.0313   0.0689  -0.0127  -0.0225   0.0146   1.00    1.1
2020/01/20 16:00:47.000   44.166053575    7.569436963  1449.6312   2  11   0.0368   0.0313   0.0686  -0.0126  -0.0224   0.0146   2.00    1.1
2020/01/20 16:00:48.000   44.166053630    7.569436985  1449.6306   2  11   0.0368   0.0312   0.0685  -0.0127  -0.0224   0.0149   3.00    1.1
2020/01/20 16:00:49.000   44.166053716    7.569437059  1449.6325   2  11   0.0369   0.0311   0.0685  -0.0128  -0.0224   0.0154   4.00    1.1
2020/01/20 16:00:50.000   44.166053741    7.569437112  1449.6180   2  11   0.0358   0.0308   0.0673  -0.0123  -0.0219   0.0131   0.00    1.1
2020/01/20 16:00:51.000   44.166053800    7.569437133  1449.6154   2  11   0.0356   0.0307   0.0669  -0.0122  -0.0218   0.0129   1.00    1.1
2020/01/20 16:00:52.000   44.166053806    7.569437104  1449.6200   2  11   0.0355   0.0306   0.0667  -0.0121  -0.0217   0.0129   2.00    1.1
2020/01/20 16:00:53.000   44.166053792    7.569437139  1449.6067   2  11   0.0355   0.0305   0.0666  -0.0122  -0.0217   0.0133   3.00    1.1
2020/01/20 16:00:54.000   44.166053764    7.569437186  1449.5915   2  11   0.0356   0.0305   0.0666  -0.0123  -0.0217   0.0140   4.00    1.1
2020/01/20 16:00:55.000   44.166053823    7.569437169  1449.6058   2  11   0.0346   0.0302   0.0654  -0.0118  -0.0212   0.0115   0.00    1.1
2020/01/20 16:00:56.000   44.166053808    7.569437229  1449.6042   2  11   0.0344   0.0301   0.0651  -0.0116  -0.0211   0.0113   1.00    1.1
2020/01/20 16:00:57.000   44.166053805    7.569437239  1449.6116   2  11   0.0343   0.0300   0.0649  -0.0116  -0.0211   0.0114   2.00    1.1
2020/01/20 16:00:58.000   44.166053836    7.569437256  1449.6158   2  11   0.0343   0.0299   0.0648  -0.0118  -0.0211   0.0119   3.00    1.1
2020/01/20 16:00:59.000   44.166053878    7.569437275  1449.6200   2  11   0.0345   0.0299   0.0648  -0.0118  -0.0211   0.0126   4.00    1.1
2020/01/20 16:01:00.000   44.166053946    7.569437238  1449.6166   2  11   0.0334   0.0297   0.0636  -0.0113  -0.0206   0.0098   0.00    1.1
2020/01/20 16:01:01.000   44.166053972    7.569437289  1449.6101   2  11   0.0332   0.0296   0.0633  -0.0111  -0.0205   0.0097   1.00    1.1
2020/01/20 16:01:02.000   44.166053921    7.569437359  1449.5986   2  11   0.0331   0.0295   0.0631  -0.0112  -0.0204   0.0100   2.00    1.1
2020/01/20 16:01:03.000   44.166053929    7.569437405  1449.5961   2  11   0.0332   0.0294   0.0631  -0.0114  -0.0204   0.0106   3.00    1.1
2020/01/20 16:01:04.000   44.166053913    7.569437439  1449.5923   2  11   0.0334   0.0293   0.0631  -0.0115  -0.0205   0.0113   4.00    1.1
2020/01/20 16:01:05.000   44.166054063    7.569437253  1449.6173   2  11   0.0323   0.0292   0.0619  -0.0109  -0.0199   0.0083   0.00    1.1
2020/01/20 16:01:06.000   44.166054100    7.569437283  1449.6179   2  11   0.0322   0.0290   0.0616  -0.0108  -0.0199   0.0081   1.00    1.1
2020/01/20 16:01:07.000   44.166054129    7.569437381  1449.6078   2  11   0.0321   0.0289   0.0615  -0.0108  -0.0198   0.0085   2.00    1.1
2020/01/20 16:01:08.000   44.166054076    7.569437404  1449.6096   2  11   0.0322   0.0289   0.0614  -0.0109  -0.0199   0.0092   3.00    1.1
2020/01/20 16:01:09.000   44.166054000    7.569437450  1449.6123   2  11   0.0323   0.0289   0.0615  -0.0110  -0.0200   0.0102   4.00    1.1
2020/01/20 16:01:10.000   44.166054111    7.569437341  1449.6099   2  11   0.0313   0.0286   0.0603  -0.0104  -0.0194   0.0067   0.00    1.1
2020/01/20 16:01:11.000   44.166054139    7.569437363  1449.6173   2  11   0.0311   0.0285   0.0600  -0.0104  -0.0193   0.0066   1.00    1.1
2020/01/20 16:01:12.000   44.166054137    7.569437397  1449.6142   2  11   0.0311   0.0284   0.0599  -0.0105  -0.0193   0.0071   2.00    1.1
2020/01/20 16:01:13.000   44.166054157    7.569437413  1449.6155   2  11   0.0312   0.0284   0.0599  -0.0105  -0.0193   0.0079   3.00    1.1
2020/01/20 16:01:14.000   44.166054143    7.569437449  1449.6072   2  11   0.0314   0.0283   0.0600  -0.0107  -0.0194   0.0091   4.00    1.1
2020/01/20 16:01:15.000   44.166054142    7.569437418  1449.5978   2  11   0.0303   0.0281   0.0588  -0.0100  -0.0189   0.0049   0.00    1.1
2020/01/20 16:01:16.000   44.166054120    7.569437467  1449.5932   2  11   0.0302   0.0279   0.0585  -0.0101  -0.0187   0.0048   1.00    1.1
2020/01/20 16:01:17.000   44.166054127    7.569437464  1449.6040   2  11   0.0302   0.0280   0.0584  -0.0100  -0.0188   0.0055   2.00    1.1
2020/01/20 16:01:18.000   44.166054150    7.569437518  1449.6043   2  11   0.0303   0.0278   0.0584  -0.0102  -0.0188   0.0067   3.00    1.1
2020/01/20 16:01:19.000   44.166054139    7.569437568  1449.5934   2  11   0.0305   0.0278   0.0586  -0.0104  -0.0189   0.0080   4.00    1.1
2020/01/20 16:01:20.000   44.166054111    7.569437514  1449.5940   2  11   0.0294   0.0276   0.0573  -0.0098  -0.0183   0.0025   0.00    1.1
2020/01/20 16:01:21.000   44.166054146    7.569437519  1449.5986   2  11   0.0293   0.0276   0.0571  -0.0096  -0.0183   0.0027   1.00    1.1
2020/01/20 16:01:22.000   44.166054159    7.569437545  1449.5924   2  11   0.0293   0.0275   0.0570  -0.0097  -0.0183   0.0038   2.00    1.1
2020/01/20 16:01:23.000   44.166054257    7.569437519  1449.6051   2  11   0.0294   0.0274   0.0570  -0.0099  -0.0183   0.0054   3.00    1.1
2020/01/20 16:01:24.000   44.166054318    7.569437541  1449.6079   2  11   0.0297   0.0274   0.0572  -0.0101  -0.0184   0.0071   4.00    1.1
2020/01/20 16:01:25.000   44.166054313    7.569437478  1449.6108   2  11   0.0286   0.0271   0.0559  -0.0094  -0.0179  -0.0027   0.00    1.1
2020/01/20 16:01:26.000   44.166054292    7.569437544  1449.6052   2  11   0.0284   0.0271   0.0557  -0.0094  -0.0178  -0.0025   1.00    1.1
2020/01/20 16:01:27.000   44.166054198    7.569437648  1449.5920   2  11   0.0284   0.0270   0.0556  -0.0094  -0.0178   0.0017   2.00    1.1
2020/01/20 16:01:28.000   44.166054039    7.569437744  1449.5669   2  11   0.0286   0.0270   0.0557  -0.0095  -0.0178   0.0042   3.00    1.1
2020/01/20 16:01:29.000   44.166053939    7.569437793  1449.5548   2  11   0.0289   0.0270   0.0559  -0.0097  -0.0179   0.0062   4.00    1.1
2020/01/20 16:01:30.000   44.166054140    7.569437610  1449.5949   2  11   0.0277   0.0267   0.0546  -0.0091  -0.0174  -0.0042   0.00    1.1
2020/01/20 16:01:31.000   44.166054010    7.569437703  1449.5719   2  11   0.0276   0.0266   0.0544  -0.0092  -0.0173  -0.0041   1.00    1.1
2020/01/20 16:01:32.000   44.166053849    7.569437757  1449.5573   2  11   0.0277   0.0266   0.0543  -0.0092  -0.0174  -0.0030   2.00    1.1
2020/01/20 16:01:33.000   44.166053715    7.569437853  1449.5390   2  11   0.0279   0.0265   0.0544  -0.0093  -0.0174   0.0026   3.00    1.1
2020/01/20 16:01:34.000   44.166053617    7.569437928  1449.5273   2  11   0.0282   0.0265   0.0546  -0.0095  -0.0175   0.0053   4.00    1.1
2020/01/20 16:01:35.000   44.166053853    7.569437664  1449.5781   2  11   0.0270   0.0263   0.0533  -0.0089  -0.0170  -0.0052   0.00    1.1
2020/01/20 16:01:36.000   44.166053804    7.569437682  1449.5705   2  11   0.0269   0.0262   0.0532  -0.0088  -0.0169  -0.0051   1.00    1.1
2020/01/20 16:01:37.000   44.166053795    7.569437769  1449.5487   2  11   0.0270   0.0261   0.0531  -0.0090  -0.0169  -0.0042   2.00    1.1
2020/01/20 16:01:38.000   44.166053777    7.569437729  1449.5470   2  11   0.0272   0.0261   0.0532  -0.0091  -0.0170  -0.0013   3.00    1.1
2020/01/20 16:01:39.000   44.166053773    7.569437748  1449.5449   2  11   0.0274   0.0261   0.0534  -0.0092  -0.0172   0.0046   4.00    1.1
2020/01/20 16:01:40.000   44.166053824    7.569437638  1449.5896   2  11   0.0263   0.0259   0.0521  -0.0085  -0.0166  -0.0060   0.00    1.1
2020/01/20 16:01:41.000   44.166053817    7.569437693  1449.5802   2  11   0.0262   0.0258   0.0520  -0.0085  -0.0165  -0.0058   1.00    1.1
2020/01/20 16:01:42.000   44.166053731    7.569437692  1449.5777   2  11   0.0263   0.0256   0.0519  -0.0087  -0.0165  -0.0048   2.00    1.1
2020/01/20 16:01:43.000   44.166053657    7.569437767  1449.5501   2  11   0.0265   0.0257   0.0520  -0.0088  -0.0166  -0.0029   3.00    1.1
2020/01/20 16:01:44.000   44.166052879    7.569437110  1449.5407   2  11   0.0268   0.0257   0.0523  -0.0090  -0.0168   0.0036   4.00    1.1
2020/01/20 16:01:45.000   44.166050504    7.569433490  1449.6125   2  11   0.0256   0.0255   0.0510  -0.0083  -0.0162  -0.0064   0.00    1.1
2020/01/20 16:01:46.000   44.166047810    7.569428635  1449.6287   2  11   0.0256   0.0254   0.0508  -0.0084  -0.0161  -0.0062   1.00    1.1
2020/01/20 16:01:47.000   44.166043892    7.569421672  1449.6847   2  11   0.0256   0.0254   0.0508  -0.0085  -0.0161  -0.0054   2.00    1.1
2020/01/20 16:01:48.000   44.166039352    7.569412739  1449.7666   2  11   0.0258   0.0253   0.0509  -0.0086  -0.0162  -0.0035   3.00    1.1
2020/01/20 16:01:49.000   44.166031415    7.569397483  1449.9036   2  11   0.0262   0.0253   0.0512  -0.0089  -0.0163   0.0030   4.00    1.1
2020/01/20 16:01:50.000   44.166021201    7.569378512  1450.0887   2  11   0.0250   0.0250   0.0499  -0.0082  -0.0158  -0.0068   0.00    1.1
2020/01/20 16:01:51.000   44.166011134    7.569359826  1450.2448   2  11   0.0249   0.0250   0.0497  -0.0081  -0.0157  -0.0066   1.00    1.1
2020/01/20 16:01:52.000   44.166000391    7.569341141  1450.3910   2  11   0.0251   0.0250   0.0497  -0.0082  -0.0158  -0.0059   2.00    1.1
2020/01/20 16:01:53.000   44.165987570    7.569322798  1450.5199   2  11   0.0253   0.0249   0.0499  -0.0085  -0.0158  -0.0041   3.00    1.1
2020/01/20 16:01:54.000   44.165972551    7.569307408  1450.7338   2  11   0.0256   0.0249   0.0502  -0.0086  -0.0160   0.0023   4.00    1.1
2020/01/20 16:01:55.000   44.165955204    7.569294328  1450.9813   2  11   0.0244   0.0247   0.0488  -0.0079  -0.0154  -0.0070   0.00    1.1
2020/01/20 16:01:56.000   44.165938449    7.569283284  1451.2419   2  11   0.0244   0.0247   0.0487  -0.0080  -0.0154  -0.0068   1.00    1.0
2020/01/20 16:01:57.000   44.165920836    7.569273699  1451.4970   2  11   0.0244   0.0246   0.0487  -0.0080  -0.0154  -0.0061   2.00    1.0
2020/01/20 16:01:58.000   44.165901952    7.569265722  1451.7670   2  11   0.0247   0.0246   0.0488  -0.0083  -0.0155  -0.0045   3.00    1.0
2020/01/20 16:01:59.000   44.165881192    7.569258360  1452.0296   2  11   0.0251   0.0245   0.0492  -0.0085  -0.0156   0.0017   4.00    1.0
2020/01/20 16:02:00.000   44.165859642    7.569252025  1452.2828   2  11   0.0238   0.0242   0.0478  -0.0078  -0.0151  -0.0072   0.00    1.0
2020/01/20 16:02:01.000   44.165839219    7.569245699  1452.4686   2  11   0.0238   0.0242   0.0477  -0.0080  -0.0150  -0.0070   1.00    1.0
2020/01/20 16:02:02.000   44.165819793    7.569240234  1452.7000   2  11   0.0240   0.0242   0.0477  -0.0079  -0.0151  -0.0063   2.00    1.0
2020/01/20 16:02:03.000   44.165799613    7.569234403  1452.9390   2  11   0.0242   0.0242   0.0479  -0.0080  -0.0152  -0.0047   3.00    1.0
2020/01/20 16:02:04.000   44.165778956    7.569228483  1453.2016   2  11   0.0245   0.0242   0.0482  -0.0084  -0.0153   0.0007   4.00    1.0
2020/01/20 16:02:05.000   44.165758255    7.569222644  1453.4675   2  11   0.0233   0.0239   0.0468  -0.0076  -0.0148  -0.0073   0.00    1.0
2020/01/20 16:02:06.000   44.165738553    7.569217197  1453.8324   2  11   0.0233   0.0239   0.0467  -0.0077  -0.0147  -0.0070   1.00    1.0
2020/01/20 16:02:07.000   44.165718695    7.569211775  1454.2301   2  11   0.0234   0.0239   0.0467  -0.0078  -0.0148  -0.0064   2.00    1.0
2020/01/20 16:02:08.000   44.165698973    7.569206324  1454.6597   2  11   0.0237   0.0238   0.0469  -0.0079  -0.0149  -0.0048   3.00    1.0
2020/01/20 16:02:09.000   44.165680158    7.569199400  1455.0871   2  11   0.0241   0.0238   0.0473  -0.0082  -0.0150  -0.0004   4.00    1.0
2020/01/20 16:02:10.000   44.165662023    7.569189070  1455.4353   2  11   0.0228   0.0236   0.0459  -0.0074  -0.0144  -0.0074   0.00    1.0
2020/01/20 16:02:11.000   44.165645045    7.569173204  1455.6934   2  11   0.0228   0.0236   0.0458  -0.0075  -0.0144  -0.0072   1.00    1.0
2020/01/20 16:02:12.000   44.165629556    7.569153522  1455.9195   2  11   0.0229   0.0235   0.0458  -0.0076  -0.0145  -0.0065   2.00    1.0
2020/01/20 16:02:13.000   44.165615929    7.569131939  1456.1439   2  11   0.0232   0.0235   0.0460  -0.0077  -0.0146  -0.0049   3.00    1.0
2020/01/20 16:02:14.000   44.165604538    7.569107144  1456.3073   2  11   0.0236   0.0235   0.0464  -0.0081  -0.0147  -0.0010   4.00    1.0
2020/01/20 16:02:15.000   44.165595034    7.569079503  1456.3708   2  11   0.0223   0.0233   0.0450  -0.0072  -0.0142  -0.0075   0.00    1.0
2020/01/20 16:02:16.000   44.165587746    7.569049702  1456.4491   2  11   0.0223   0.0232   0.0449  -0.0073  -0.0141  -0.0071   1.00    1.0
2020/01/20 16:02:17.000   44.165582371    7.569017122  1456.5157   2  11   0.0224   0.0232   0.0449  -0.0074  -0.0142  -0.0064   2.00    1.0
2020/01/20 16:02:18.000   44.165578505    7.568984686  1456.5798   2  11   0.0227   0.0232   0.0451  -0.0077  -0.0143  -0.0049   3.00    1.0
2020/01/20 16:02:19.000   44.165576099    7.568952058  1456.6465   2  11   0.0232   0.0232   0.0455  -0.0080  -0.0144  -0.0011   4.00    1.0
2020/01/20 16:02:20.000   44.165573942    7.568919050  1456.7640   2  11   0.0219   0.0229   0.0441  -0.0073  -0.0138  -0.0074   0.00    1.0
2020/01/20 16:02:21.000   44.165571879    7.568885262  1456.8478   2  11   0.0219   0.0230   0.0440  -0.0071  -0.0138  -0.0072   1.00    1.0
2020/01/20 16:02:22.000   44.165570337    7.568852037  1456.9393   2  11   0.0221   0.0229   0.0441  -0.0074  -0.0139  -0.0064   2.00    1.0
2020/01/20 16:02:23.000   44.165569265    7.568819410  1457.0643   2  11   0.0223   0.0229   0.0443  -0.0075  -0.0140  -0.0048   3.00    1.0
2020/01/20 16:02:24.000   44.165568076    7.568787361  1457.1899   2  11   0.0227   0.0229   0.0447  -0.0078  -0.0142  -0.0011   4.00    1.0
2020/01/20 16:02:25.000   44.165567441    7.568756340  1457.3735   2  11   0.0215   0.0227   0.0433  -0.0070  -0.0136  -0.0074   0.00    1.0
2020/01/20 16:02:26.000   44.165567291    7.568725752  1457.5838   2  11   0.0214   0.0226   0.0432  -0.0070  -0.0136  -0.0071   1.00    1.0
2020/01/20 16:02:27.000   44.165567618    7.568695377  1457.8440   2  11   0.0216   0.0226   0.0433  -0.0072  -0.0136  -0.0062   2.00    1.0
2020/01/20 16:02:28.000   44.165569411    7.568665343  1458.0598   2  11   0.0219   0.0226   0.0435  -0.0074  -0.0138  -0.0048   3.00    1.0
2020/01/20 16:02:29.000   44.165572017    7.568635655  1458.3707   2  11   0.0223   0.0226   0.0439  -0.0077  -0.0140   0.0005   4.00    1.0
2020/01/20 16:02:30.000   44.165574281    7.568605430  1458.7271   2  11   0.0210   0.0224   0.0425  -0.0069  -0.0133  -0.0073   0.00    1.0
2020/01/20 16:02:31.000   44.165576457    7.568575748  1459.1525   2  11   0.0210   0.0223   0.0424  -0.0069  -0.0133  -0.0071   1.00    1.0
2020/01/20 16:02:32.000   44.165578624    7.568546627  1459.6285   2  11   0.0212   0.0223   0.0425  -0.0071  -0.0134  -0.0063   2.00    1.0
2020/01/20 16:02:33.000   44.165580392    7.568516836  1460.1124   2  11   0.0215   0.0222   0.0427  -0.0074  -0.0135  -0.0047   3.00    1.0
2020/01/20 16:02:34.000   44.165581762    7.568487822  1460.6808   2  11   0.0220   0.0223   0.0432  -0.0075  -0.0137   0.0012   4.00    1.0
2020/01/20 16:02:35.000   44.165582456    7.568458598  1461.2662   2  11   0.0206   0.0220   0.0417  -0.0067  -0.0132  -0.0073   0.00    1.0
2020/01/20 16:02:36.000   44.165582045    7.568429303  1461.8967   2  11   0.0207   0.0220   0.0416  -0.0069  -0.0130  -0.0070   1.00    1.0
2020/01/20 16:02:37.000   44.165580923    7.568400773  1462.5844   2  11   0.0208   0.0220   0.0417  -0.0070  -0.0131  -0.0061   2.00    1.0
2020/01/20 16:02:38.000   44.165579721    7.568372337  1463.2726   2  11   0.0211   0.0220   0.0420  -0.0071  -0.0133  -0.0044   3.00    1.0
2020/01/20 16:02:39.000   44.165578874    7.568343412  1463.9680   2  11   0.0216   0.0221   0.0424  -0.0075  -0.0134   0.0017   4.00    1.0
2020/01/20 16:02:40.000   44.165577933    7.568314662  1464.6504   2  11   0.0202   0.0219   0.0409  -0.0067  -0.0128  -0.0070   0.00    1.0
2020/01/20 16:02:41.000   44.165576680    7.568286910  1465.3695   2  11   0.0203   0.0217   0.0409  -0.0067  -0.0128  -0.0069   1.00    1.0
2020/01/20 16:02:42.000   44.165575105    7.568259388  1466.1051   2  11   0.0205   0.0217   0.0410  -0.0069  -0.0129  -0.0061   2.00    1.0
2020/01/20 16:02:43.000   44.165573354    7.568231965  1466.8461   2  11   0.0208   0.0217   0.0413  -0.0072  -0.0130  -0.0042   3.00    1.0
2020/01/20 16:02:44.000   44.165571000    7.568203912  1467.5829   2  11   0.0213   0.0217   0.0417  -0.0073  -0.0133   0.0022   4.00    1.0
2020/01/20 16:02:45.000   44.165568654    7.568176349  1468.3210   2  11   0.0199   0.0214   0.0402  -0.0067  -0.0125  -0.0070   0.00    1.0
2020/01/20 16:02:46.000   44.165566968    7.568149039  1469.0754   2  10   0.0226   0.0215   0.0424  -0.0063  -0.0123   0.0098   1.00    1.1
2020/01/20 16:02:47.000   44.165565135    7.568121772  1469.8675   2  10   0.0209   0.0213   0.0409  -0.0067  -0.0125   0.0022   2.00    1.0
2020/01/20 16:02:48.000   44.165563374    7.568095092  1470.6369   2  10   0.0213   0.0215   0.0413  -0.0068  -0.0128   0.0052   3.00    1.0
2020/01/20 16:02:49.000   44.165561880    7.568068294  1471.4447   2  12   0.0209   0.0215   0.0411  -0.0072  -0.0129   0.0027   4.00    1.0
2020/01/20 16:02:50.000   44.165560245    7.568041155  1472.2730   2  12   0.0193   0.0211   0.0391  -0.0061  -0.0119  -0.0079   0.00    1.0
2020/01/20 16:02:51.000   44.165558567    7.568014302  1473.1458   2  12   0.0193   0.0211   0.0388  -0.0060  -0.0118  -0.0082   1.00    1.0
2020/01/20 16:02:52.000   44.165556372    7.567986650  1473.9871   2  12   0.0193   0.0210   0.0387  -0.0060  -0.0117  -0.0081   2.00    1.0
2020/01/20 16:02:53.000   44.165554608    7.567959660  1474.8384   2  12   0.0195   0.0211   0.0388  -0.0059  -0.0116  -0.0077   3.00    1.0
2020/01/20 16:02:54.000   44.165552741    7.567932963  1475.7048   2  12   0.0198   0.0210   0.0389  -0.0060  -0.0116  -0.0072   4.00    1.0
2020/01/20 16:02:55.000   44.165550676    7.567906083  1476.5375   2  12   0.0188   0.0209   0.0380  -0.0058  -0.0113  -0.0088   0.00    1.0
2020/01/20 16:02:56.000   44.165549039    7.567879729  1477.3723   2  12   0.0188   0.0206   0.0379  -0.0059  -0.0113  -0.0086   1.00    1.0
2020/01/20 16:02:57.000   44.165546827    7.567854676  1478.2757   2  12   0.0189   0.0207   0.0379  -0.0058  -0.0113  -0.0084   2.00    1.0
2020/01/20 16:02:58.000   44.165545137    7.567828876  1479.1697   2  12   0.0192   0.0207   0.0380  -0.0059  -0.0112  -0.0080   3.00    1.0
2020/01/20 16:02:59.000   44.165542999    7.567802708  1480.0979   2  12   0.0194   0.0207   0.0382  -0.0058  -0.0112  -0.0073   4.00    1.0
2020/01/20 16:03:00.000   44.165540548    7.567775964  1481.0038   2  11   0.0189   0.0206   0.0373  -0.0063  -0.0110  -0.0088   0.00    1.0
2020/01/20 16:03:01.000   44.165538056    7.567749517  1481.9063   2  12   0.0185   0.0205   0.0372  -0.0055  -0.0110  -0.0088   1.00    1.0
2020/01/20 16:03:02.000   44.165536172    7.567723411  1482.7647   2  12   0.0185   0.0204   0.0372  -0.0055  -0.0110  -0.0084   2.00    1.0
2020/01/20 16:03:03.000   44.165534582    7.567697823  1483.6387   2  12   0.0188   0.0204   0.0373  -0.0057  -0.0110  -0.0080   3.00    1.0
2020/01/20 16:03:04.000   44.165532729    7.567671806  1484.5431   2  12   0.0192   0.0205   0.0375  -0.0057  -0.0109  -0.0074   4.00    1.0
2020/01/20 16:03:05.000   44.165531424    7.567646015  1485.4197   2  12   0.0181   0.0202   0.0366  -0.0055  -0.0108  -0.0088   0.00    1.0
2020/01/20 16:03:06.000   44.165529183    7.567620090  1486.3062   2  12   0.0182   0.0204   0.0365  -0.0053  -0.0107  -0.0086   1.00    1.0
2020/01/20 16:03:07.000   44.165526311    7.567594380  1487.1719   2  12   0.0183   0.0203   0.0365  -0.0057  -0.0105  -0.0083   2.00    1.0
2020/01/20 16:03:08.000   44.165523855    7.567568837  1488.0541   2  12   0.0185   0.0201   0.0366  -0.0055  -0.0106  -0.0078   3.00    1.0
2020/01/20 16:03:09.000   44.165521489    7.567543561  1488.9261   2  12   0.0188   0.0202   0.0368  -0.0058  -0.0105  -0.0072   4.00    1.0
2020/01/20 16:03:10.000   44.165519760    7.567518115  1489.8488   2  12   0.0178   0.0200   0.0359  -0.0053  -0.0104  -0.0086   0.00    1.0
2020/01/20 16:03:11.000   44.165517948    7.567492327  1490.7768   2  12   0.0179   0.0201   0.0358  -0.0052  -0.0104  -0.0085   1.00    1.0
2020/01/20 16:03:12.000   44.165516061    7.567466734  1491.6856   2  12   0.0180   0.0199   0.0359  -0.0054  -0.0105  -0.0082   2.00    1.0
2020/01/20 16:03:13.000   44.165514343    7.567442811  1492.5921   2  12   0.0183   0.0199   0.0360  -0.0054  -0.0104  -0.0078   3.00    1.0
2020/01/20 16:03:14.000   44.165512735    7.567418677  1493.5038   2  12   0.0185   0.0200   0.0362  -0.0055  -0.0104  -0.0071   4.00    1.0
2020/01/20 16:03:15.000   44.165510648    7.567392607  1494.4469   2  12   0.0176   0.0197   0.0353  -0.0052  -0.0103  -0.0085   0.00    1.0
2020/01/20 16:03:16.000   44.165508490    7.567366080  1495.3803   2  12   0.0181   0.0198   0.0355  -0.0044  -0.0107  -0.0095   1.00    1.0
2020/01/20 16:03:17.000   44.165505691    7.567339530  1496.2245   2  12   0.0181   0.0197   0.0355  -0.0048  -0.0106  -0.0089   2.00    1.1
2020/01/20 16:03:18.000   44.165503569    7.567315724  1497.0235   2  12   0.0182   0.0196   0.0356  -0.0050  -0.0105  -0.0084   3.00    1.1
2020/01/20 16:03:19.000   44.165501380    7.567292388  1497.8381   2  12   0.0185   0.0197   0.0359  -0.0050  -0.0104  -0.0078   4.00    1.1
2020/01/20 16:03:20.000   44.165499309    7.567268354  1498.7552   2  12   0.0175   0.0196   0.0350  -0.0049  -0.0103  -0.0091   0.00    1.1
2020/01/20 16:03:21.000   44.165496808    7.567243826  1499.6438   2  12   0.0175   0.0195   0.0350  -0.0051  -0.0102  -0.0090   1.00    1.1
2020/01/20 16:03:22.000   44.165493878    7.567220554  1500.4924   2  12   0.0176   0.0193   0.0350  -0.0049  -0.0103  -0.0087   2.00    1.1
2020/01/20 16:03:23.000   44.165490140    7.567197281  1501.3008   2  12   0.0179   0.0195   0.0352  -0.0049  -0.0102  -0.0083   3.00    1.1
2020/01/20 16:03:24.000   44.165488365    7.567172364  1502.1876   2  12   0.0182   0.0194   0.0354  -0.0051  -0.0102  -0.0077   4.00    1.1
2020/01/20 16:03:25.000   44.165486445    7.567146821  1503.0837   2  12   0.0172   0.0192   0.0346  -0.0048  -0.0102  -0.0091   0.00    1.1
2020/01/20 16:03:26.000   44.165484386    7.567120864  1503.9309   2  12   0.0172   0.0193   0.0345  -0.0049  -0.0102  -0.0089   1.00    1.1
2020/01/20 16:03:27.000   44.165481786    7.567095313  1504.7008   2  12   0.0174   0.0192   0.0346  -0.0048  -0.0101  -0.0087   2.00    1.1
2020/01/20 16:03:28.000   44.165478732    7.567069142  1505.4207   2  12   0.0177   0.0191   0.0347  -0.0050  -0.0102  -0.0083   3.00    1.1
2020/01/20 16:03:29.000   44.165476539    7.567043994  1506.0884   2  12   0.0180   0.0191   0.0350  -0.0050  -0.0102  -0.0076   4.00    1.1
2020/01/20 16:03:30.000   44.165475380    7.567018013  1506.7255   2  12   0.0170   0.0190   0.0341  -0.0050  -0.0099  -0.0090   0.00    1.1
2020/01/20 16:03:31.000   44.165474221    7.566991115  1507.3631   2  12   0.0170   0.0189   0.0342  -0.0048  -0.0101  -0.0090   1.00    1.1
2020/01/20 16:03:32.000   44.165472324    7.566963631  1507.9714   2  12   0.0171   0.0190   0.0342  -0.0050  -0.0099  -0.0086   2.00    1.1
2020/01/20 16:03:33.000   44.165470492    7.566935837  1508.5352   2  12   0.0174   0.0190   0.0344  -0.0048  -0.0101  -0.0082   3.00    1.1
2020/01/20 16:03:34.000   44.165468561    7.566908500  1509.0754   2  12   0.0178   0.0190   0.0346  -0.0050  -0.0099  -0.0077   4.00    1.1
2020/01/20 16:03:35.000   44.165466733    7.566881443  1509.6469   2  12   0.0168   0.0188   0.0338  -0.0044  -0.0100  -0.0090   0.00    1.1
2020/01/20 16:03:36.000   44.165464960    7.566853887  1510.1789   2  12   0.0168   0.0187   0.0337  -0.0046  -0.0098  -0.0089   1.00    1.1
2020/01/20 16:03:37.000   44.165462119    7.566825694  1510.7214   2  12   0.0169   0.0187   0.0338  -0.0046  -0.0099  -0.0086   2.00    1.1
2020/01/20 16:03:38.000   44.165459707    7.566798118  1511.2347   2  12   0.0172   0.0187   0.0340  -0.0048  -0.0099  -0.0082   3.00    1.1
2020/01/20 16:03:39.000   44.165457329    7.566770530  1511.7743   2  12   0.0176   0.0188   0.0343  -0.0048  -0.0098  -0.0076   4.00    1.1
2020/01/20 16:03:40.000   44.165454375    7.566741817  1512.3735   2  12   0.0166   0.0186   0.0334  -0.0047  -0.0097  -0.0090   0.00    1.2
2020/01/20 16:03:41.000   44.165451301    7.566712302  1512.9641   2  12   0.0166   0.0185   0.0333  -0.0046  -0.0097  -0.0089   1.00    1.2
2020/01/20 16:03:42.000   44.165447849    7.566682603  1513.5359   2  12   0.0167   0.0186   0.0334  -0.0044  -0.0097  -0.0086   2.00    1.2
2020/01/20 16:03:43.000   44.165444431    7.566653260  1514.0799   2  12   0.0170   0.0186   0.0336  -0.0048  -0.0097  -0.0082   3.00    1.2
2020/01/20 16:03:44.000   44.165441203    7.566624347  1514.6043   2  12   0.0174   0.0186   0.0339  -0.0046  -0.0097  -0.0076   4.00    1.2
2020/01/20 16:03:45.000   44.165438670    7.566595688  1515.1722   2  12   0.0163   0.0183   0.0330  -0.0045  -0.0095  -0.0089   0.00    1.2
2020/01/20 16:03:46.000   44.165436096    7.566567413  1515.7190   2  12   0.0164   0.0183   0.0329  -0.0046  -0.0096  -0.0088   1.00    1.2
2020/01/20 16:03:47.000   44.165433281    7.566539193  1516.2857   2  12   0.0165   0.0182   0.0330  -0.0047  -0.0096  -0.0086   2.00    1.2
2020/01/20 16:03:48.000   44.165430257    7.566510395  1516.8639   2  12   0.0168   0.0183   0.0332  -0.0045  -0.0097  -0.0082   3.00    1.2
2020/01/20 16:03:49.000   44.165427306    7.566480931  1517.4259   2  12   0.0172   0.0184   0.0335  -0.0046  -0.0096  -0.0075   4.00    1.2
2020/01/20 16:03:50.000   44.165424863    7.566451359  1518.0109   2  12   0.0161   0.0182   0.0326  -0.0041  -0.0094  -0.0089   0.00    1.2
2020/01/20 16:03:51.000   44.165422567    7.566421522  1518.5573   2  12   0.0161   0.0182   0.0326  -0.0044  -0.0095  -0.0088   1.00    1.2
2020/01/20 16:03:52.000   44.165420069    7.566391128  1519.1040   2  12   0.0164   0.0180   0.0327  -0.0042  -0.0096  -0.0085   2.00    1.2
2020/01/20 16:03:53.000   44.165418102    7.566361302  1519.6817   2  12   0.0166   0.0180   0.0328  -0.0044  -0.0096  -0.0081   3.00    1.2
2020/01/20 16:03:54.000   44.165416361    7.566331641  1520.2756   2  12   0.0170   0.0181   0.0331  -0.0044  -0.0095  -0.0075   4.00    1.2
2020/01/20 16:03:55.000   44.165414684    7.566301690  1520.8986   2  12   0.0159   0.0178   0.0322  -0.0044  -0.0094  -0.0088   0.00    1.2
2020/01/20 16:03:56.000   44.165412786    7.566271206  1521.4930   2  12   0.0160   0.0178   0.0322  -0.0042  -0.0094  -0.0088   1.00    1.2
2020/01/20 16:03:57.000   44.165410061    7.566239200  1522.0788   2  12   0.0161   0.0179   0.0323  -0.0043  -0.0094  -0.0085   2.00    1.2
2020/01/20 16:03:58.000   44.165407041    7.566206616  1522.7182   2  12   0.0164   0.0179   0.0325  -0.0044  -0.0093  -0.0080   3.00    1.2
2020/01/20 16:03:59.000   44.165404313    7.566174539  1523.3640   2  12   0.0168   0.0179   0.0328  -0.0044  -0.0094  -0.0074   4.00    1.2
2020/01/20 16:04:00.000   44.165401153    7.566142392  1524.0710   2  12   0.0158   0.0178   0.0319  -0.0041  -0.0094  -0.0088   0.00    1.2
2020/01/20 16:04:01.000   44.165398119    7.566110314  1524.7915   2  12   0.0158   0.0177   0.0319  -0.0040  -0.0094  -0.0087   1.00    1.2
2020/01/20 16:04:02.000   44.165394697    7.566077692  1525.5466   2  12   0.0160   0.0176   0.0320  -0.0039  -0.0094  -0.0084   2.00    1.2
2020/01/20 16:04:03.000   44.165391124    7.566044965  1526.2793   2  12   0.0163   0.0177   0.0322  -0.0041  -0.0093  -0.0080   3.00    1.2
2020/01/20 16:04:04.000   44.165387271    7.566012755  1527.0029   2  12   0.0167   0.0177   0.0325  -0.0045  -0.0092  -0.0073   4.00    1.2
2020/01/20 16:04:05.000   44.165383726    7.565980168  1527.7286   2  12   0.0156   0.0175   0.0315  -0.0042  -0.0091  -0.0087   0.00    1.2
2020/01/20 16:04:06.000   44.165380170    7.565948073  1528.4535   2  12   0.0156   0.0174   0.0315  -0.0041  -0.0092  -0.0086   1.00    1.2
2020/01/20 16:04:07.000   44.165376453    7.565915689  1529.1762   2  12   0.0158   0.0175   0.0316  -0.0041  -0.0091  -0.0083   2.00    1.2
2020/01/20 16:04:08.000   44.165372219    7.565882399  1529.8791   2  12   0.0161   0.0174   0.0318  -0.0041  -0.0092  -0.0079   3.00    1.2
2020/01/20 16:04:09.000   44.165367204    7.565848528  1530.5396   2  12   0.0165   0.0176   0.0321  -0.0044  -0.0093  -0.0073   4.00    1.2
2020/01/20 16:04:10.000   44.165362809    7.565816145  1531.2479   2  12   0.0154   0.0173   0.0312  -0.0041  -0.0091  -0.0087   0.00    1.2
2020/01/20 16:04:11.000   44.165359087    7.565785060  1531.9986   2  12   0.0155   0.0174   0.0312  -0.0042  -0.0091  -0.0085   1.00    1.2
2020/01/20 16:04:12.000   44.165355082    7.565754778  1532.8298   2  12   0.0156   0.0172   0.0313  -0.0041  -0.0092  -0.0083   2.00    1.2
2020/01/20 16:04:13.000   44.165351332    7.565725024  1533.7128   2  11   0.0161   0.0173   0.0315  -0.0046  -0.0091  -0.0079   3.00    1.2
2020/01/20 16:04:14.000   44.165347296    7.565693914  1534.6049   2  11   0.0166   0.0172   0.0318  -0.0044  -0.0090  -0.0073   4.00    1.2
2020/01/20 16:04:15.000   44.165343207    7.565662199  1535.4631   2  11   0.0154   0.0172   0.0308  -0.0041  -0.0089  -0.0087   0.00    1.2
2020/01/20 16:04:16.000   44.165339539    7.565630936  1536.3141   2  11   0.0154   0.0173   0.0309  -0.0040  -0.0092  -0.0085   1.00    1.2
2020/01/20 16:04:17.000   44.165334937    7.565598282  1537.1301   2  11   0.0157   0.0172   0.0310  -0.0043  -0.0090  -0.0082   2.00    1.2
2020/01/20 16:04:18.000   44.165329670    7.565563667  1537.7751   2  11   0.0159   0.0171   0.0312  -0.0043  -0.0090  -0.0079   3.00    1.2
2020/01/20 16:04:19.000   44.165324272    7.565528390  1538.2449   2  11   0.0164   0.0171   0.0315  -0.0046  -0.0089  -0.0072   4.00    1.2
2020/01/20 16:04:20.000   44.165318868    7.565495227  1538.7070   2  12   0.0153   0.0170   0.0305  -0.0041  -0.0089  -0.0086   0.00    1.0
2020/01/20 16:04:21.000   44.165313468    7.565463537  1539.2282   2  12   0.0153   0.0170   0.0305  -0.0043  -0.0088  -0.0085   1.00    1.0
2020/01/20 16:04:22.000   44.165307761    7.565431547  1539.7876   2  12   0.0154   0.0169   0.0306  -0.0041  -0.0089  -0.0081   2.00    1.0
2020/01/20 16:04:23.000   44.165301980    7.565401195  1540.4139   2  12   0.0157   0.0169   0.0308  -0.0040  -0.0090  -0.0076   3.00    1.0
2020/01/20 16:04:24.000   44.165296299    7.565371609  1541.1352   2  12   0.0161   0.0169   0.0312  -0.0042  -0.0089  -0.0070   4.00    1.0
2020/01/20 16:04:25.000   44.165288884    7.565340689  1541.8997   2  12   0.0149   0.0168   0.0302  -0.0039  -0.0089  -0.0084   0.00    1.1
2020/01/20 16:04:26.000   44.165281216    7.565309847  1542.6399   2  12   0.0150   0.0167   0.0302  -0.0038  -0.0088  -0.0083   1.00    1.1
2020/01/20 16:04:27.000   44.165272649    7.565278161  1543.3639   2  12   0.0152   0.0167   0.0303  -0.0038  -0.0090  -0.0080   2.00    1.1
2020/01/20 16:04:28.000   44.165263450    7.565247210  1544.0537   2  12   0.0155   0.0166   0.0305  -0.0039  -0.0090  -0.0076   3.00    1.1
2020/01/20 16:04:29.000   44.165254282    7.565216575  1544.7502   2  12   0.0160   0.0167   0.0309  -0.0041  -0.0089  -0.0069   4.00    1.1
2020/01/20 16:04:30.000   44.165245494    7.565185410  1545.4172   2  12   0.0148   0.0166   0.0299  -0.0037  -0.0089  -0.0083   0.00    1.1
2020/01/20 16:04:31.000   44.165236979    7.565155575  1546.1944   2  12   0.0149   0.0167   0.0299  -0.0038  -0.0088  -0.0083   1.00    1.1
2020/01/20 16:04:32.000   44.165228317    7.565126116  1547.0010   2  12   0.0150   0.0166   0.0300  -0.0037  -0.0089  -0.0079   2.00    1.1
2020/01/20 16:04:33.000   44.165219872    7.565097601  1547.8531   2  12   0.0154   0.0166   0.0302  -0.0039  -0.0088  -0.0075   3.00    1.1
2020/01/20 16:04:34.000   44.165211258    7.565068701  1548.7179   2  12   0.0158   0.0165   0.0305  -0.0039  -0.0088  -0.0068   4.00    1.1
2020/01/20 16:04:35.000   44.165202233    7.565040026  1549.5685   2  12   0.0146   0.0164   0.0296  -0.0036  -0.0088  -0.0083   0.00    1.1
2020/01/20 16:04:36.000   44.165192991    7.565011899  1550.4480   2  12   0.0147   0.0164   0.0296  -0.0038  -0.0086  -0.0081   1.00    1.1
2020/01/20 16:04:37.000   44.165183461    7.564984285  1551.3661   2  12   0.0149   0.0163   0.0297  -0.0039  -0.0087  -0.0079   2.00    1.1
2020/01/20 16:04:38.000   44.165174250    7.564957287  1552.3095   2  12   0.0152   0.0165   0.0300  -0.0036  -0.0088  -0.0074   3.00    1.1
2020/01/20 16:04:39.000   44.165165092    7.564929033  1553.2209   2  12   0.0158   0.0164   0.0303  -0.0039  -0.0087  -0.0068   4.00    1.1
2020/01/20 16:04:40.000   44.165155756    7.564900569  1554.0973   2  12   0.0145   0.0162   0.0293  -0.0036  -0.0086  -0.0082   0.00    1.1
2020/01/20 16:04:41.000   44.165146136    7.564871718  1554.9458   2  12   0.0146   0.0164   0.0293  -0.0037  -0.0086  -0.0081   1.00    1.1
2020/01/20 16:04:42.000   44.165136393    7.564842611  1555.7805   2  12   0.0147   0.0163   0.0295  -0.0036  -0.0088  -0.0078   2.00    1.1
2020/01/20 16:04:43.000   44.165126679    7.564813671  1556.5948   2  12   0.0151   0.0163   0.0297  -0.0039  -0.0086  -0.0073   3.00    1.1
2020/01/20 16:04:44.000   44.165116809    7.564785058  1557.4210   2  12   0.0155   0.0163   0.0300  -0.0039  -0.0087  -0.0066   4.00    1.1
2020/01/20 16:04:45.000   44.165106759    7.564756368  1558.2509   2  12   0.0144   0.0162   0.0290  -0.0035  -0.0087  -0.0081   0.00    1.1
2020/01/20 16:04:46.000   44.165096308    7.564728014  1559.0886   2  12   0.0144   0.0160   0.0290  -0.0037  -0.0085  -0.0080   1.00    1.1
2020/01/20 16:04:47.000   44.165086217    7.564700173  1559.9083   2  12   0.0147   0.0161   0.0291  -0.0036  -0.0086  -0.0077   2.00    1.1
2020/01/20 16:04:48.000   44.165076392    7.564672690  1560.7608   2  12   0.0150   0.0162   0.0294  -0.0037  -0.0086  -0.0071   3.00    1.1
2020/01/20 16:04:49.000   44.165066343    7.564645030  1561.6378   2  12   0.0154   0.0161   0.0297  -0.0039  -0.0087  -0.0064   4.00    1.1
2020/01/20 16:04:50.000   44.165056564    7.564617772  1562.5360   2  12   0.0143   0.0160   0.0287  -0.0036  -0.0086  -0.0080   0.00    1.1
2020/01/20 16:04:51.000   44.165047461    7.564591415  1563.4585   2  12   0.0143   0.0158   0.0287  -0.0035  -0.0086  -0.0079   1.00    1.1
2020/01/20 16:04:52.000   44.165038487    7.564565150  1564.4222   2  12   0.0146   0.0160   0.0289  -0.0033  -0.0086  -0.0076   2.00    1.1
2020/01/20 16:04:53.000   44.165029483    7.564539050  1565.4359   2  12   0.0149   0.0160   0.0291  -0.0035  -0.0085  -0.0071   3.00    1.1
2020/01/20 16:04:54.000   44.165020532    7.564513351  1566.4425   2  12   0.0153   0.0160   0.0295  -0.0036  -0.0086  -0.0063   4.00    1.1
2020/01/20 16:04:55.000   44.165011403    7.564487480  1567.4610   2  12   0.0142   0.0159   0.0284  -0.0034  -0.0085  -0.0080   0.00    1.2
2020/01/20 16:04:56.000   44.165002530    7.564462413  1568.4734   2  12   0.0142   0.0159   0.0284  -0.0035  -0.0084  -0.0078   1.00    1.2
2020/01/20 16:04:57.000   44.164994075    7.564437828  1569.4494   2  12   0.0144   0.0157   0.0286  -0.0032  -0.0085  -0.0075   2.00    1.2
2020/01/20 16:04:58.000   44.164986212    7.564412471  1570.4366   2  12   0.0148   0.0158   0.0288  -0.0035  -0.0085  -0.0070   3.00    1.2
2020/01/20 16:04:59.000   44.164978216    7.564386833  1571.4278   2  12   0.0152   0.0159   0.0292  -0.0035  -0.0086  -0.0063   4.00    1.2
2020/01/20 16:05:00.000   44.164970591    7.564361494  1572.4066   2  12   0.0141   0.0156   0.0281  -0.0035  -0.0084  -0.0079   0.00    1.2
2020/01/20 16:05:01.000   44.164963014    7.564335691  1573.3730   2  12   0.0142   0.0156   0.0281  -0.0034  -0.0085  -0.0077   1.00    1.2
2020/01/20 16:05:02.000   44.164955606    7.564309894  1574.4066   2  12   0.0143   0.0157   0.0283  -0.0035  -0.0085  -0.0074   2.00    1.2
2020/01/20 16:05:03.000   44.164947496    7.564283290  1575.4038   2  12   0.0146   0.0156   0.0286  -0.0035  -0.0084  -0.0068   3.00    1.2
2020/01/20 16:05:04.000   44.164940016    7.564257349  1576.4026   2  12   0.0152   0.0158   0.0289  -0.0034  -0.0085  -0.0062   4.00    1.2
2020/01/20 16:05:05.000   44.164933007    7.564230870  1577.3670   2  12   0.0140   0.0154   0.0279  -0.0034  -0.0083  -0.0078   0.00    1.2
2020/01/20 16:05:06.000   44.164925934    7.564204303  1578.3838   2  12   0.0140   0.0153   0.0279  -0.0034  -0.0083  -0.0076   1.00    1.2
2020/01/20 16:05:07.000   44.164917637    7.564177310  1579.4384   2  12   0.0143   0.0155   0.0280  -0.0032  -0.0084  -0.0073   2.00    1.2
2020/01/20 16:05:08.000   44.164909655    7.564150581  1580.4661   2  12   0.0146   0.0156   0.0283  -0.0034  -0.0083  -0.0068   3.00    1.2
2020/01/20 16:05:09.000   44.164902224    7.564124492  1581.4490   2  12   0.0150   0.0155   0.0286  -0.0038  -0.0084  -0.0060   4.00    1.2
2020/01/20 16:05:10.000   44.164895887    7.564097775  1582.4283   2  12   0.0138   0.0153   0.0276  -0.0031  -0.0084  -0.0076   0.00    1.2
2020/01/20 16:05:11.000   44.164889548    7.564070504  1583.4368   2  12   0.0139   0.0154   0.0276  -0.0031  -0.0081  -0.0076   1.00    1.2
2020/01/20 16:05:12.000   44.164883927    7.564043780  1584.4023   2  12   0.0141   0.0155   0.0278  -0.0031  -0.0084  -0.0072   2.00    1.2
2020/01/20 16:05:13.000   44.164879225    7.564018260  1585.3281   2  12   0.0145   0.0153   0.0280  -0.0033  -0.0083  -0.0067   3.00    1.2
