% program   : RTKPOST ver.2.4.3 b33
% inp file  : C:\Users\Francesco Conforte\Documents\UNIVERSITA'\Magistrale\ICT for geomatics\Geomatics\LAB\Lab3\GNSS data\GNSS Kinematic\SnowGroomer\20200120_COM3_165803.20o
% inp file  : C:\Users\Francesco Conforte\Documents\UNIVERSITA'\Magistrale\ICT for geomatics\Geomatics\LAB\Lab3\GNSS data\GNSS Kinematic\MONV\monv020i00.20o
% inp file  : C:\Users\Francesco Conforte\Documents\UNIVERSITA'\Magistrale\ICT for geomatics\Geomatics\LAB\Lab3\GNSS data\GNSS Kinematic\SnowGroomer\*
% obs start : 2020/01/20 15:58:19.0 GPST (week2089 143899.0s)
% obs end   : 2020/01/20 18:38:30.0 GPST (week2089 153510.0s)
% pos mode  : kinematic
% freqs     : L1+L2
% solution  : combined
% elev mask : 15.0 deg
% dynamics  : off
% tidecorr  : off
% ionos opt : broadcast
% tropo opt : saastamoinen
% ephemeris : broadcast
% navi sys  : gps glonass
% amb res   : fix and hold
% amb glo   : on
% val thres : 3.0
% antenna1  :                       ( 0.0000  0.0000  0.0000)
% antenna2  :                       ( 0.0000  0.0000  0.0000)
% ref pos   : 44.390356851    7.828955133   637.6965
%
% (lat/lon/height=WGS84/ellipsoidal,Q=1:fix,2:float,3:sbas,4:dgps,5:single,6:ppp,ns=# of satellites)
%  GPST                  latitude(deg) longitude(deg)  height(m)   Q  ns   sdn(m)   sde(m)   sdu(m)  sdne(m)  sdeu(m)  sdun(m) age(s)  ratio
2020/01/20 15:58:19.000   44.166053819    7.569434822  1449.7175   2  11   0.0122   0.0088   0.0217  -0.0005  -0.0058   0.0059   4.00    1.8
2020/01/20 15:58:20.000   44.166053799    7.569434822  1449.7161   2  11   0.0122   0.0089   0.0216   0.0012  -0.0056   0.0056   0.00    1.7
2020/01/20 15:58:21.000   44.166053819    7.569434846  1449.7157   2  11   0.0138   0.0090   0.0240  -0.0028  -0.0067   0.0091   1.00    1.5
2020/01/20 15:58:22.000   44.166053821    7.569434850  1449.7176   2  11   0.0131   0.0088   0.0230  -0.0020  -0.0064   0.0078   2.00    1.5
2020/01/20 15:58:23.000   44.166053778    7.569434874  1449.7118   2  11   0.0126   0.0089   0.0223  -0.0014  -0.0059   0.0067   3.00    1.4
2020/01/20 15:58:24.000   44.166053788    7.569434868  1449.7113   2  11   0.0122   0.0087   0.0218  -0.0005  -0.0057   0.0060   4.00    1.4
2020/01/20 15:58:25.000   44.166053774    7.569434862  1449.7107   2  11   0.0121   0.0088   0.0216   0.0005  -0.0056   0.0056   0.00    1.3
2020/01/20 15:58:26.000   44.166053747    7.569434830  1449.7149   2  11   0.0138   0.0091   0.0241  -0.0030  -0.0067   0.0091   1.00    1.3
2020/01/20 15:58:27.000   44.166053740    7.569434857  1449.7168   2  11   0.0131   0.0092   0.0231  -0.0013  -0.0064   0.0078   2.00    1.3
2020/01/20 15:58:28.000   44.166053751    7.569434873  1449.7201   2  11   0.0126   0.0087   0.0223  -0.0013  -0.0060   0.0067   3.00    1.3
2020/01/20 15:58:29.000   44.166053769    7.569434882  1449.7205   2  11   0.0123   0.0088   0.0219  -0.0002  -0.0056   0.0059   4.00    1.3
2020/01/20 15:58:30.000   44.166053768    7.569434891  1449.7235   2  11   0.0121   0.0090   0.0217   0.0017  -0.0058   0.0056   0.00    1.3
2020/01/20 15:58:31.000   44.166053845    7.569434917  1449.7458   2  11   0.0139   0.0093   0.0242  -0.0026  -0.0068   0.0090   1.00    1.3
2020/01/20 15:58:32.000   44.166053859    7.569434957  1449.7407   2  11   0.0131   0.0090   0.0232  -0.0021  -0.0063   0.0078   2.00    1.3
2020/01/20 15:58:33.000   44.166053832    7.569434910  1449.7408   2  11   0.0126   0.0088   0.0224  -0.0007  -0.0061   0.0067   3.00    1.4
2020/01/20 15:58:34.000   44.166053785    7.569434935  1449.7296   2  11   0.0123   0.0086   0.0219   0.0002  -0.0057   0.0058   4.00    1.4
2020/01/20 15:58:35.000   44.166053759    7.569434928  1449.7323   2  11   0.0121   0.0088   0.0218   0.0014  -0.0056   0.0056   0.00    1.4
2020/01/20 15:58:36.000   44.166053738    7.569434934  1449.7343   2  11   0.0138   0.0091   0.0242  -0.0030  -0.0066   0.0090   1.00    1.4
2020/01/20 15:58:37.000   44.166053707    7.569435001  1449.7263   2  11   0.0131   0.0091   0.0232  -0.0017  -0.0063   0.0077   2.00    1.3
2020/01/20 15:58:38.000   44.166053713    7.569434999  1449.7315   2  11   0.0126   0.0087   0.0225  -0.0013  -0.0060   0.0066   3.00    1.3
2020/01/20 15:58:39.000   44.166053758    7.569434975  1449.7362   2  11   0.0123   0.0088   0.0220  -0.0002  -0.0057   0.0058   4.00    1.3
2020/01/20 15:58:40.000   44.166053768    7.569434961  1449.7352   2  11   0.0121   0.0088   0.0218   0.0014  -0.0057   0.0055   0.00    1.3
2020/01/20 15:58:41.000   44.166053910    7.569434879  1449.7615   2  11   0.0139   0.0092   0.0243  -0.0026  -0.0067   0.0089   1.00    1.3
2020/01/20 15:58:42.000   44.166053884    7.569434883  1449.7577   2  11   0.0132   0.0090   0.0233  -0.0021  -0.0062   0.0076   2.00    1.3
2020/01/20 15:58:43.000   44.166053791    7.569434895  1449.7525   2  11   0.0126   0.0089   0.0226   0.0005  -0.0060   0.0065   3.00    1.3
2020/01/20 15:58:44.000   44.166053752    7.569434956  1449.7413   2  11   0.0123   0.0089   0.0221   0.0013  -0.0057   0.0056   4.00    1.3
2020/01/20 15:58:45.000   44.166053709    7.569434974  1449.7391   2  11   0.0122   0.0087   0.0219   0.0011  -0.0056   0.0055   0.00    1.3
2020/01/20 15:58:46.000   44.166053757    7.569434954  1449.7553   2  11   0.0140   0.0095   0.0244  -0.0021  -0.0068   0.0089   1.00    1.2
2020/01/20 15:58:47.000   44.166053771    7.569434965  1449.7605   2  11   0.0132   0.0088   0.0234  -0.0020  -0.0063   0.0076   2.00    1.2
2020/01/20 15:58:48.000   44.166053754    7.569434969  1449.7561   2  11   0.0127   0.0091   0.0226   0.0008  -0.0061   0.0064   3.00    1.2
2020/01/20 15:58:49.000   44.166053737    7.569435002  1449.7515   2  11   0.0123   0.0088   0.0221   0.0012  -0.0057   0.0057   4.00    1.2
2020/01/20 15:58:50.000   44.166053707    7.569435006  1449.7499   2  11   0.0122   0.0088   0.0220   0.0013  -0.0057   0.0054   0.00    1.2
2020/01/20 15:58:51.000   44.166053795    7.569434993  1449.7550   2  11   0.0139   0.0092   0.0244  -0.0024  -0.0068   0.0089   1.00    1.2
2020/01/20 15:58:52.000   44.166053771    7.569435009  1449.7574   2  11   0.0132   0.0092   0.0234  -0.0016  -0.0063   0.0076   2.00    1.2
2020/01/20 15:58:53.000   44.166053706    7.569435037  1449.7511   2  11   0.0127   0.0089   0.0227   0.0007  -0.0060   0.0065   3.00    1.2
2020/01/20 15:58:54.000   44.166053690    7.569435037  1449.7502   2  11   0.0124   0.0090   0.0222   0.0013  -0.0058   0.0055   4.00    1.2
2020/01/20 15:58:55.000   44.166053692    7.569435009  1449.7519   2  11   0.0122   0.0087   0.0221   0.0014  -0.0056   0.0053   0.00    1.2
2020/01/20 15:58:56.000   44.166053763    7.569435015  1449.7684   2  11   0.0139   0.0092   0.0245  -0.0023  -0.0068   0.0089   1.00    1.2
2020/01/20 15:58:57.000   44.166053763    7.569435008  1449.7648   2  11   0.0133   0.0091   0.0235  -0.0012  -0.0064   0.0075   2.00    1.2
2020/01/20 15:58:58.000   44.166053739    7.569435013  1449.7635   2  11   0.0127   0.0088   0.0227   0.0012  -0.0061   0.0064   3.00    1.1
2020/01/20 15:58:59.000   44.166053731    7.569435028  1449.7620   2  11   0.0124   0.0090   0.0223   0.0013  -0.0057   0.0055   4.00    1.1
2020/01/20 15:59:00.000   44.166053717    7.569435027  1449.7627   2  11   0.0122   0.0088   0.0221   0.0016  -0.0057   0.0052   0.00    1.1
2020/01/20 15:59:01.000   44.166053677    7.569435034  1449.7797   2  11   0.0139   0.0091   0.0245  -0.0027  -0.0067   0.0089   1.00    1.1
2020/01/20 15:59:02.000   44.166053697    7.569435055  1449.7798   2  11   0.0133   0.0093   0.0235  -0.0011  -0.0064   0.0075   2.00    1.1
2020/01/20 15:59:03.000   44.166053717    7.569435031  1449.7804   2  11   0.0127   0.0089   0.0228  -0.0007  -0.0060   0.0063   3.00    1.1
2020/01/20 15:59:04.000   44.166053717    7.569435041  1449.7792   2  11   0.0123   0.0090   0.0223   0.0020  -0.0058   0.0055   4.00    1.1
2020/01/20 15:59:05.000   44.166053704    7.569435033  1449.7755   2  11   0.0123   0.0090   0.0222   0.0015  -0.0056   0.0051   0.00    1.1
2020/01/20 15:59:06.000   44.166053764    7.569435015  1449.8038   2  11   0.0140   0.0092   0.0246  -0.0025  -0.0068   0.0088   1.00    1.1
2020/01/20 15:59:07.000   44.166053793    7.569435026  1449.7954   2  11   0.0133   0.0090   0.0236  -0.0017  -0.0062   0.0075   2.00    1.1
2020/01/20 15:59:08.000   44.166053771    7.569435044  1449.7863   2  11   0.0127   0.0088   0.0229  -0.0010  -0.0058   0.0063   3.00    1.1
2020/01/20 15:59:09.000   44.166053770    7.569435029  1449.7904   2  11   0.0123   0.0088   0.0224   0.0016  -0.0058   0.0054   4.00    1.1
2020/01/20 15:59:10.000   44.166053690    7.569435059  1449.7768   2  11   0.0122   0.0087   0.0223   0.0018  -0.0057   0.0052   0.00    1.1
2020/01/20 15:59:11.000   44.166053841    7.569434896  1449.8173   2  11   0.0139   0.0092   0.0246  -0.0024  -0.0067   0.0088   1.00    1.1
2020/01/20 15:59:12.000   44.166053801    7.569434929  1449.8097   2  11   0.0132   0.0088   0.0236  -0.0019  -0.0063   0.0074   2.00    1.1
2020/01/20 15:59:13.000   44.166053793    7.569434990  1449.8020   2  11   0.0127   0.0089   0.0229  -0.0007  -0.0059   0.0063   3.00    1.1
2020/01/20 15:59:14.000   44.166053720    7.569435017  1449.7941   2  11   0.0124   0.0087   0.0225   0.0011  -0.0057   0.0054   4.00    1.1
2020/01/20 15:59:15.000   44.166053660    7.569435054  1449.7827   2  11   0.0123   0.0089   0.0223   0.0015  -0.0056   0.0050   0.00    1.1
2020/01/20 15:59:16.000   44.166053710    7.569435060  1449.8132   2  11   0.0140   0.0094   0.0247  -0.0022  -0.0067   0.0087   1.00    1.1
2020/01/20 15:59:17.000   44.166053664    7.569435062  1449.8044   2  11   0.0133   0.0092   0.0237  -0.0011  -0.0063   0.0074   2.00    1.1
2020/01/20 15:59:18.000   44.166053608    7.569435031  1449.7964   2  11   0.0128   0.0090   0.0230   0.0006  -0.0059   0.0062   3.00    1.1
2020/01/20 15:59:19.000   44.166053616    7.569435071  1449.7901   2  11   0.0124   0.0090   0.0225   0.0023  -0.0060   0.0052   4.00    1.1
2020/01/20 15:59:20.000   44.166053583    7.569435052  1449.7870   2  11   0.0122   0.0089   0.0224   0.0012  -0.0055   0.0050   0.00    1.1
2020/01/20 15:59:21.000   44.166053691    7.569435015  1449.8210   2  11   0.0140   0.0094   0.0247  -0.0021  -0.0068   0.0086   1.00    1.0
2020/01/20 15:59:22.000   44.166053663    7.569435037  1449.8176   2  11   0.0133   0.0093   0.0238  -0.0013  -0.0062   0.0073   2.00    1.0
2020/01/20 15:59:23.000   44.166053667    7.569435038  1449.8092   2  11   0.0127   0.0089   0.0230   0.0009  -0.0060   0.0061   3.00    1.0
2020/01/20 15:59:24.000   44.166053628    7.569435050  1449.8022   2  11   0.0123   0.0090   0.0226   0.0020  -0.0058   0.0053   4.00    1.0
2020/01/20 15:59:25.000   44.166053603    7.569435083  1449.7981   2  11   0.0123   0.0091   0.0224   0.0020  -0.0056   0.0049   0.00    1.0
2020/01/20 15:59:26.000   44.166053688    7.569434983  1449.8387   2  11   0.0140   0.0093   0.0247  -0.0022  -0.0068   0.0085   1.00    1.0
2020/01/20 15:59:27.000   44.166053620    7.569435001  1449.8266   2  11   0.0133   0.0093   0.0238  -0.0013  -0.0063   0.0072   2.00    1.0
2020/01/20 15:59:28.000   44.166053580    7.569435032  1449.8183   2  11   0.0127   0.0089   0.0231   0.0012  -0.0060   0.0061   3.00    1.0
2020/01/20 15:59:29.000   44.166053575    7.569435066  1449.8112   2  11   0.0124   0.0091   0.0226   0.0018  -0.0056   0.0051   4.00    1.0
2020/01/20 15:59:30.000   44.166053539    7.569435066  1449.8027   2  11   0.0123   0.0089   0.0225   0.0021  -0.0056   0.0049   0.00    1.0
2020/01/20 15:59:31.000   44.166053607    7.569435029  1449.8211   2  11   0.0140   0.0093   0.0248  -0.0020  -0.0067   0.0085   1.00    1.0
2020/01/20 15:59:32.000   44.166053651    7.569435053  1449.8251   2  11   0.0133   0.0092   0.0238  -0.0016  -0.0062   0.0072   2.00    1.0
2020/01/20 15:59:33.000   44.166053625    7.569435085  1449.8231   2  11   0.0128   0.0091   0.0232   0.0014  -0.0061   0.0059   3.00    1.0
2020/01/20 15:59:34.000   44.166053611    7.569435076  1449.8247   2  11   0.0124   0.0089   0.0227   0.0015  -0.0057   0.0051   4.00    1.0
2020/01/20 15:59:35.000   44.166053559    7.569435085  1449.8182   2  11   0.0123   0.0088   0.0225   0.0020  -0.0056   0.0047   0.00    1.0
2020/01/20 15:59:36.000   44.166053676    7.569435037  1449.8475   2  11   0.0139   0.0095   0.0248  -0.0018  -0.0068   0.0085   1.00    1.0
2020/01/20 15:59:37.000   44.166053682    7.569435045  1449.8406   2  11   0.0133   0.0093   0.0239  -0.0007  -0.0063   0.0070   2.00    1.0
2020/01/20 15:59:38.000   44.166053625    7.569435035  1449.8365   2  11   0.0128   0.0090   0.0232   0.0006  -0.0059   0.0059   3.00    1.0
2020/01/20 15:59:39.000   44.166053595    7.569435064  1449.8290   2  11   0.0124   0.0091   0.0227   0.0020  -0.0058   0.0050   4.00    1.0
2020/01/20 15:59:40.000   44.166053546    7.569435114  1449.8234   2  11   0.0124   0.0091   0.0226   0.0022  -0.0058   0.0046   0.00    1.0
2020/01/20 15:59:41.000   44.166053632    7.569435025  1449.8308   2  11   0.0139   0.0091   0.0248  -0.0025  -0.0066   0.0084   1.00    1.0
2020/01/20 15:59:42.000   44.166053626    7.569435043  1449.8354   2  11   0.0133   0.0093   0.0239   0.0006  -0.0064   0.0070   2.00    1.0
2020/01/20 15:59:43.000   44.166053561    7.569435075  1449.8322   2  11   0.0127   0.0093   0.0232   0.0018  -0.0059   0.0058   3.00    1.0
2020/01/20 15:59:44.000   44.166053527    7.569435091  1449.8324   2  11   0.0125   0.0091   0.0228   0.0018  -0.0057   0.0049   4.00    1.0
2020/01/20 15:59:45.000   44.166053461    7.569435106  1449.8277   2  11   0.0123   0.0091   0.0227   0.0022  -0.0056   0.0045   0.00    1.0
2020/01/20 15:59:46.000   44.166053455    7.569435052  1449.8192   2  11   0.0139   0.0093   0.0249  -0.0019  -0.0068   0.0082   1.00    1.0
2020/01/20 15:59:47.000   44.166053437    7.569435048  1449.8228   2  11   0.0133   0.0093   0.0240   0.0004  -0.0064   0.0070   2.00    1.0
2020/01/20 15:59:48.000   44.166053445    7.569435087  1449.8281   2  11   0.0127   0.0092   0.0233   0.0014  -0.0059   0.0058   3.00    1.0
2020/01/20 15:59:49.000   44.166053473    7.569435106  1449.8377   2  11   0.0125   0.0092   0.0228   0.0017  -0.0058   0.0048   4.00    1.0
2020/01/20 15:59:50.000   44.166053496    7.569435114  1449.8421   2  11   0.0124   0.0090   0.0227   0.0024  -0.0058   0.0044   0.00    1.0
2020/01/20 15:59:51.000   44.166053486    7.569435119  1449.8454   2  11   0.0140   0.0094   0.0249  -0.0021  -0.0067   0.0082   1.00    1.0
2020/01/20 15:59:52.000   44.166053464    7.569435108  1449.8496   2  11   0.0132   0.0092   0.0240  -0.0010  -0.0062   0.0069   2.00    1.0
2020/01/20 15:59:53.000   44.166053445    7.569435107  1449.8465   2  11   0.0128   0.0090   0.0233   0.0017  -0.0059   0.0056   3.00    1.0
2020/01/20 15:59:54.000   44.166053439    7.569435109  1449.8461   2  11   0.0124   0.0093   0.0229   0.0022  -0.0058   0.0047   4.00    1.0
2020/01/20 15:59:55.000   44.166053434    7.569435110  1449.8463   2  11   0.0123   0.0092   0.0227   0.0021  -0.0056   0.0043   0.00    1.0
2020/01/20 15:59:56.000   44.166053502    7.569435146  1449.8515   2  11   0.0139   0.0094   0.0249  -0.0017  -0.0067   0.0082   1.00    1.0
2020/01/20 15:59:57.000   44.166053498    7.569435135  1449.8538   2  11   0.0133   0.0093   0.0240  -0.0007  -0.0062   0.0068   2.00    1.0
2020/01/20 15:59:58.000   44.166053487    7.569435120  1449.8511   2  11   0.0127   0.0092   0.0233   0.0018  -0.0059   0.0056   3.00    1.0
2020/01/20 15:59:59.000   44.166053494    7.569435115  1449.8543   2  11   0.0124   0.0089   0.0229   0.0018  -0.0056   0.0047   4.00    1.0
2020/01/20 16:00:00.000   44.166053450    7.569435131  1449.8537   2  11   0.0123   0.0091   0.0228   0.0025  -0.0057   0.0042   0.00    1.0
2020/01/20 16:00:01.000   44.166053485    7.569435039  1449.8541   2  11   0.0139   0.0095   0.0249  -0.0016  -0.0067   0.0081   1.00    1.0
2020/01/20 16:00:02.000   44.166053495    7.569435033  1449.8621   2  11   0.0133   0.0094   0.0240   0.0008  -0.0063   0.0067   2.00    1.0
2020/01/20 16:00:03.000   44.166053487    7.569435063  1449.8600   2  11   0.0127   0.0093   0.0234   0.0018  -0.0060   0.0055   3.00    1.0
2020/01/20 16:00:04.000   44.166053465    7.569435089  1449.8559   2  11   0.0125   0.0090   0.0229   0.0022  -0.0058   0.0045   4.00    1.0
2020/01/20 16:00:05.000   44.166053415    7.569435118  1449.8596   2  11   0.0123   0.0091   0.0228   0.0023  -0.0056   0.0041   0.00    1.1
2020/01/20 16:00:06.000   44.166053537    7.569435062  1449.8548   2  11   0.0139   0.0094   0.0249  -0.0019  -0.0067   0.0080   1.00    1.1
2020/01/20 16:00:07.000   44.166053494    7.569435087  1449.8582   2  11   0.0133   0.0093   0.0240  -0.0009  -0.0062   0.0066   2.00    1.1
2020/01/20 16:00:08.000   44.166053501    7.569435103  1449.8646   2  11   0.0128   0.0093   0.0234   0.0017  -0.0060   0.0054   3.00    1.1
2020/01/20 16:00:09.000   44.166053477    7.569435142  1449.8645   2  11   0.0124   0.0091   0.0230   0.0021  -0.0057   0.0045   4.00    1.1
2020/01/20 16:00:10.000   44.166053472    7.569435119  1449.8730   2  11   0.0123   0.0089   0.0228   0.0020  -0.0056   0.0041   0.00    1.1
2020/01/20 16:00:11.000   44.166053462    7.569435190  1449.8408   2  11   0.0138   0.0096   0.0249  -0.0014  -0.0068   0.0079   1.00    1.1
2020/01/20 16:00:12.000   44.166053462    7.569435178  1449.8539   2  11   0.0132   0.0093   0.0240   0.0007  -0.0062   0.0066   2.00    1.1
2020/01/20 16:00:13.000   44.166053484    7.569435167  1449.8633   2  11   0.0127   0.0092   0.0234   0.0021  -0.0060   0.0053   3.00    1.1
2020/01/20 16:00:14.000   44.166053465    7.569435141  1449.8731   2  11   0.0124   0.0091   0.0230   0.0024  -0.0057   0.0044   4.00    1.1
2020/01/20 16:00:15.000   44.166053454    7.569435150  1449.8782   2  11   0.0123   0.0092   0.0228   0.0024  -0.0057   0.0037   0.00    1.1
2020/01/20 16:00:16.000   44.166053498    7.569435214  1449.8715   2  11   0.0138   0.0094   0.0249  -0.0015  -0.0067   0.0078   1.00    1.1
2020/01/20 16:00:17.000   44.166053512    7.569435213  1449.8803   2  11   0.0132   0.0093   0.0241   0.0007  -0.0063   0.0064   2.00    1.1
2020/01/20 16:00:18.000   44.166053453    7.569435202  1449.8841   2  11   0.0127   0.0092   0.0234   0.0022  -0.0060   0.0051   3.00    1.1
2020/01/20 16:00:19.000   44.166053471    7.569435176  1449.8899   2  11   0.0124   0.0093   0.0230   0.0021  -0.0056   0.0044   4.00    1.1
2020/01/20 16:00:20.000   44.166053453    7.569435160  1449.8941   2  11   0.0122   0.0089   0.0229   0.0020  -0.0056   0.0039   0.00    1.1
2020/01/20 16:00:21.000   44.166053458    7.569435061  1449.8728   2  11   0.0138   0.0095   0.0249  -0.0014  -0.0067   0.0077   1.00    1.1
2020/01/20 16:00:22.000   44.166053532    7.569435078  1449.8806   2  11   0.0131   0.0094   0.0241   0.0011  -0.0062   0.0063   2.00    1.1
2020/01/20 16:00:23.000   44.166053539    7.569435088  1449.8936   2  11   0.0127   0.0091   0.0234   0.0017  -0.0058   0.0051   3.00    1.1
2020/01/20 16:00:24.000   44.166053553    7.569435135  1449.9038   2  11   0.0124   0.0092   0.0230   0.0021  -0.0057   0.0042   4.00    1.1
2020/01/20 16:00:25.000   44.166053514    7.569435160  1449.9063   2  11   0.0123   0.0091   0.0229   0.0022  -0.0056   0.0036   0.00    1.1
2020/01/20 16:00:26.000   44.166053455    7.569435227  1449.9024   2  11   0.0137   0.0095   0.0249  -0.0014  -0.0066   0.0075   1.00    1.1
2020/01/20 16:00:27.000   44.166053445    7.569435215  1449.8993   2  11   0.0131   0.0093   0.0241   0.0008  -0.0063   0.0062   2.00    1.1
2020/01/20 16:00:28.000   44.166053434    7.569435192  1449.9045   2  11   0.0127   0.0092   0.0234   0.0019  -0.0059   0.0050   3.00    1.1
2020/01/20 16:00:29.000   44.166053482    7.569435183  1449.9102   2  11   0.0124   0.0093   0.0230   0.0022  -0.0057   0.0040   4.00    1.1
2020/01/20 16:00:30.000   44.166053468    7.569435193  1449.9101   2  11   0.0122   0.0090   0.0229   0.0022  -0.0054   0.0035   0.00    1.1
2020/01/20 16:00:31.000   44.166053454    7.569435209  1449.8965   2  11   0.0137   0.0094   0.0249  -0.0015  -0.0067   0.0074   1.00    1.1
2020/01/20 16:00:32.000   44.166053419    7.569435216  1449.8938   2  11   0.0131   0.0092   0.0241   0.0010  -0.0062   0.0061   2.00    1.1
2020/01/20 16:00:33.000   44.166053409    7.569435181  1449.9026   2  11   0.0126   0.0092   0.0234   0.0023  -0.0061   0.0048   3.00    1.1
2020/01/20 16:00:34.000   44.166053408    7.569435176  1449.9017   2  11   0.0123   0.0093   0.0231   0.0025  -0.0057   0.0038   4.00    1.1
2020/01/20 16:00:35.000   44.166053442    7.569435202  1449.9027   2  11   0.0122   0.0091   0.0229   0.0023  -0.0057   0.0035   0.00    1.1
2020/01/20 16:00:36.000   44.166053461    7.569435156  1449.9036   2  11   0.0137   0.0093   0.0249  -0.0019  -0.0065   0.0073   1.00    1.1
2020/01/20 16:00:37.000   44.166053503    7.569435152  1449.9056   2  11   0.0130   0.0094   0.0241   0.0015  -0.0063   0.0060   2.00    1.1
2020/01/20 16:00:38.000   44.166053525    7.569435126  1449.9091   2  11   0.0126   0.0093   0.0234   0.0019  -0.0059   0.0047   3.00    1.1
2020/01/20 16:00:39.000   44.166053515    7.569435164  1449.9095   2  11   0.0124   0.0093   0.0231   0.0026  -0.0057   0.0037   4.00    1.1
2020/01/20 16:00:40.000   44.166053460    7.569435190  1449.9092   2  11   0.0122   0.0091   0.0229   0.0022  -0.0055   0.0031   0.00    1.1
2020/01/20 16:00:41.000   44.166053398    7.569435197  1449.9223   2  11   0.0136   0.0093   0.0248  -0.0016  -0.0066   0.0072   1.00    1.1
2020/01/20 16:00:42.000   44.166053411    7.569435238  1449.9222   2  11   0.0130   0.0092   0.0240  -0.0008  -0.0061   0.0059   2.00    1.1
2020/01/20 16:00:43.000   44.166053434    7.569435255  1449.9167   2  11   0.0126   0.0093   0.0234   0.0021  -0.0060   0.0046   3.00    1.1
2020/01/20 16:00:44.000   44.166053430    7.569435187  1449.9256   2  11   0.0123   0.0092   0.0230   0.0022  -0.0058   0.0036   4.00    1.1
2020/01/20 16:00:45.000   44.166053499    7.569435235  1449.9151   2  11   0.0121   0.0092   0.0229   0.0025  -0.0056   0.0032   0.00    1.1
2020/01/20 16:00:46.000   44.166053488    7.569435150  1449.9220   2  11   0.0136   0.0095   0.0248  -0.0012  -0.0066   0.0071   1.00    1.1
2020/01/20 16:00:47.000   44.166053522    7.569435102  1449.9325   2  11   0.0130   0.0093   0.0240   0.0002  -0.0061   0.0058   2.00    1.1
2020/01/20 16:00:48.000   44.166053530    7.569435114  1449.9347   2  11   0.0126   0.0095   0.0234   0.0018  -0.0058   0.0044   3.00    1.1
2020/01/20 16:00:49.000   44.166053559    7.569435163  1449.9374   2  11   0.0123   0.0092   0.0231   0.0022  -0.0057   0.0034   4.00    1.1
2020/01/20 16:00:50.000   44.166053563    7.569435272  1449.9206   2  11   0.0121   0.0091   0.0229   0.0024  -0.0056   0.0028   0.00    1.1
2020/01/20 16:00:51.000   44.166053640    7.569435263  1449.9259   2  11   0.0135   0.0095   0.0248  -0.0009  -0.0066   0.0069   1.00    1.1
2020/01/20 16:00:52.000   44.166053637    7.569435221  1449.9354   2  11   0.0130   0.0096   0.0240   0.0016  -0.0063   0.0056   2.00    1.1
2020/01/20 16:00:53.000   44.166053619    7.569435229  1449.9298   2  11   0.0126   0.0094   0.0234   0.0023  -0.0060   0.0042   3.00    1.1
2020/01/20 16:00:54.000   44.166053587    7.569435236  1449.9236   2  11   0.0122   0.0091   0.0231   0.0023  -0.0057   0.0033   4.00    1.1
2020/01/20 16:00:55.000   44.166053561    7.569435234  1449.9322   2  11   0.0122   0.0090   0.0229   0.0023  -0.0055   0.0026   0.00    1.1
2020/01/20 16:00:56.000   44.166053542    7.569435265  1449.9255   2  11   0.0135   0.0096   0.0247  -0.0010  -0.0066   0.0068   1.00    1.1
2020/01/20 16:00:57.000   44.166053525    7.569435264  1449.9313   2  11   0.0129   0.0095   0.0240   0.0015  -0.0062   0.0055   2.00    1.1
2020/01/20 16:00:58.000   44.166053536    7.569435270  1449.9328   2  11   0.0125   0.0093   0.0234   0.0021  -0.0060   0.0042   3.00    1.1
2020/01/20 16:00:59.000   44.166053554    7.569435273  1449.9374   2  11   0.0122   0.0091   0.0230   0.0022  -0.0055   0.0032   4.00    1.1
2020/01/20 16:01:00.000   44.166053584    7.569435289  1449.9370   2  11   0.0121   0.0095   0.0229   0.0027  -0.0057   0.0024   0.00    1.1
2020/01/20 16:01:01.000   44.166053713    7.569435121  1449.9532   2  11   0.0134   0.0096   0.0247  -0.0004  -0.0066   0.0066   1.00    1.1
2020/01/20 16:01:02.000   44.166053619    7.569435189  1449.9437   2  11   0.0129   0.0094   0.0239   0.0013  -0.0062   0.0053   2.00    1.1
2020/01/20 16:01:03.000   44.166053607    7.569435232  1449.9438   2  11   0.0125   0.0092   0.0234   0.0021  -0.0059   0.0041   3.00    1.1
2020/01/20 16:01:04.000   44.166053578    7.569435267  1449.9432   2  11   0.0122   0.0094   0.0230   0.0024  -0.0056   0.0031   4.00    1.1
2020/01/20 16:01:05.000   44.166053558    7.569435284  1449.9438   2  11   0.0121   0.0091   0.0228   0.0023  -0.0055   0.0024   0.00    1.1
2020/01/20 16:01:06.000   44.166053674    7.569435193  1449.9430   2  11   0.0134   0.0094   0.0246  -0.0012  -0.0065   0.0065   1.00    1.1
2020/01/20 16:01:07.000   44.166053711    7.569435273  1449.9370   2  11   0.0129   0.0095   0.0239   0.0015  -0.0062   0.0051   2.00    1.1
2020/01/20 16:01:08.000   44.166053671    7.569435261  1449.9418   2  11   0.0124   0.0092   0.0234   0.0020  -0.0058   0.0039   3.00    1.1
2020/01/20 16:01:09.000   44.166053608    7.569435311  1449.9451   2  11   0.0122   0.0093   0.0230   0.0024  -0.0056   0.0027   4.00    1.1
2020/01/20 16:01:10.000   44.166053599    7.569435333  1449.9420   2  11   0.0120   0.0093   0.0228   0.0027  -0.0056   0.0021   0.00    1.1
2020/01/20 16:01:11.000   44.166053627    7.569435293  1449.9430   2  11   0.0133   0.0095   0.0246  -0.0008  -0.0065   0.0063   1.00    1.1
2020/01/20 16:01:12.000   44.166053621    7.569435322  1449.9425   2  11   0.0128   0.0096   0.0239   0.0016  -0.0062   0.0050   2.00    1.1
2020/01/20 16:01:13.000   44.166053626    7.569435309  1449.9461   2  11   0.0124   0.0093   0.0233   0.0022  -0.0059   0.0038   3.00    1.1
2020/01/20 16:01:14.000   44.166053616    7.569435322  1449.9431   2  11   0.0122   0.0093   0.0230   0.0022  -0.0055   0.0026   4.00    1.1
2020/01/20 16:01:15.000   44.166053596    7.569435351  1449.9412   2  11   0.0120   0.0092   0.0228   0.0025  -0.0057   0.0018   0.00    1.1
2020/01/20 16:01:16.000   44.166053579    7.569435308  1449.9522   2  11   0.0133   0.0095   0.0245  -0.0009  -0.0064   0.0062   1.00    1.1
2020/01/20 16:01:17.000   44.166053610    7.569435276  1449.9680   2  11   0.0128   0.0094   0.0238   0.0010  -0.0061   0.0050   2.00    1.1
2020/01/20 16:01:18.000   44.166053639    7.569435317  1449.9717   2  11   0.0124   0.0093   0.0233   0.0019  -0.0057   0.0036   3.00    1.1
2020/01/20 16:01:19.000   44.166053632    7.569435348  1449.9662   2  11   0.0121   0.0092   0.0230   0.0024  -0.0056   0.0026   4.00    1.1
2020/01/20 16:01:20.000   44.166053614    7.569435355  1449.9556   2  11   0.0120   0.0090   0.0228   0.0022  -0.0054   0.0014   0.00    1.1
2020/01/20 16:01:21.000   44.166053598    7.569435294  1449.9575   2  11   0.0132   0.0095   0.0245  -0.0006  -0.0065   0.0061   1.00    1.1
2020/01/20 16:01:22.000   44.166053568    7.569435308  1449.9513   2  11   0.0127   0.0093   0.0238   0.0005  -0.0060   0.0047   2.00    1.1
2020/01/20 16:01:23.000   44.166053629    7.569435294  1449.9612   2  11   0.0123   0.0093   0.0233   0.0019  -0.0057   0.0034   3.00    1.1
2020/01/20 16:01:24.000   44.166053650    7.569435313  1449.9602   2  11   0.0121   0.0092   0.0229   0.0025  -0.0056   0.0023   4.00    1.1
2020/01/20 16:01:25.000   44.166053660    7.569435336  1449.9616   2  11   0.0119   0.0090   0.0227   0.0021  -0.0053   0.0013   0.00    1.1
2020/01/20 16:01:26.000   44.166053846    7.569435214  1449.9979   2  11   0.0131   0.0096   0.0244  -0.0009  -0.0064   0.0059   1.00    1.1
2020/01/20 16:01:27.000   44.166053813    7.569435266  1449.9931   2  11   0.0127   0.0094   0.0238   0.0017  -0.0062   0.0046   2.00    1.1
2020/01/20 16:01:28.000   44.166053727    7.569435316  1449.9762   2  11   0.0123   0.0093   0.0232   0.0021  -0.0057   0.0032   3.00    1.1
2020/01/20 16:01:29.000   44.166053680    7.569435350  1449.9685   2  11   0.0120   0.0094   0.0229   0.0024  -0.0056   0.0023   4.00    1.1
2020/01/20 16:01:30.000   44.166053657    7.569435379  1449.9648   2  11   0.0119   0.0092   0.0227   0.0021  -0.0055   0.0007   0.00    1.1
2020/01/20 16:01:31.000   44.166053833    7.569435206  1449.9873   2  11   0.0130   0.0095   0.0243  -0.0008  -0.0064   0.0058   1.00    1.1
2020/01/20 16:01:32.000   44.166053750    7.569435223  1449.9819   2  11   0.0126   0.0093   0.0237   0.0014  -0.0061   0.0045   2.00    1.1
2020/01/20 16:01:33.000   44.166053689    7.569435302  1449.9705   2  11   0.0122   0.0093   0.0232   0.0020  -0.0058   0.0031   3.00    1.1
2020/01/20 16:01:34.000   44.166053650    7.569435361  1449.9630   2  11   0.0120   0.0092   0.0229   0.0025  -0.0056   0.0018   4.00    1.1
2020/01/20 16:01:35.000   44.166053612    7.569435375  1449.9633   2  11   0.0118   0.0092   0.0227   0.0025  -0.0055   0.0007   0.00    1.1
2020/01/20 16:01:36.000   44.166053609    7.569435331  1449.9819   2  11   0.0130   0.0096   0.0243  -0.0004  -0.0065   0.0056   1.00    1.1
2020/01/20 16:01:37.000   44.166053631    7.569435414  1449.9656   2  11   0.0125   0.0096   0.0237   0.0018  -0.0061   0.0043   2.00    1.1
2020/01/20 16:01:38.000   44.166053632    7.569435360  1449.9662   2  11   0.0121   0.0093   0.0231   0.0021  -0.0058   0.0030   3.00    1.1
2020/01/20 16:01:39.000   44.166053643    7.569435379  1449.9641   2  11   0.0120   0.0094   0.0229   0.0026  -0.0056   0.0018   4.00    1.1
2020/01/20 16:01:40.000   44.166053620    7.569435383  1449.9669   2  11   0.0118   0.0092   0.0227   0.0026  -0.0055  -0.0015   0.00    1.1
2020/01/20 16:01:41.000   44.166053733    7.569435335  1449.9849   2  11   0.0129   0.0095   0.0242  -0.0012  -0.0063   0.0055   1.00    1.1
2020/01/20 16:01:42.000   44.166053707    7.569435328  1449.9887   2  11   0.0125   0.0095   0.0236   0.0015  -0.0061   0.0042   2.00    1.1
2020/01/20 16:01:43.000   44.166053682    7.569435386  1449.9707   2  11   0.0122   0.0095   0.0231   0.0021  -0.0058   0.0028   3.00    1.1
2020/01/20 16:01:44.000   44.166052941    7.569434709  1449.9707   2  11   0.0120   0.0094   0.0228   0.0024  -0.0057   0.0013   4.00    1.1
2020/01/20 16:01:45.000   44.166050394    7.569431222  1450.0035   2  11   0.0118   0.0092   0.0226   0.0024  -0.0054  -0.0015   0.00    1.1
2020/01/20 16:01:46.000   44.166047722    7.569426277  1450.0411   2  11   0.0129   0.0097   0.0241   0.0002  -0.0064   0.0053   1.00    1.1
2020/01/20 16:01:47.000   44.166043809    7.569419305  1450.0960   2  11   0.0124   0.0094   0.0235   0.0013  -0.0060   0.0040   2.00    1.1
2020/01/20 16:01:48.000   44.166039270    7.569410382  1450.1745   2  11   0.0121   0.0094   0.0231   0.0019  -0.0057   0.0028   3.00    1.1
2020/01/20 16:01:49.000   44.166031330    7.569395114  1450.3099   2  11   0.0119   0.0091   0.0228   0.0022  -0.0055   0.0014   4.00    1.1
2020/01/20 16:01:50.000   44.166021038    7.569376310  1450.4590   2  11   0.0117   0.0091   0.0225   0.0021  -0.0054  -0.0016   0.00    1.1
2020/01/20 16:01:51.000   44.166010976    7.569357573  1450.6119   2  11   0.0128   0.0097   0.0240   0.0002  -0.0063   0.0052   1.00    1.1
2020/01/20 16:01:52.000   44.166000270    7.569338855  1450.7657   2  11   0.0124   0.0094   0.0234   0.0014  -0.0060   0.0039   2.00    1.1
2020/01/20 16:01:53.000   44.165987494    7.569320516  1450.8986   2  11   0.0121   0.0094   0.0230   0.0023  -0.0058   0.0025   3.00    1.1
2020/01/20 16:01:54.000   44.165972506    7.569305108  1451.1180   2  11   0.0119   0.0094   0.0227   0.0024  -0.0056   0.0009   4.00    1.1
2020/01/20 16:01:55.000   44.165955092    7.569292143  1451.3574   2  11   0.0117   0.0092   0.0225   0.0026  -0.0055  -0.0022   0.00    1.1
2020/01/20 16:01:56.000   44.165938307    7.569281058  1451.6039   2  11   0.0127   0.0095   0.0240  -0.0002  -0.0063   0.0050   1.00    1.0
2020/01/20 16:01:57.000   44.165920734    7.569271436  1451.8681   2  11   0.0123   0.0094   0.0234   0.0016  -0.0060   0.0038   2.00    1.0
2020/01/20 16:01:58.000   44.165901892    7.569263411  1452.1486   2  11   0.0120   0.0093   0.0229   0.0018  -0.0056   0.0025   3.00    1.0
2020/01/20 16:01:59.000   44.165881159    7.569256034  1452.4147   2  11   0.0118   0.0092   0.0227   0.0026  -0.0055   0.0011   4.00    1.0
2020/01/20 16:02:00.000   44.165859639    7.569249740  1452.6817   2  11   0.0116   0.0092   0.0224   0.0025  -0.0054  -0.0022   0.00    1.0
2020/01/20 16:02:01.000   44.165839249    7.569243329  1452.8610   2  11   0.0127   0.0096   0.0239  -0.0010  -0.0063   0.0049   1.00    1.0
2020/01/20 16:02:02.000   44.165819859    7.569237826  1453.1043   2  11   0.0123   0.0094   0.0233   0.0016  -0.0059   0.0035   2.00    1.0
2020/01/20 16:02:03.000   44.165799714    7.569231974  1453.3546   2  11   0.0120   0.0093   0.0229   0.0023  -0.0058   0.0022   3.00    1.0
2020/01/20 16:02:04.000   44.165779093    7.569226040  1453.6279   2  11   0.0118   0.0094   0.0226   0.0025  -0.0055   0.0002   4.00    1.0
2020/01/20 16:02:05.000   44.165758328    7.569220305  1453.8923   2  11   0.0116   0.0092   0.0224   0.0025  -0.0055  -0.0022   0.00    1.0
2020/01/20 16:02:06.000   44.165738576    7.569214827  1454.2497   2  11   0.0126   0.0095   0.0238  -0.0006  -0.0062   0.0048   1.00    1.0
2020/01/20 16:02:07.000   44.165718748    7.569209395  1454.6548   2  11   0.0122   0.0095   0.0232   0.0017  -0.0060   0.0034   2.00    1.0
2020/01/20 16:02:08.000   44.165699045    7.569203910  1455.0922   2  11   0.0119   0.0092   0.0228   0.0019  -0.0057   0.0020   3.00    1.0
2020/01/20 16:02:09.000   44.165680253    7.569196982  1455.5280   2  11   0.0118   0.0092   0.0226   0.0022  -0.0054  -0.0004   4.00    1.0
2020/01/20 16:02:10.000   44.165662101    7.569186707  1455.8746   2  11   0.0116   0.0092   0.0223   0.0024  -0.0054  -0.0024   0.00    1.0
2020/01/20 16:02:11.000   44.165645103    7.569170772  1456.1152   2  11   0.0125   0.0097   0.0237  -0.0005  -0.0062   0.0046   1.00    1.0
2020/01/20 16:02:12.000   44.165629655    7.569151080  1456.3470   2  11   0.0122   0.0095   0.0232   0.0018  -0.0060   0.0033   2.00    1.0
2020/01/20 16:02:13.000   44.165616054    7.569129501  1456.5733   2  11   0.0119   0.0093   0.0228   0.0017  -0.0056   0.0019   3.00    1.0
2020/01/20 16:02:14.000   44.165604694    7.569104729  1456.7352   2  11   0.0117   0.0093   0.0225   0.0022  -0.0055  -0.0010   4.00    1.0
2020/01/20 16:02:15.000   44.165595065    7.569077262  1456.7978   2  11   0.0115   0.0092   0.0223   0.0024  -0.0054  -0.0026   0.00    1.0
2020/01/20 16:02:16.000   44.165587688    7.569047535  1456.8659   2  11   0.0125   0.0097   0.0236  -0.0002  -0.0063   0.0044   1.00    1.0
2020/01/20 16:02:17.000   44.165582357    7.569014951  1456.9422   2  11   0.0121   0.0094   0.0231   0.0013  -0.0059   0.0032   2.00    1.0
2020/01/20 16:02:18.000   44.165578543    7.568982515  1457.0182   2  11   0.0119   0.0093   0.0227   0.0022  -0.0058   0.0016   3.00    1.0
2020/01/20 16:02:19.000   44.165576177    7.568949867  1457.0968   2  11   0.0117   0.0091   0.0225   0.0021  -0.0055  -0.0010   4.00    1.0
2020/01/20 16:02:20.000   44.165573987    7.568916925  1457.2046   2  11   0.0115   0.0093   0.0222   0.0023  -0.0055  -0.0027   0.00    1.0
2020/01/20 16:02:21.000   44.165571811    7.568883167  1457.2840   2  11   0.0124   0.0095   0.0235  -0.0010  -0.0060   0.0042   1.00    1.0
2020/01/20 16:02:22.000   44.165570267    7.568849959  1457.3836   2  11   0.0121   0.0095   0.0230   0.0015  -0.0059   0.0029   2.00    1.0
2020/01/20 16:02:23.000   44.165569201    7.568817324  1457.5184   2  11   0.0118   0.0093   0.0226   0.0020  -0.0056   0.0016   3.00    1.0
2020/01/20 16:02:24.000   44.165568028    7.568785293  1457.6496   2  11   0.0116   0.0095   0.0224   0.0021  -0.0055  -0.0014   4.00    1.0
2020/01/20 16:02:25.000   44.165567356    7.568754326  1457.8137   2  11   0.0114   0.0093   0.0221   0.0024  -0.0054  -0.0028   0.00    1.0
2020/01/20 16:02:26.000   44.165567165    7.568723831  1458.0016   2  11   0.0123   0.0096   0.0234  -0.0009  -0.0061   0.0042   1.00    1.0
2020/01/20 16:02:27.000   44.165567553    7.568693471  1458.2716   2  11   0.0120   0.0095   0.0229   0.0014  -0.0058   0.0029   2.00    1.0
2020/01/20 16:02:28.000   44.165569394    7.568663446  1458.4966   2  11   0.0117   0.0094   0.0225   0.0019  -0.0055   0.0014   3.00    1.0
2020/01/20 16:02:29.000   44.165572037    7.568633774  1458.8090   2  11   0.0116   0.0092   0.0223   0.0022  -0.0054  -0.0012   4.00    1.0
2020/01/20 16:02:30.000   44.165574248    7.568603563  1459.1628   2  11   0.0114   0.0093   0.0221   0.0023  -0.0054  -0.0029   0.00    1.0
2020/01/20 16:02:31.000   44.165576417    7.568573938  1459.5679   2  11   0.0123   0.0095   0.0233  -0.0004  -0.0062   0.0040   1.00    1.0
2020/01/20 16:02:32.000   44.165578620    7.568544817  1460.0522   2  11   0.0120   0.0093   0.0228   0.0012  -0.0058   0.0028   2.00    1.0
2020/01/20 16:02:33.000   44.165580429    7.568515052  1460.5449   2  11   0.0117   0.0094   0.0225   0.0020  -0.0056   0.0013   3.00    1.0
2020/01/20 16:02:34.000   44.165581838    7.568486050  1461.1203   2  11   0.0116   0.0094   0.0223   0.0023  -0.0054  -0.0015   4.00    1.0
2020/01/20 16:02:35.000   44.165582447    7.568456846  1461.7006   2  11   0.0113   0.0094   0.0220   0.0024  -0.0054  -0.0029   0.00    1.0
2020/01/20 16:02:36.000   44.165581960    7.568427620  1462.3092   2  11   0.0122   0.0096   0.0232  -0.0006  -0.0062   0.0039   1.00    1.0
2020/01/20 16:02:37.000   44.165580888    7.568399071  1463.0092   2  11   0.0119   0.0095   0.0228   0.0014  -0.0059   0.0027   2.00    1.0
2020/01/20 16:02:38.000   44.165579735    7.568370614  1463.7111   2  11   0.0117   0.0094   0.0224   0.0018  -0.0056   0.0010   3.00    1.0
2020/01/20 16:02:39.000   44.165578929    7.568341682  1464.4166   2  11   0.0116   0.0094   0.0222   0.0021  -0.0054  -0.0014   4.00    1.0
2020/01/20 16:02:40.000   44.165577969    7.568312919  1465.0945   2  11   0.0112   0.0093   0.0219   0.0024  -0.0053  -0.0029   0.00    1.0
2020/01/20 16:02:41.000   44.165576535    7.568285245  1465.7859   2  11   0.0122   0.0096   0.0231  -0.0010  -0.0060   0.0038   1.00    1.0
2020/01/20 16:02:42.000   44.165574983    7.568257724  1466.5298   2  11   0.0119   0.0096   0.0227   0.0013  -0.0058   0.0025   2.00    1.0
2020/01/20 16:02:43.000   44.165573267    7.568230298  1467.2784   2  11   0.0116   0.0095   0.0223   0.0020  -0.0056   0.0008   3.00    1.0
2020/01/20 16:02:44.000   44.165570945    7.568202194  1468.0285   2  11   0.0116   0.0092   0.0222   0.0018  -0.0053  -0.0016   4.00    1.0
2020/01/20 16:02:45.000   44.165568650    7.568174648  1468.7631   2  11   0.0112   0.0093   0.0218   0.0022  -0.0054  -0.0030   0.00    1.0
2020/01/20 16:02:46.000   44.165566798    7.568147437  1469.4909   2  10   0.0148   0.0096   0.0255   0.0022  -0.0055   0.0104   1.00    1.1
2020/01/20 16:02:47.000   44.165565023    7.568120150  1470.2971   2  10   0.0126   0.0095   0.0233   0.0015  -0.0056   0.0056   2.00    1.0
2020/01/20 16:02:48.000   44.165563301    7.568093437  1471.0782   2  10   0.0124   0.0094   0.0230   0.0023  -0.0054   0.0050   3.00    1.0
2020/01/20 16:02:49.000   44.165561917    7.568066592  1471.9105   2  12   0.0110   0.0091   0.0210   0.0033  -0.0040  -0.0051   4.00    1.0
2020/01/20 16:02:50.000   44.165560269    7.568039382  1472.7335   2  12   0.0107   0.0089   0.0207   0.0033  -0.0039  -0.0055   0.00    1.0
2020/01/20 16:02:51.000   44.165558537    7.568012539  1473.5943   2  12   0.0113   0.0093   0.0214   0.0030  -0.0041  -0.0045   1.00    1.0
2020/01/20 16:02:52.000   44.165556361    7.567984885  1474.4397   2  12   0.0111   0.0091   0.0211   0.0031  -0.0042  -0.0049   2.00    1.0
2020/01/20 16:02:53.000   44.165554621    7.567957893  1475.2970   2  12   0.0109   0.0092   0.0209   0.0033  -0.0040  -0.0052   3.00    1.0
2020/01/20 16:02:54.000   44.165552784    7.567931180  1476.1695   2  12   0.0109   0.0090   0.0208   0.0034  -0.0040  -0.0053   4.00    1.0
2020/01/20 16:02:55.000   44.165550700    7.567904308  1476.9988   2  12   0.0106   0.0091   0.0206   0.0032  -0.0040  -0.0055   0.00    1.0
2020/01/20 16:02:56.000   44.165549068    7.567877851  1477.8138   2  12   0.0112   0.0091   0.0213   0.0029  -0.0040  -0.0046   1.00    1.0
2020/01/20 16:02:57.000   44.165546890    7.567852822  1478.7212   2  12   0.0110   0.0094   0.0210   0.0031  -0.0041  -0.0050   2.00    1.0
2020/01/20 16:02:58.000   44.165545246    7.567827010  1479.6217   2  12   0.0109   0.0091   0.0208   0.0032  -0.0040  -0.0053   3.00    1.0
2020/01/20 16:02:59.000   44.165543148    7.567800854  1480.5522   2  12   0.0108   0.0092   0.0207   0.0034  -0.0040  -0.0054   4.00    1.0
2020/01/20 16:03:00.000   44.165540618    7.567774236  1481.4615   2  11   0.0113   0.0093   0.0206   0.0021  -0.0036  -0.0060   0.00    1.0
2020/01/20 16:03:01.000   44.165538052    7.567747774  1482.3412   2  12   0.0112   0.0092   0.0212   0.0030  -0.0042  -0.0047   1.00    1.0
2020/01/20 16:03:02.000   44.165536210    7.567721654  1483.2083   2  12   0.0110   0.0092   0.0209   0.0031  -0.0039  -0.0050   2.00    1.0
2020/01/20 16:03:03.000   44.165534664    7.567696073  1484.0901   2  12   0.0108   0.0092   0.0207   0.0033  -0.0040  -0.0053   3.00    1.0
2020/01/20 16:03:04.000   44.165532846    7.567670053  1485.0002   2  12   0.0107   0.0092   0.0207   0.0034  -0.0040  -0.0054   4.00    1.0
2020/01/20 16:03:05.000   44.165531536    7.567644280  1485.8817   2  12   0.0105   0.0093   0.0205   0.0031  -0.0039  -0.0056   0.00    1.0
2020/01/20 16:03:06.000   44.165529248    7.567618314  1486.7589   2  12   0.0112   0.0092   0.0211   0.0029  -0.0041  -0.0047   1.00    1.0
2020/01/20 16:03:07.000   44.165526426    7.567592563  1487.6341   2  12   0.0109   0.0090   0.0209   0.0030  -0.0038  -0.0050   2.00    1.0
2020/01/20 16:03:08.000   44.165524023    7.567567017  1488.5257   2  12   0.0108   0.0092   0.0207   0.0032  -0.0039  -0.0053   3.00    1.0
2020/01/20 16:03:09.000   44.165521706    7.567541705  1489.4061   2  12   0.0108   0.0090   0.0206   0.0033  -0.0038  -0.0054   4.00    1.0
2020/01/20 16:03:10.000   44.165519917    7.567516316  1490.3170   2  12   0.0105   0.0092   0.0204   0.0033  -0.0039  -0.0056   0.00    1.0
2020/01/20 16:03:11.000   44.165518029    7.567490499  1491.2270   2  12   0.0111   0.0093   0.0210   0.0030  -0.0040  -0.0047   1.00    1.0
2020/01/20 16:03:12.000   44.165516190    7.567464884  1492.1441   2  12   0.0109   0.0091   0.0208   0.0030  -0.0040  -0.0051   2.00    1.0
2020/01/20 16:03:13.000   44.165514523    7.567440956  1493.0562   2  12   0.0108   0.0091   0.0206   0.0032  -0.0040  -0.0053   3.00    1.0
2020/01/20 16:03:14.000   44.165512956    7.567416829  1493.9717   2  12   0.0109   0.0093   0.0205   0.0033  -0.0040  -0.0055   4.00    1.0
2020/01/20 16:03:15.000   44.165510857    7.567390791  1494.9080   2  12   0.0107   0.0092   0.0204   0.0036  -0.0042  -0.0060   0.00    1.0
2020/01/20 16:03:16.000   44.165508506    7.567364153  1495.8382   2  12   0.0112   0.0094   0.0210   0.0030  -0.0042  -0.0050   1.00    1.0
2020/01/20 16:03:17.000   44.165505786    7.567337607  1496.6902   2  12   0.0109   0.0092   0.0207   0.0031  -0.0042  -0.0052   2.00    1.1
2020/01/20 16:03:18.000   44.165503724    7.567313787  1497.4955   2  12   0.0108   0.0091   0.0206   0.0032  -0.0040  -0.0054   3.00    1.1
2020/01/20 16:03:19.000   44.165501586    7.567290456  1498.3168   2  12   0.0108   0.0092   0.0205   0.0033  -0.0039  -0.0055   4.00    1.1
2020/01/20 16:03:20.000   44.165499475    7.567266458  1499.2257   2  12   0.0104   0.0091   0.0203   0.0030  -0.0038  -0.0057   0.00    1.1
2020/01/20 16:03:21.000   44.165496867    7.567241950  1500.0952   2  12   0.0110   0.0093   0.0209   0.0028  -0.0042  -0.0050   1.00    1.1
2020/01/20 16:03:22.000   44.165493962    7.567218661  1500.9484   2  12   0.0108   0.0091   0.0207   0.0028  -0.0039  -0.0052   2.00    1.1
2020/01/20 16:03:23.000   44.165490256    7.567195355  1501.7597   2  12   0.0107   0.0090   0.0205   0.0031  -0.0039  -0.0054   3.00    1.1
2020/01/20 16:03:24.000   44.165488512    7.567170439  1502.6495   2  12   0.0107   0.0091   0.0205   0.0032  -0.0039  -0.0055   4.00    1.1
2020/01/20 16:03:25.000   44.165486618    7.567144929  1503.5423   2  12   0.0104   0.0091   0.0203   0.0031  -0.0040  -0.0058   0.00    1.1
2020/01/20 16:03:26.000   44.165484463    7.567118969  1504.3742   2  12   0.0110   0.0093   0.0208   0.0027  -0.0041  -0.0050   1.00    1.1
2020/01/20 16:03:27.000   44.165481909    7.567093401  1505.1509   2  12   0.0108   0.0091   0.0207   0.0030  -0.0041  -0.0052   2.00    1.1
2020/01/20 16:03:28.000   44.165478889    7.567067210  1505.8768   2  12   0.0107   0.0091   0.0205   0.0029  -0.0040  -0.0054   3.00    1.1
2020/01/20 16:03:29.000   44.165476725    7.567042036  1506.5481   2  12   0.0106   0.0090   0.0204   0.0030  -0.0039  -0.0055   4.00    1.1
2020/01/20 16:03:30.000   44.165475560    7.567016060  1507.1787   2  12   0.0104   0.0090   0.0202   0.0031  -0.0038  -0.0058   0.00    1.1
2020/01/20 16:03:31.000   44.165474312    7.566989160  1507.8062   2  12   0.0109   0.0092   0.0208   0.0027  -0.0041  -0.0050   1.00    1.1
2020/01/20 16:03:32.000   44.165472437    7.566961652  1508.4190   2  12   0.0107   0.0090   0.0206   0.0029  -0.0040  -0.0052   2.00    1.1
2020/01/20 16:03:33.000   44.165470626    7.566933875  1508.9883   2  12   0.0107   0.0092   0.0205   0.0030  -0.0041  -0.0054   3.00    1.1
2020/01/20 16:03:34.000   44.165468719    7.566906506  1509.5337   2  12   0.0106   0.0090   0.0204   0.0030  -0.0038  -0.0054   4.00    1.1
2020/01/20 16:03:35.000   44.165466886    7.566879456  1510.0916   2  12   0.0104   0.0090   0.0202   0.0031  -0.0040  -0.0058   0.00    1.1
2020/01/20 16:03:36.000   44.165465011    7.566851960  1510.6184   2  12   0.0109   0.0093   0.0207   0.0026  -0.0040  -0.0050   1.00    1.1
2020/01/20 16:03:37.000   44.165462181    7.566823766  1511.1654   2  12   0.0107   0.0092   0.0206   0.0027  -0.0041  -0.0052   2.00    1.1
2020/01/20 16:03:38.000   44.165459791    7.566796189  1511.6847   2  12   0.0106   0.0091   0.0204   0.0030  -0.0040  -0.0054   3.00    1.1
2020/01/20 16:03:39.000   44.165457434    7.566768589  1512.2284   2  12   0.0105   0.0091   0.0204   0.0031  -0.0038  -0.0055   4.00    1.1
2020/01/20 16:03:40.000   44.165454483    7.566739841  1512.8100   2  12   0.0103   0.0091   0.0202   0.0030  -0.0038  -0.0058   0.00    1.2
2020/01/20 16:03:41.000   44.165451339    7.566710356  1513.3953   2  12   0.0108   0.0091   0.0207   0.0027  -0.0042  -0.0051   1.00    1.2
2020/01/20 16:03:42.000   44.165447909    7.566680650  1513.9737   2  12   0.0107   0.0091   0.0205   0.0029  -0.0040  -0.0053   2.00    1.2
2020/01/20 16:03:43.000   44.165444522    7.566651314  1514.5228   2  12   0.0106   0.0090   0.0204   0.0029  -0.0040  -0.0054   3.00    1.2
2020/01/20 16:03:44.000   44.165441312    7.566622411  1515.0520   2  12   0.0105   0.0090   0.0203   0.0030  -0.0040  -0.0054   4.00    1.2
2020/01/20 16:03:45.000   44.165438758    7.566593763  1515.5997   2  12   0.0103   0.0091   0.0201   0.0030  -0.0040  -0.0058   0.00    1.2
2020/01/20 16:03:46.000   44.165436248    7.566565408  1516.1471   2  12   0.0108   0.0093   0.0206   0.0024  -0.0041  -0.0050   1.00    1.2
2020/01/20 16:03:47.000   44.165433495    7.566537146  1516.7224   2  12   0.0106   0.0092   0.0204   0.0027  -0.0039  -0.0053   2.00    1.2
2020/01/20 16:03:48.000   44.165430527    7.566508313  1517.3061   2  12   0.0106   0.0091   0.0203   0.0028  -0.0041  -0.0054   3.00    1.2
2020/01/20 16:03:49.000   44.165427623    7.566478829  1517.8719   2  12   0.0106   0.0092   0.0203   0.0029  -0.0038  -0.0055   4.00    1.2
2020/01/20 16:03:50.000   44.165425008    7.566449317  1518.4316   2  12   0.0102   0.0090   0.0201   0.0029  -0.0039  -0.0058   0.00    1.2
2020/01/20 16:03:51.000   44.165422697    7.566419506  1518.9783   2  12   0.0107   0.0093   0.0206   0.0025  -0.0042  -0.0051   1.00    1.2
2020/01/20 16:03:52.000   44.165420250    7.566389086  1519.5307   2  12   0.0106   0.0092   0.0204   0.0028  -0.0040  -0.0053   2.00    1.2
2020/01/20 16:03:53.000   44.165418329    7.566359250  1520.1123   2  12   0.0105   0.0092   0.0203   0.0029  -0.0040  -0.0054   3.00    1.2
2020/01/20 16:03:54.000   44.165416631    7.566329582  1520.7107   2  12   0.0105   0.0092   0.0203   0.0030  -0.0038  -0.0054   4.00    1.2
2020/01/20 16:03:55.000   44.165414880    7.566299630  1521.3063   2  12   0.0102   0.0090   0.0200   0.0028  -0.0039  -0.0058   0.00    1.2
2020/01/20 16:03:56.000   44.165412935    7.566269143  1521.8907   2  12   0.0107   0.0091   0.0205   0.0025  -0.0041  -0.0051   1.00    1.2
2020/01/20 16:03:57.000   44.165410252    7.566237119  1522.4843   2  12   0.0106   0.0091   0.0204   0.0025  -0.0040  -0.0053   2.00    1.2
2020/01/20 16:03:58.000   44.165407279    7.566204539  1523.1294   2  12   0.0105   0.0092   0.0203   0.0027  -0.0039  -0.0054   3.00    1.2
2020/01/20 16:03:59.000   44.165404591    7.566172447  1523.7801   2  12   0.0105   0.0091   0.0202   0.0028  -0.0039  -0.0054   4.00    1.2
2020/01/20 16:04:00.000   44.165401362    7.566140320  1524.4719   2  12   0.0102   0.0091   0.0200   0.0028  -0.0040  -0.0057   0.00    1.2
2020/01/20 16:04:01.000   44.165398298    7.566108239  1525.1809   2  12   0.0107   0.0093   0.0205   0.0025  -0.0042  -0.0051   1.00    1.2
2020/01/20 16:04:02.000   44.165394919    7.566075586  1525.9431   2  12   0.0106   0.0092   0.0203   0.0027  -0.0040  -0.0053   2.00    1.2
2020/01/20 16:04:03.000   44.165391390    7.566042827  1526.6819   2  12   0.0105   0.0090   0.0202   0.0028  -0.0039  -0.0054   3.00    1.2
2020/01/20 16:04:04.000   44.165387589    7.566010629  1527.4111   2  12   0.0105   0.0092   0.0202   0.0029  -0.0039  -0.0054   4.00    1.2
2020/01/20 16:04:05.000   44.165383965    7.565978036  1528.1228   2  12   0.0101   0.0089   0.0199   0.0029  -0.0040  -0.0058   0.00    1.2
2020/01/20 16:04:06.000   44.165380251    7.565945975  1528.8354   2  12   0.0106   0.0091   0.0204   0.0025  -0.0042  -0.0051   1.00    1.2
2020/01/20 16:04:07.000   44.165376559    7.565913560  1529.5657   2  12   0.0105   0.0091   0.0202   0.0024  -0.0039  -0.0053   2.00    1.2
2020/01/20 16:04:08.000   44.165372364    7.565880243  1530.2745   2  12   0.0104   0.0090   0.0202   0.0027  -0.0039  -0.0054   3.00    1.2
2020/01/20 16:04:09.000   44.165367391    7.565846327  1530.9415   2  12   0.0104   0.0089   0.0201   0.0028  -0.0039  -0.0054   4.00    1.2
2020/01/20 16:04:10.000   44.165363038    7.565813975  1531.6380   2  12   0.0101   0.0090   0.0199   0.0026  -0.0039  -0.0057   0.00    1.2
2020/01/20 16:04:11.000   44.165359265    7.565782908  1532.3797   2  12   0.0106   0.0092   0.0203   0.0023  -0.0041  -0.0052   1.00    1.2
2020/01/20 16:04:12.000   44.165355290    7.565752616  1533.2191   2  12   0.0106   0.0090   0.0202   0.0025  -0.0041  -0.0053   2.00    1.2
2020/01/20 16:04:13.000   44.165351582    7.565722874  1534.1112   2  11   0.0105   0.0090   0.0201   0.0027  -0.0040  -0.0054   3.00    1.2
2020/01/20 16:04:14.000   44.165347575    7.565691761  1535.0117   2  11   0.0105   0.0090   0.0201   0.0026  -0.0037  -0.0054   4.00    1.2
2020/01/20 16:04:15.000   44.165343408    7.565660060  1535.8519   2  11   0.0102   0.0090   0.0198   0.0023  -0.0039  -0.0058   0.00    1.2
2020/01/20 16:04:16.000   44.165339546    7.565628806  1536.6884   2  11   0.0107   0.0090   0.0203   0.0023  -0.0041  -0.0052   1.00    1.2
2020/01/20 16:04:17.000   44.165334980    7.565596168  1537.5115   2  11   0.0105   0.0091   0.0201   0.0023  -0.0039  -0.0053   2.00    1.2
2020/01/20 16:04:18.000   44.165329738    7.565561539  1538.1630   2  11   0.0105   0.0091   0.0201   0.0024  -0.0038  -0.0054   3.00    1.2
2020/01/20 16:04:19.000   44.165324369    7.565526239  1538.6342   2  11   0.0105   0.0090   0.0200   0.0026  -0.0038  -0.0054   4.00    1.2
2020/01/20 16:04:20.000   44.165319064    7.565493061  1539.0896   2  12   0.0101   0.0091   0.0198   0.0027  -0.0040  -0.0057   0.00    1.0
2020/01/20 16:04:21.000   44.165313586    7.565461368  1539.6037   2  12   0.0105   0.0092   0.0202   0.0022  -0.0041  -0.0051   1.00    1.0
2020/01/20 16:04:22.000   44.165307900    7.565429361  1540.1701   2  12   0.0104   0.0090   0.0201   0.0025  -0.0040  -0.0052   2.00    1.0
2020/01/20 16:04:23.000   44.165302144    7.565398997  1540.8046   2  12   0.0103   0.0089   0.0200   0.0026  -0.0039  -0.0053   3.00    1.0
2020/01/20 16:04:24.000   44.165296494    7.565369450  1541.5313   2  12   0.0104   0.0091   0.0200   0.0027  -0.0038  -0.0053   4.00    1.0
2020/01/20 16:04:25.000   44.165289040    7.565338559  1542.2775   2  12   0.0100   0.0090   0.0197   0.0027  -0.0040  -0.0057   0.00    1.1
2020/01/20 16:04:26.000   44.165281324    7.565307713  1542.9994   2  12   0.0104   0.0091   0.0202   0.0023  -0.0042  -0.0050   1.00    1.1
2020/01/20 16:04:27.000   44.165272792    7.565276013  1543.7305   2  12   0.0104   0.0091   0.0200   0.0025  -0.0041  -0.0052   2.00    1.1
2020/01/20 16:04:28.000   44.165263627    7.565245042  1544.4270   2  12   0.0103   0.0089   0.0199   0.0026  -0.0039  -0.0053   3.00    1.1
2020/01/20 16:04:29.000   44.165254487    7.565214422  1545.1262   2  12   0.0103   0.0090   0.0199   0.0027  -0.0039  -0.0052   4.00    1.1
2020/01/20 16:04:30.000   44.165245626    7.565183304  1545.7865   2  12   0.0100   0.0090   0.0196   0.0025  -0.0040  -0.0056   0.00    1.1
2020/01/20 16:04:31.000   44.165237048    7.565153413  1546.5416   2  12   0.0104   0.0091   0.0201   0.0023  -0.0041  -0.0051   1.00    1.1
2020/01/20 16:04:32.000   44.165228425    7.565123954  1547.3548   2  12   0.0103   0.0091   0.0200   0.0024  -0.0041  -0.0052   2.00    1.1
2020/01/20 16:04:33.000   44.165220021    7.565095447  1548.2118   2  12   0.0103   0.0092   0.0199   0.0025  -0.0041  -0.0052   3.00    1.1
2020/01/20 16:04:34.000   44.165211437    7.565066529  1549.0814   2  12   0.0103   0.0091   0.0199   0.0026  -0.0040  -0.0052   4.00    1.1
2020/01/20 16:04:35.000   44.165202369    7.565037888  1549.9310   2  12   0.0099   0.0090   0.0196   0.0025  -0.0040  -0.0057   0.00    1.1
2020/01/20 16:04:36.000   44.165193088    7.565009752  1550.7956   2  12   0.0104   0.0091   0.0200   0.0022  -0.0041  -0.0051   1.00    1.1
2020/01/20 16:04:37.000   44.165183581    7.564982139  1551.7191   2  12   0.0103   0.0091   0.0199   0.0022  -0.0040  -0.0051   2.00    1.1
2020/01/20 16:04:38.000   44.165174399    7.564955138  1552.6682   2  12   0.0102   0.0092   0.0198   0.0027  -0.0041  -0.0052   3.00    1.1
2020/01/20 16:04:39.000   44.165165260    7.564926868  1553.5840   2  12   0.0103   0.0090   0.0199   0.0024  -0.0040  -0.0052   4.00    1.1
2020/01/20 16:04:40.000   44.165155877    7.564898452  1554.4510   2  12   0.0099   0.0091   0.0195   0.0025  -0.0040  -0.0056   0.00    1.1
2020/01/20 16:04:41.000   44.165146170    7.564869666  1555.2871   2  12   0.0103   0.0092   0.0200   0.0022  -0.0041  -0.0050   1.00    1.1
2020/01/20 16:04:42.000   44.165136443    7.564840567  1556.1272   2  12   0.0103   0.0091   0.0198   0.0024  -0.0041  -0.0051   2.00    1.1
2020/01/20 16:04:43.000   44.165126755    7.564811634  1556.9452   2  12   0.0102   0.0090   0.0198   0.0025  -0.0041  -0.0052   3.00    1.1
2020/01/20 16:04:44.000   44.165116909    7.564783022  1557.7768   2  12   0.0103   0.0090   0.0198   0.0027  -0.0040  -0.0052   4.00    1.1
2020/01/20 16:04:45.000   44.165106820    7.564754328  1558.5929   2  12   0.0099   0.0091   0.0195   0.0026  -0.0042  -0.0056   0.00    1.1
2020/01/20 16:04:46.000   44.165096354    7.564725966  1559.4163   2  12   0.0103   0.0091   0.0199   0.0019  -0.0041  -0.0050   1.00    1.1
2020/01/20 16:04:47.000   44.165086304    7.564698131  1560.2392   2  12   0.0102   0.0092   0.0198   0.0024  -0.0042  -0.0051   2.00    1.1
2020/01/20 16:04:48.000   44.165076516    7.564670599  1561.0978   2  12   0.0102   0.0090   0.0197   0.0024  -0.0040  -0.0051   3.00    1.1
2020/01/20 16:04:49.000   44.165066509    7.564642968  1561.9810   2  12   0.0102   0.0092   0.0197   0.0026  -0.0039  -0.0051   4.00    1.1
2020/01/20 16:04:50.000   44.165056624    7.564615729  1562.8714   2  12   0.0099   0.0090   0.0194   0.0025  -0.0040  -0.0056   0.00    1.1
2020/01/20 16:04:51.000   44.165047455    7.564589400  1563.7817   2  12   0.0103   0.0091   0.0198   0.0021  -0.0043  -0.0050   1.00    1.1
2020/01/20 16:04:52.000   44.165038499    7.564563116  1564.7486   2  12   0.0102   0.0091   0.0197   0.0025  -0.0042  -0.0051   2.00    1.1
2020/01/20 16:04:53.000   44.165029510    7.564537009  1565.7654   2  12   0.0102   0.0091   0.0197   0.0024  -0.0040  -0.0051   3.00    1.1
2020/01/20 16:04:54.000   44.165020596    7.564511301  1566.7754   2  12   0.0102   0.0090   0.0197   0.0027  -0.0041  -0.0051   4.00    1.1
2020/01/20 16:04:55.000   44.165011431    7.564485454  1567.7835   2  12   0.0099   0.0090   0.0194   0.0026  -0.0041  -0.0055   0.00    1.2
2020/01/20 16:04:56.000   44.165002457    7.564460484  1568.7929   2  12   0.0103   0.0091   0.0198   0.0021  -0.0042  -0.0050   1.00    1.2
2020/01/20 16:04:57.000   44.164994002    7.564435882  1569.7750   2  12   0.0102   0.0089   0.0197   0.0024  -0.0040  -0.0050   2.00    1.2
2020/01/20 16:04:58.000   44.164986153    7.564410531  1570.7666   2  12   0.0102   0.0089   0.0196   0.0024  -0.0040  -0.0050   3.00    1.2
2020/01/20 16:04:59.000   44.164978177    7.564384873  1571.7633   2  12   0.0102   0.0089   0.0196   0.0026  -0.0038  -0.0050   4.00    1.2
2020/01/20 16:05:00.000   44.164970567    7.564359534  1572.7199   2  12   0.0098   0.0090   0.0193   0.0024  -0.0040  -0.0055   0.00    1.2
2020/01/20 16:05:01.000   44.164962918    7.564333751  1573.6774   2  12   0.0103   0.0092   0.0197   0.0020  -0.0043  -0.0049   1.00    1.2
2020/01/20 16:05:02.000   44.164955530    7.564307949  1574.7161   2  12   0.0102   0.0092   0.0196   0.0023  -0.0042  -0.0050   2.00    1.2
2020/01/20 16:05:03.000   44.164947449    7.564281333  1575.7201   2  12   0.0101   0.0090   0.0196   0.0025  -0.0040  -0.0050   3.00    1.2
2020/01/20 16:05:04.000   44.164939983    7.564255381  1576.7232   2  12   0.0102   0.0091   0.0196   0.0026  -0.0039  -0.0049   4.00    1.2
2020/01/20 16:05:05.000   44.164932964    7.564228937  1577.6744   2  12   0.0098   0.0090   0.0192   0.0025  -0.0040  -0.0054   0.00    1.2
2020/01/20 16:05:06.000   44.164925918    7.564202347  1578.6766   2  12   0.0102   0.0091   0.0196   0.0019  -0.0042  -0.0049   1.00    1.2
2020/01/20 16:05:07.000   44.164917656    7.564175336  1579.7352   2  12   0.0102   0.0090   0.0195   0.0024  -0.0041  -0.0050   2.00    1.2
2020/01/20 16:05:08.000   44.164909695    7.564148603  1580.7676   2  12   0.0102   0.0090   0.0195   0.0024  -0.0041  -0.0049   3.00    1.2
2020/01/20 16:05:09.000   44.164902291    7.564122561  1581.7538   2  12   0.0102   0.0091   0.0196   0.0024  -0.0040  -0.0048   4.00    1.2
2020/01/20 16:05:10.000   44.164895816    7.564095895  1582.7270   2  12   0.0098   0.0090   0.0192   0.0022  -0.0040  -0.0053   0.00    1.2
2020/01/20 16:05:11.000   44.164889433    7.564068622  1583.7212   2  12   0.0102   0.0091   0.0196   0.0020  -0.0042  -0.0048   1.00    1.2
2020/01/20 16:05:12.000   44.164883828    7.564041843  1584.6945   2  12   0.0101   0.0090   0.0195   0.0022  -0.0041  -0.0049   2.00    1.2
2020/01/20 16:05:13.000   44.164879157    7.564016347  1585.6242   2  12   0.0102   0.0090   0.0194   0.0024  -0.0041  -0.0049   3.00    1.2
